# 
# Header Description:
# 
# Version: v3.10.3 (24097-google), Manufacturer: samsung, Model: SM-S928B, GNSS HW Year: 2023, Platform: 14, API Level: 34 
# 
# Raw GNSS measurements format:
#   Raw,utcTimeMillis,TimeNanos,LeapSecond,TimeUncertaintyNanos,FullBiasNanos,BiasNanos,BiasUncertaintyNanos,DriftNanosPerSecond,DriftUncertaintyNanosPerSecond,HardwareClockDiscontinuityCount,Svid,TimeOffsetNanos,State,ReceivedSvTimeNanos,ReceivedSvTimeUncertaintyNanos,Cn0DbHz,PseudorangeRateMetersPerSecond,PseudorangeRateUncertaintyMetersPerSecond,AccumulatedDeltaRangeState,AccumulatedDeltaRangeMeters,AccumulatedDeltaRangeUncertaintyMeters,CarrierFrequencyHz,CarrierCycles,CarrierPhase,CarrierPhaseUncertainty,MultipathIndicator,SnrInDb,ConstellationType,AgcDb,BasebandCn0DbHz,FullInterSignalBiasNanos,FullInterSignalBiasUncertaintyNanos,SatelliteInterSignalBiasNanos,SatelliteInterSignalBiasUncertaintyNanos,CodeType,ChipsetElapsedRealtimeNanos
# 
# Location fix format:
#   Fix,Provider,LatitudeDegrees,LongitudeDegrees,AltitudeMeters,SpeedMps,AccuracyMeters,BearingDegrees,UnixTimeMillis,SpeedAccuracyMps,BearingAccuracyDegrees,elapsedRealtimeNanos,VerticalAccuracyMeters,MockLocation
# 
# Navigation message format:
#   Nav,Svid,Type,Status,MessageId,Sub-messageId,Data(Bytes)
# 
# NMEA format (for [NMEA sentence] format see https://en.wikipedia.org/wiki/NMEA_0183):
#   NMEA,[NMEA sentence],(UTC)TimeInMs
# 
# GnssAntennaInfo format (https://developer.android.com/reference/android/location/GnssAntennaInfo):
#   GnssAntennaInfo,CarrierFrequencyMHz,PhaseCenterOffsetXOffsetMm,PhaseCenterOffsetXOffsetUncertaintyMm,PhaseCenterOffsetYOffsetMm,PhaseCenterOffsetYOffsetUncertaintyMm,PhaseCenterOffsetZOffsetMm,PhaseCenterOffsetZOffsetUncertaintyMm,PhaseCenterVariationCorrectionsArray,PhaseCenterVariationCorrectionUncertaintiesArray,PhaseCenterVariationCorrectionsDeltaPhi,PhaseCenterVariationCorrectionsDeltaTheta,SignalGainCorrectionsArray,SignalGainCorrectionUncertaintiesArray,SignalGainCorrectionsDeltaPhi,SignalGainCorrectionsDeltaTheta
# 
# GnssStatus format (https://developer.android.com/reference/android/location/GnssStatus):
#   Status,UnixTimeMillis,SignalCount,SignalIndex,ConstellationType,Svid,CarrierFrequencyHz,Cn0DbHz,AzimuthDegrees,ElevationDegrees,UsedInFix,HasAlmanacData,HasEphemerisData,BasebandCn0DbHz
# Orientation sensor format (https://developer.android.com/reference/android/hardware/SensorEvent#values):
#   OrientationDeg,utcTimeMillis,elapsedRealtimeNanos,yawDeg,rollDeg,pitchDeg
Raw,2266290216,1996861775000000,18,0.0,-1401716603028839829,0.38957977294921875,1580.2528942003846,0.9765624737812494,23.561083306729607,14,2,0.0,16399,577464721269851,31,33.0,627.3316650390625,1.1970000267028809,16,0.0,0.0,1575420030,,,,0,0.0,1,-48.66,28.0,0.0,0.0,,,C,2266290216724461
Raw,2266290216,1996861775000000,18,0.0,-1401716603028839829,0.38957977294921875,1580.2528942003846,0.9765624737812494,23.561083306729607,14,3,0.0,16399,577464734530985,40,31.3,275.1170654296875,0.7475000023841858,16,0.0,0.0,1575420030,,,,0,0.0,1,-48.66,26.3,0.0,0.0,,,C,2266290216761857
Raw,2266290216,1996861775000000,18,0.0,-1401716603028839829,0.38957977294921875,1580.2528942003846,0.9765624737812494,23.561083306729607,14,6,0.0,16399,577464728951980,13,41.0,-202.7198486328125,0.9065000414848328,16,0.0,0.0,1575420030,,,,0,0.0,1,-48.66,36.0,0.0,0.0,,,C,2266290216776753
Raw,2266290216,1996861775000000,18,0.0,-1401716603028839829,0.38957977294921875,1580.2528942003846,0.9765624737812494,23.561083306729607,14,9,0.0,16399,577464733049775,11,43.0,-203.55715942382812,0.8490000367164612,16,0.0,0.0,1575420030,,,,0,0.0,1,-48.66,38.0,0.0,0.0,,,C,2266290216788576
Raw,2266290216,1996861775000000,18,0.0,-1401716603028839829,0.38957977294921875,1580.2528942003846,0.9765624737812494,23.561083306729607,14,30,0.0,16399,577464720107099,24,35.9,-639.8339233398438,1.1085000038146973,16,0.0,0.0,1575420030,,,,0,0.0,1,-48.66,30.9,0.0,0.0,,,C,2266290216800607
Raw,2266290216,1996861775000000,18,0.0,-1401716603028839829,0.38957977294921875,1580.2528942003846,0.9765624737812494,23.561083306729607,14,16,0.0,49359,69846722559605,35,31.6,-828.6688232421875,0.7804999947547913,16,0.0,0.0,1601437440,,,,0,0.0,3,-47.39,27.6,4857.34619140625,16.160839080810547,,,C,2266290216811180
Raw,2266290216,1996861775000000,18,0.0,-1401716603028839829,0.38957977294921875,1580.2528942003846,0.9765624737812494,23.561083306729607,14,5,0.0,49359,69846733631787,17,37.4,-287.49957275390625,1.0640000104904175,16,0.0,0.0,1602562560,,,,0,0.0,3,-47.39,33.4,4857.34619140625,16.160839080810547,,,C,2266290216826076
Raw,2266290216,1996861775000000,18,0.0,-1401716603028839829,0.38957977294921875,1580.2528942003846,0.9765624737812494,23.561083306729607,14,4,0.0,49359,69846735034780,19,36.6,103.2408447265625,1.1010000705718994,16,0.0,0.0,1605374980,,,,0,0.0,3,-47.39,32.6,4857.34619140625,16.160839080810547,,,C,2266290216840138
Raw,2266290216,1996861775000000,18,0.0,-1401716603028839829,0.38957977294921875,1580.2528942003846,0.9765624737812494,23.561083306729607,14,41,0.0,16399,577450726555670,14,39.7,-287.34869384765625,0.8845000267028809,16,0.0,0.0,1561097980,,,,0,0.0,5,-61.01,35.400000000000006,-477.05029296875,16.094697952270508,,,I,2266290216851023
Raw,2266290216,1996861775000000,18,0.0,-1401716603028839829,0.38957977294921875,1580.2528942003846,0.9765624737812494,23.561083306729607,14,33,0.0,16399,577450728219471,16,38.3,102.0978012084961,0.9115000367164612,16,0.0,0.0,1561097980,,,,0,0.0,5,-61.01,34.0,-477.05029296875,16.094697952270508,,,I,2266290216866753
Raw,2266290216,1996861775000000,18,0.0,-1401716603028839829,0.38957977294921875,1580.2528942003846,0.9765624737812494,23.561083306729607,14,27,0.0,16399,577450719719283,27,33.9,230.898681640625,1.125,16,0.0,0.0,1561097980,,,,0,0.0,5,-61.01,29.599999999999998,-477.05029296875,16.094697952270508,,,I,2266290216877742
Raw,2266290216,1996861775000000,18,0.0,-1401716603028839829,0.38957977294921875,1580.2528942003846,0.9765624737812494,23.561083306729607,14,25,0.0,16399,577450729774160,24,34.4,-331.26812744140625,1.0700000524520874,16,0.0,0.0,1561097980,,,,0,0.0,5,-61.01,30.099999999999998,-477.05029296875,16.094697952270508,,,I,2266290216889826
Raw,2266290216,1996861775000000,18,0.0,-1401716603028839829,0.38957977294921875,1580.2528942003846,0.9765624737812494,23.561083306729607,14,4,0.0,23567,577464723218056,11,42.3,-68.1441650390625,0.7400000095367432,16,0.0,0.0,1575420030,,,,0,0.0,6,-52.43,38.0,-0.11073067784309387,16.061458587646484,,,C,2266290216903315
Raw,2266290216,1996861775000000,18,0.0,-1401716603028839829,0.38957977294921875,1580.2528942003846,0.9765624737812494,23.561083306729607,14,9,0.0,23567,577464713475567,14,39.5,-297.6668701171875,0.8230000138282776,16,0.0,0.0,1575420030,,,,0,0.0,6,-52.43,35.2,-0.11073067784309387,16.061458587646484,,,C,2266290216914513
Raw,2266290216,1996861775000000,18,0.0,-1401716603028839829,0.38957977294921875,1580.2528942003846,0.9765624737812494,23.561083306729607,14,10,0.0,23567,577464721963750,7,46.5,284.81256103515625,0.6629999876022339,16,0.0,0.0,1575420030,,,,0,0.0,6,-52.43,42.2,-0.11073067784309387,16.061458587646484,,,C,2266290216927638
Raw,2266290216,1996861775000000,18,0.0,-1401716603028839829,0.38957977294921875,1580.2528942003846,0.9765624737812494,23.561083306729607,14,11,0.0,23567,577464723986153,17,37.5,2.692655563354492,0.8960000276565552,16,0.0,0.0,1575420030,,,,0,0.0,6,-52.43,33.2,-0.11073067784309387,16.061458587646484,,,C,2266290216939565
Raw,2266290216,1996861775000000,18,0.0,-1401716603028839829,0.38957977294921875,1580.2528942003846,0.9765624737812494,23.561083306729607,14,19,0.0,23567,577464719702351,46,29.5,267.3816223144531,1.0189999341964722,16,0.0,0.0,1575420030,,,,0,0.0,6,-52.43,25.2,-0.11073067784309387,16.061458587646484,,,C,2266290216950242
Raw,2266290216,1996861775000000,18,0.0,-1401716603028839829,0.38957977294921875,1580.2528942003846,0.9765624737812494,23.561083306729607,14,3,0.0,81935,577464734531003,7,34.8,274.9212341308594,0.5674999952316284,16,0.0,0.0,1176450050,,,,0,0.0,1,-41.83,29.799999999999997,6.497318744659424,5.772557258605957,,,Q,2266290216962065
Raw,2266290216,1996861775000000,18,0.0,-1401716603028839829,0.38957977294921875,1580.2528942003846,0.9765624737812494,23.561083306729607,14,4,0.0,81935,577464734209852,11,29.4,145.7489013671875,0.8374999761581421,16,0.0,0.0,1176450050,,,,0,0.0,1,-41.83,24.4,6.497318744659424,5.772557258605957,,,Q,2266290216974669
Raw,2266290217,1996861775000000,18,0.0,-1401716603028839829,0.38957977294921875,1580.2528942003846,0.9765624737812494,23.561083306729607,14,6,0.0,81935,577464728951930,8,32.2,-203.21261596679688,0.6664999723434448,16,0.0,0.0,1176450050,,,,0,0.0,1,-41.83,27.200000000000003,6.497318744659424,5.772557258605957,,,Q,2266290217013107
Raw,2266290217,1996861775000000,18,0.0,-1401716603028839829,0.38957977294921875,1580.2528942003846,0.9765624737812494,23.561083306729607,14,9,0.0,81935,577464733049780,8,33.2,-204.07904052734375,0.609000027179718,16,0.0,0.0,1176450050,,,,0,0.0,1,-41.83,28.200000000000003,6.497318744659424,5.772557258605957,,,Q,2266290217027169
Raw,2266290217,1996861775000000,18,0.0,-1401716603028839829,0.38957977294921875,1580.2528942003846,0.9765624737812494,23.561083306729607,14,26,0.0,81935,577464723912183,8,32.8,257.4527587890625,0.6739999651908875,16,0.0,0.0,1176450050,,,,0,0.0,1,-41.83,27.799999999999997,6.497318744659424,5.772557258605957,,,Q,2266290217040607
Raw,2266290217,1996861775000000,18,0.0,-1401716603028839829,0.38957977294921875,1580.2528942003846,0.9765624737812494,23.561083306729607,14,4,0.0,81935,577464723218029,5,38.8,-68.38310241699219,0.42399999499320984,16,0.0,0.0,1176450050,,,,0,0.0,6,-41.83,33.5,0.9104565382003784,3182.950927734375,,,Q,2266290217051336
Raw,2266290217,1996861775000000,18,0.0,-1401716603028839829,0.38957977294921875,1580.2528942003846,0.9765624737812494,23.561083306729607,14,10,0.0,81935,577464721963739,6,37.2,284.5664978027344,0.46700000762939453,16,0.0,0.0,1176450050,,,,0,0.0,6,-41.83,31.900000000000002,0.9104565382003784,3182.950927734375,,,Q,2266290217063992
Raw,2266290217,1996861775000000,18,0.0,-1401716603028839829,0.38957977294921875,1580.2528942003846,0.9765624737812494,23.561083306729607,14,11,0.0,81935,577464723986153,5,37.3,2.573763370513916,0.9140000343322754,16,0.0,0.0,1176450050,,,,0,0.0,6,-41.83,31.999999999999996,0.9104565382003784,3182.950927734375,,,Q,2266290217076232
Raw,2266290217,1996861775000000,18,0.0,-1401716603028839829,0.38957977294921875,1580.2528942003846,0.9765624737812494,23.561083306729607,14,23,0.0,16399,577450718432873,11,29.3,-638.6245727539062,0.8314999938011169,16,0.0,0.0,1176450050,,,,0,0.0,5,-41.83,24.8,-464.3501281738281,3183.528076171875,,,Q,2266290217086805
Raw,2266290217,1996861775000000,18,0.0,-1401716603028839829,0.38957977294921875,1580.2528942003846,0.9765624737812494,23.561083306729607,14,24,0.0,16399,577450726912869,10,30.4,249.47665405273438,0.7894999980926514,16,0.0,0.0,1176450050,,,,0,0.0,5,-41.83,25.9,-464.3501281738281,3183.528076171875,,,Q,2266290217098523
Raw,2266290217,1996861775000000,18,0.0,-1401716603028839829,0.38957977294921875,1580.2528942003846,0.9765624737812494,23.561083306729607,14,25,0.0,16399,577450729774201,12,28.2,-332.3722229003906,0.9149999618530273,16,0.0,0.0,1176450050,,,,0,0.0,5,-41.83,23.7,-464.3501281738281,3183.528076171875,,,Q,2266290217112013
Raw,2266290217,1996861775000000,18,0.0,-1401716603028839829,0.38957977294921875,1580.2528942003846,0.9765624737812494,23.561083306729607,14,33,0.0,16399,577450728219370,11,28.9,101.71460723876953,0.9164999723434448,16,0.0,0.0,1176450050,,,,0,0.0,5,-41.83,24.4,-464.3501281738281,3183.528076171875,,,Q,2266290217122638
Raw,2266290217,1996861775000000,18,0.0,-1401716603028839829,0.38957977294921875,1580.2528942003846,0.9765624737812494,23.561083306729607,14,41,0.0,16399,577450726555648,4,39.3,-287.6881408691406,0.4194999933242798,16,0.0,0.0,1176450050,,,,0,0.0,5,-41.83,34.8,-464.3501281738281,3183.528076171875,,,Q,2266290217134096
Raw,2266290217,1996861775000000,18,0.0,-1401716603028839829,0.38957977294921875,1580.2528942003846,0.9765624737812494,23.561083306729607,14,42,0.0,16399,577450717111610,10,30.2,391.13555908203125,0.8029999732971191,16,0.0,0.0,1176450050,,,,0,0.0,5,-41.83,25.7,-464.3501281738281,3183.528076171875,,,Q,2266290217146753
Raw,2266291873,1996863395000000,18,0.0,-1401716603028839784,0.7934179306030273,21.15727329510264,-0.339102570680624,11.870372367526455,14,2,0.0,16399,577466341266529,35,32.3,627.0938110351562,0.6919999718666077,16,0.0,0.0,1575420030,,,,0,0.0,1,-48.39,27.299999999999997,0.0,0.0,,,C,2266291873853939
Raw,2266291873,1996863395000000,18,0.0,-1401716603028839784,0.7934179306030273,21.15727329510264,-0.339102570680624,11.870372367526455,14,3,0.0,16399,577466354529506,35,32.7,275.5262145996094,0.67249995470047,16,0.0,0.0,1575420030,,,,0,0.0,1,-48.39,27.700000000000003,0.0,0.0,,,C,2266291873903210
Raw,2266291873,1996863395000000,18,0.0,-1401716603028839784,0.7934179306030273,21.15727329510264,-0.339102570680624,11.870372367526455,14,6,0.0,16399,577466348953052,13,41.8,-202.64373779296875,0.351500004529953,16,0.0,0.0,1575420030,,,,0,0.0,1,-48.39,36.8,0.0,0.0,,,C,2266291873928523
Raw,2266291873,1996863395000000,18,0.0,-1401716603028839784,0.7934179306030273,21.15727329510264,-0.339102570680624,11.870372367526455,14,7,0.0,16399,577466349667694,46,30.5,-452.6325378417969,1.024999976158142,16,0.0,0.0,1575420030,,,,0,0.0,1,-48.39,25.5,0.0,0.0,,,C,2266291873946700
Raw,2266291873,1996863395000000,18,0.0,-1401716603028839784,0.7934179306030273,21.15727329510264,-0.339102570680624,11.870372367526455,14,9,0.0,16399,577466353050883,12,42.7,-203.4715118408203,0.3139999806880951,16,0.0,0.0,1575420030,,,,0,0.0,1,-48.39,37.7,0.0,0.0,,,C,2266291873965867
Raw,2266291873,1996863395000000,18,0.0,-1401716603028839784,0.7934179306030273,21.15727329510264,-0.339102570680624,11.870372367526455,14,11,0.0,16399,577466338740217,53,29.8,-552.603271484375,0.8464999794960022,16,0.0,0.0,1575420030,,,,0,0.0,1,-48.39,24.8,0.0,0.0,,,C,2266291873980919
Raw,2266291873,1996863395000000,18,0.0,-1401716603028839784,0.7934179306030273,21.15727329510264,-0.339102570680624,11.870372367526455,14,30,0.0,16399,577466340110560,27,34.0,-640.5760498046875,0.6035000085830688,16,0.0,0.0,1575420030,,,,0,0.0,1,-48.39,29.0,0.0,0.0,,,C,2266291873998054
Raw,2266291874,1996863395000000,18,0.0,-1401716603028839784,0.7934179306030273,21.15727329510264,-0.339102570680624,11.870372367526455,14,16,0.0,49359,69848342564219,35,31.9,-829.0900268554688,0.750499963760376,16,0.0,0.0,1601437440,,,,0,0.0,3,-46.84,27.9,4852.5615234375,13.785673141479492,,,C,2266291874013262
Raw,2266291874,1996863395000000,18,0.0,-1401716603028839784,0.7934179306030273,21.15727329510264,-0.339102570680624,11.870372367526455,14,5,0.0,49359,69848353633253,16,38.0,-287.9859619140625,0.42399999499320984,16,0.0,0.0,1602562560,,,,0,0.0,3,-46.84,34.0,4852.5615234375,13.785673141479492,,,C,2266291874031908
Raw,2266291874,1996863395000000,18,0.0,-1401716603028839784,0.7934179306030273,21.15727329510264,-0.339102570680624,11.870372367526455,14,21,0.0,49359,69848344326903,61,27.8,-416.8035583496094,1.1225000619888306,16,0.0,0.0,1604249980,,,,0,0.0,3,-46.84,23.8,4852.5615234375,13.785673141479492,,,C,2266291874052846
Raw,2266291874,1996863395000000,18,0.0,-1401716603028839784,0.7934179306030273,21.15727329510264,-0.339102570680624,11.870372367526455,14,4,0.0,49359,69848355034118,17,37.9,102.88603210449219,0.460999995470047,16,0.0,0.0,1605374980,,,,0,0.0,3,-46.84,33.9,4852.5615234375,13.785673141479492,,,C,2266291874071648
Raw,2266291874,1996863395000000,18,0.0,-1401716603028839784,0.7934179306030273,21.15727329510264,-0.339102570680624,11.870372367526455,14,41,0.0,16399,577452346557238,13,40.7,-287.46392822265625,0.38449999690055847,16,0.0,0.0,1561097980,,,,0,0.0,5,-60.34,36.400000000000006,-490.5201416015625,8.950822830200195,,,I,2266291874089981
Raw,2266291874,1996863395000000,18,0.0,-1401716603028839784,0.7934179306030273,21.15727329510264,-0.339102570680624,11.870372367526455,14,33,0.0,16399,577452348218889,16,39.2,101.75212860107422,0.40150001645088196,16,0.0,0.0,1561097980,,,,0,0.0,5,-60.34,34.900000000000006,-490.5201416015625,8.950822830200195,,,I,2266291874109929
Raw,2266291874,1996863395000000,18,0.0,-1401716603028839784,0.7934179306030273,21.15727329510264,-0.339102570680624,11.870372367526455,14,27,0.0,16399,577452339718010,24,34.9,231.53240966796875,0.6050000190734863,16,0.0,0.0,1561097980,,,,0,0.0,5,-60.34,30.599999999999998,-490.5201416015625,8.950822830200195,,,I,2266291874127169
Raw,2266291874,1996863395000000,18,0.0,-1401716603028839784,0.7934179306030273,21.15727329510264,-0.339102570680624,11.870372367526455,14,25,0.0,16399,577452349775980,21,35.3,-332.3243408203125,0.5400000214576721,16,0.0,0.0,1561097980,,,,0,0.0,5,-60.34,30.999999999999996,-490.5201416015625,8.950822830200195,,,I,2266291874256023
Raw,2266291874,1996863395000000,18,0.0,-1401716603028839784,0.7934179306030273,21.15727329510264,-0.339102570680624,11.870372367526455,14,24,0.0,16399,577452346911516,31,32.4,249.7665557861328,0.684499979019165,16,0.0,0.0,1561097980,,,,0,0.0,5,-60.34,28.099999999999998,-490.5201416015625,8.950822830200195,,,I,2266291874278679
Raw,2266291874,1996863395000000,18,0.0,-1401716603028839784,0.7934179306030273,21.15727329510264,-0.339102570680624,11.870372367526455,14,16,0.0,16399,577452290773803,53,29.1,159.44078063964844,1.1614999771118164,16,0.0,0.0,1561097980,,,,0,0.0,5,-60.34,24.8,-490.5201416015625,8.950822830200195,,,I,2266291874297481
Raw,2266291874,1996863395000000,18,0.0,-1401716603028839784,0.7934179306030273,21.15727329510264,-0.339102570680624,11.870372367526455,14,14,0.0,16399,577452345411105,40,30.3,287.0894470214844,0.9110000133514404,16,0.0,0.0,1561097980,,,,0,0.0,5,-60.34,26.0,-490.5201416015625,8.950822830200195,,,I,2266291874316908
Raw,2266291874,1996863395000000,18,0.0,-1401716603028839784,0.7934179306030273,21.15727329510264,-0.339102570680624,11.870372367526455,14,9,0.0,16399,577452296216297,53,28.6,122.29074096679688,0.9194999933242798,16,0.0,0.0,1561097980,,,,0,0.0,5,-60.34,24.3,-490.5201416015625,8.950822830200195,,,I,2266291874336908
Raw,2266291874,1996863395000000,18,0.0,-1401716603028839784,0.7934179306030273,21.15727329510264,-0.339102570680624,11.870372367526455,14,4,0.0,23567,577466343218417,12,42.0,-68.09658813476562,0.3499999940395355,16,0.0,0.0,1575420030,,,,0,0.0,6,-52.1,37.7,-0.7905453443527222,6.243908405303955,,,C,2266291874355189
Raw,2266291874,1996863395000000,18,0.0,-1401716603028839784,0.7934179306030273,21.15727329510264,-0.339102570680624,11.870372367526455,14,9,0.0,23567,577466333477174,13,40.5,-297.7239685058594,0.40700000524520874,16,0.0,0.0,1575420030,,,,0,0.0,6,-52.1,36.2,-0.7905453443527222,6.243908405303955,,,C,2266291874371439
Raw,2266291874,1996863395000000,18,0.0,-1401716603028839784,0.7934179306030273,21.15727329510264,-0.339102570680624,11.870372367526455,14,10,0.0,23567,577466341962214,8,46.1,284.93621826171875,0.2669999897480011,16,0.0,0.0,1575420030,,,,0,0.0,6,-52.1,41.800000000000004,-0.7905453443527222,6.243908405303955,,,C,2266291874390710
Raw,2266291874,1996863395000000,18,0.0,-1401716603028839784,0.7934179306030273,21.15727329510264,-0.339102570680624,11.870372367526455,14,11,0.0,23567,577466343986155,16,39.0,2.7211995124816895,0.42399999499320984,16,0.0,0.0,1575420030,,,,0,0.0,6,-52.1,34.7,-0.7905453443527222,6.243908405303955,,,C,2266291874408523
Raw,2266291874,1996863395000000,18,0.0,-1401716603028839784,0.7934179306030273,21.15727329510264,-0.339102570680624,11.870372367526455,14,19,0.0,23567,577466339700960,70,27.0,267.76220703125,1.034000039100647,16,0.0,0.0,1575420030,,,,0,0.0,6,-52.1,22.7,-0.7905453443527222,6.243908405303955,,,C,2266291874424252
Raw,2266291874,1996863395000000,18,0.0,-1401716603028839784,0.7934179306030273,21.15727329510264,-0.339102570680624,11.870372367526455,14,33,0.0,23567,577466327980497,40,30.6,582.1939697265625,0.793999969959259,16,0.0,0.0,1575420030,,,,0,0.0,6,-52.1,26.3,-0.7905453443527222,6.243908405303955,,,C,2266291874442637
Raw,2266291874,1996863395000000,18,0.0,-1401716603028839784,0.7934179306030273,21.15727329510264,-0.339102570680624,11.870372367526455,14,36,0.0,23567,577466331275743,61,27.6,-413.56524658203125,1.040000081062317,16,0.0,0.0,1575420030,,,,0,0.0,6,-52.1,23.3,-0.7905453443527222,6.243908405303955,,,C,2266291874457898
Raw,2266291874,1996863395000000,18,0.0,-1401716603028839784,0.7934179306030273,21.15727329510264,-0.339102570680624,11.870372367526455,14,3,0.0,81935,577466354529517,8,33.9,275.1999206542969,0.04018506780266762,16,0.0,0.0,1176450050,,,,0,0.0,1,-41.59,28.9,6.491081714630127,5.773675441741943,,,Q,2266291874475710
Raw,2266291874,1996863395000000,18,0.0,-1401716603028839784,0.7934179306030273,21.15727329510264,-0.339102570680624,11.870372367526455,14,4,0.0,81935,577466354209073,11,29.2,145.9270782470703,0.15585151314735413,16,0.0,0.0,1176450050,,,,0,0.0,1,-41.59,24.2,6.491081714630127,5.773675441741943,,,Q,2266291874497742
Raw,2266291874,1996863395000000,18,0.0,-1401716603028839784,0.7934179306030273,21.15727329510264,-0.339102570680624,11.870372367526455,14,6,0.0,81935,577466348953022,8,32.9,-202.63034057617188,0.03365689888596535,16,0.0,0.0,1176450050,,,,0,0.0,1,-41.59,27.9,6.491081714630127,5.773675441741943,,,Q,2266291874513679
Raw,2266291874,1996863395000000,18,0.0,-1401716603028839784,0.7934179306030273,21.15727329510264,-0.339102570680624,11.870372367526455,14,9,0.0,81935,577466353050876,7,34.9,-203.5501251220703,0.036595478653907776,16,0.0,0.0,1176450050,,,,0,0.0,1,-41.59,29.9,6.491081714630127,5.773675441741943,,,Q,2266291874532273
Raw,2266291874,1996863395000000,18,0.0,-1401716603028839784,0.7934179306030273,21.15727329510264,-0.339102570680624,11.870372367526455,14,26,0.0,81935,577466343910789,8,32.4,257.7702941894531,0.026156898587942123,16,0.0,0.0,1176450050,,,,0,0.0,1,-41.59,27.4,6.491081714630127,5.773675441741943,,,Q,2266291874551075
Raw,2266291874,1996863395000000,18,0.0,-1401716603028839784,0.7934179306030273,21.15727329510264,-0.339102570680624,11.870372367526455,14,4,0.0,81935,577466343218396,5,37.8,-68.12503051757812,0.025545312091708183,16,0.0,0.0,1176450050,,,,0,0.0,6,-41.59,32.5,0.23780250549316406,50.15831756591797,,,Q,2266291874566700
Raw,2266291874,1996863395000000,18,0.0,-1401716603028839784,0.7934179306030273,21.15727329510264,-0.339102570680624,11.870372367526455,14,10,0.0,81935,577466341962201,7,35.2,284.9433898925781,0.06150851398706436,16,0.0,0.0,1176450050,,,,0,0.0,6,-41.59,29.900000000000002,0.23780250549316406,50.15831756591797,,,Q,2266291874586231
Raw,2266291874,1996863395000000,18,0.0,-1401716603028839784,0.7934179306030273,21.15727329510264,-0.339102570680624,11.870372367526455,14,11,0.0,81935,577466343986141,6,36.3,2.739401340484619,0.515999972820282,16,0.0,0.0,1176450050,,,,0,0.0,6,-41.59,30.999999999999996,0.23780250549316406,50.15831756591797,,,Q,2266291874605242
Raw,2266291874,1996863395000000,18,0.0,-1401716603028839784,0.7934179306030273,21.15727329510264,-0.339102570680624,11.870372367526455,14,12,0.0,81935,577466339246715,18,25.4,478.044677734375,2.319999933242798,16,0.0,0.0,1176450050,,,,0,0.0,6,-41.59,20.099999999999998,0.23780250549316406,50.15831756591797,,,Q,2266291874621387
Raw,2266291874,1996863395000000,18,0.0,-1401716603028839784,0.7934179306030273,21.15727329510264,-0.339102570680624,11.870372367526455,14,23,0.0,16399,577452338436328,9,31.3,-638.3460083007812,0.08737201988697052,16,0.0,0.0,1176450050,,,,0,0.0,5,-41.59,26.8,-477.819091796875,52.09300231933594,,,Q,2266291874640033
Raw,2266291874,1996863395000000,18,0.0,-1401716603028839784,0.7934179306030273,21.15727329510264,-0.339102570680624,11.870372367526455,14,24,0.0,16399,577452346911522,9,31.1,249.77035522460938,0.0693720206618309,16,0.0,0.0,1176450050,,,,0,0.0,5,-41.59,26.6,-477.819091796875,52.09300231933594,,,Q,2266291874660867
Raw,2266291874,1996863395000000,18,0.0,-1401716603028839784,0.7934179306030273,21.15727329510264,-0.339102570680624,11.870372367526455,14,25,0.0,16399,577452349775995,12,28.2,-331.92626953125,0.9449999928474426,16,0.0,0.0,1176450050,,,,0,0.0,5,-41.59,23.7,-477.819091796875,52.09300231933594,,,Q,2266291874677377
Raw,2266291874,1996863395000000,18,0.0,-1401716603028839784,0.7934179306030273,21.15727329510264,-0.339102570680624,11.870372367526455,14,33,0.0,16399,577452348218821,11,28.6,101.8369369506836,0.17685151100158691,16,0.0,0.0,1176450050,,,,0,0.0,5,-41.59,24.1,-477.819091796875,52.09300231933594,,,Q,2266291874695658
Raw,2266291874,1996863395000000,18,0.0,-1401716603028839784,0.7934179306030273,21.15727329510264,-0.339102570680624,11.870372367526455,14,41,0.0,16399,577452346557204,4,40.1,-287.5190734863281,0.08324140310287476,16,0.0,0.0,1176450050,,,,0,0.0,5,-41.59,35.6,-477.819091796875,52.09300231933594,,,Q,2266291874712064
Raw,2266291874,1996863395000000,18,0.0,-1401716603028839784,0.7934179306030273,21.15727329510264,-0.339102570680624,11.870372367526455,14,42,0.0,16399,577452337109493,9,30.5,391.4795837402344,0.8569999933242798,16,0.0,0.0,1176450050,,,,0,0.0,5,-41.59,26.0,-477.819091796875,52.09300231933594,,,Q,2266291874766023
Raw,2266291874,1996863395000000,18,0.0,-1401716603028839784,0.7934179306030273,21.15727329510264,-0.339102570680624,11.870372367526455,14,24,0.0,16399,577452346911535,14,29.9,249.59869384765625,1.0444999933242798,16,0.0,0.0,1575420030,,,,0,0.0,5,-52.1,22.9,-481.2799377441406,50.060001373291016,,,P,2266291874786752
Raw,2266291874,1996863395000000,18,0.0,-1401716603028839784,0.7934179306030273,21.15727329510264,-0.339102570680624,11.870372367526455,14,25,0.0,16399,577452349775995,9,33.3,-332.0529479980469,0.8449999690055847,16,0.0,0.0,1575420030,,,,0,0.0,5,-52.1,26.299999999999997,-481.2799377441406,50.060001373291016,,,P,2266291874803262
Raw,2266291874,1996863395000000,18,0.0,-1401716603028839784,0.7934179306030273,21.15727329510264,-0.339102570680624,11.870372367526455,14,27,0.0,16399,577452339718022,5,40.2,231.5303192138672,0.5149999856948853,16,0.0,0.0,1575420030,,,,0,0.0,5,-52.1,33.2,-481.2799377441406,50.060001373291016,,,P,2266291874822325
Raw,2266291874,1996863395000000,18,0.0,-1401716603028839784,0.7934179306030273,21.15727329510264,-0.339102570680624,11.870372367526455,14,33,0.0,16399,577452348218912,4,42.3,101.8166275024414,0.43150001764297485,16,0.0,0.0,1575420030,,,,0,0.0,5,-52.1,35.3,-481.2799377441406,50.060001373291016,,,P,2266291874838106
Raw,2266291874,1996863395000000,18,0.0,-1401716603028839784,0.7934179306030273,21.15727329510264,-0.339102570680624,11.870372367526455,14,41,0.0,16399,577452346557256,5,40.9,-287.4576110839844,0.4645000100135803,16,0.0,0.0,1575420030,,,,0,0.0,5,-52.1,33.9,-481.2799377441406,50.060001373291016,,,P,2266291874860189
Raw,2266291874,1996863395000000,18,0.0,-1401716603028839784,0.7934179306030273,21.15727329510264,-0.339102570680624,11.870372367526455,14,42,0.0,16399,577452337109535,14,29.9,391.9764404296875,1.0429999828338623,16,0.0,0.0,1575420030,,,,0,0.0,5,-52.1,22.9,-481.2799377441406,50.060001373291016,,,P,2266291874878314
Raw,2266292902,1996864395000000,18,0.0,-1401716603028839781,0.7289466857910156,18.620106857270002,-0.09054626624050571,9.67893477835761,14,2,0.0,16399,577467341264402,46,30.6,626.1517944335938,0.8119999766349792,16,0.0,0.0,1575420030,,,,0,0.0,1,-48.58,25.6,0.0,0.0,,,C,2266292902758210
Raw,2266292902,1996864395000000,18,0.0,-1401716603028839781,0.7289466857910156,18.620106857270002,-0.09054626624050571,9.67893477835761,14,3,0.0,16399,577467354528597,35,32.0,275.54522705078125,0.67249995470047,16,0.0,0.0,1575420030,,,,0,0.0,1,-48.58,27.0,0.0,0.0,,,C,2266292902795241
Raw,2266292902,1996864395000000,18,0.0,-1401716603028839781,0.7289466857910156,18.620106857270002,-0.09054626624050571,9.67893477835761,14,6,0.0,16399,577467348953717,13,41.8,-202.8563995361328,0.03989195451140404,16,0.0,0.0,1575420030,,,,0,0.0,1,-48.58,36.8,0.0,0.0,,,C,2266292902808470
Raw,2266292902,1996864395000000,18,0.0,-1401716603028839781,0.7289466857910156,18.620106857270002,-0.09054626624050571,9.67893477835761,14,7,0.0,16399,577467349669228,70,27.9,-452.79425048828125,1.0099999904632568,16,0.0,0.0,1575420030,,,,0,0.0,1,-48.58,22.9,0.0,0.0,,,C,2266292902819512
Raw,2266292902,1996864395000000,18,0.0,-1401716603028839781,0.7289466857910156,18.620106857270002,-0.09054626624050571,9.67893477835761,14,9,0.0,16399,577467353051583,12,42.6,-203.8476104736328,0.03149757161736488,16,0.0,0.0,1575420030,,,,0,0.0,1,-48.58,37.6,0.0,0.0,,,C,2266292902830658
Raw,2266292902,1996864395000000,18,0.0,-1401716603028839781,0.7289466857910156,18.620106857270002,-0.09054626624050571,9.67893477835761,14,11,0.0,16399,577467338742108,53,29.5,-552.4415893554688,0.8464999794960022,16,0.0,0.0,1575420030,,,,0,0.0,1,-48.58,24.5,0.0,0.0,,,C,2266292902844616
Raw,2266292902,1996864395000000,18,0.0,-1401716603028839781,0.7289466857910156,18.620106857270002,-0.09054626624050571,9.67893477835761,14,30,0.0,16399,577467340112710,27,34.1,-640.9757080078125,0.6035000085830688,16,0.0,0.0,1575420030,,,,0,0.0,1,-48.58,29.1,0.0,0.0,,,C,2266292902853835
Raw,2266292902,1996864395000000,18,0.0,-1401716603028839781,0.7289466857910156,18.620106857270002,-0.09054626624050571,9.67893477835761,14,16,0.0,49359,69849342566960,35,31.8,-829.0900268554688,0.750499963760376,16,0.0,0.0,1601437440,,,,0,0.0,3,-47.01,27.8,4852.5537109375,13.457964897155762,,,C,2266292902864199
Raw,2266292902,1996864395000000,18,0.0,-1401716603028839781,0.7289466857910156,18.620106857270002,-0.09054626624050571,9.67893477835761,14,5,0.0,49359,69849353634260,17,37.9,-288.3937683105469,0.039526864886283875,16,0.0,0.0,1602562560,,,,0,0.0,3,-47.01,33.9,4852.5537109375,13.457964897155762,,,C,2266292902876856
Raw,2266292902,1996864395000000,18,0.0,-1401716603028839781,0.7289466857910156,18.620106857270002,-0.09054626624050571,9.67893477835761,14,4,0.0,49359,69849355033819,17,37.5,102.71247100830078,0.036499664187431335,16,0.0,0.0,1605374980,,,,0,0.0,3,-47.01,33.5,4852.5537109375,13.457964897155762,,,C,2266292902889981
Raw,2266292902,1996864395000000,18,0.0,-1401716603028839781,0.7289466857910156,18.620106857270002,-0.09054626624050571,9.67893477835761,14,42,0.0,16399,577453337108198,70,27.2,391.6837463378906,1.6069999933242798,16,0.0,0.0,1561097980,,,,0,0.0,5,-60.63,22.9,-489.51239013671875,8.86301326751709,,,I,2266292902901543
Raw,2266292902,1996864395000000,18,0.0,-1401716603028839781,0.7289466857910156,18.620106857270002,-0.09054626624050571,9.67893477835761,14,41,0.0,16399,577453346558197,13,40.3,-287.82257080078125,0.04296894371509552,16,0.0,0.0,1561097980,,,,0,0.0,5,-60.63,36.0,-489.51239013671875,8.86301326751709,,,I,2266292902912012
Raw,2266292902,1996864395000000,18,0.0,-1401716603028839781,0.7289466857910156,18.620106857270002,-0.09054626624050571,9.67893477835761,14,33,0.0,16399,577453348218571,16,39.0,101.5711441040039,0.04603739082813263,16,0.0,0.0,1561097980,,,,0,0.0,5,-60.63,34.7,-489.51239013671875,8.86301326751709,,,I,2266292902923158
Raw,2266292902,1996864395000000,18,0.0,-1401716603028839781,0.7289466857910156,18.620106857270002,-0.09054626624050571,9.67893477835761,14,27,0.0,16399,577453339717238,21,35.3,231.32159423828125,0.08949555456638336,16,0.0,0.0,1561097980,,,,0,0.0,5,-60.63,30.999999999999996,-489.51239013671875,8.86301326751709,,,I,2266292902934929
Raw,2266292902,1996864395000000,18,0.0,-1401716603028839781,0.7289466857910156,18.620106857270002,-0.09054626624050571,9.67893477835761,14,25,0.0,16399,577453349777094,27,34.1,-332.47796630859375,0.5900000333786011,16,0.0,0.0,1561097980,,,,0,0.0,5,-60.63,29.8,-489.51239013671875,8.86301326751709,,,I,2266292902945866
Raw,2266292902,1996864395000000,18,0.0,-1401716603028839781,0.7289466857910156,18.620106857270002,-0.09054626624050571,9.67893477835761,14,24,0.0,16399,577453346910692,40,30.7,249.59373474121094,0.8044999837875366,16,0.0,0.0,1561097980,,,,0,0.0,5,-60.63,26.4,-489.51239013671875,8.86301326751709,,,I,2266292902956595
Raw,2266292902,1996864395000000,18,0.0,-1401716603028839781,0.7289466857910156,18.620106857270002,-0.09054626624050571,9.67893477835761,14,16,0.0,16399,577453290773264,46,29.3,158.3845672607422,0.8585000038146973,16,0.0,0.0,1561097980,,,,0,0.0,5,-60.63,25.0,-489.51239013671875,8.86301326751709,,,I,2266292902967324
Raw,2266292902,1996864395000000,18,0.0,-1401716603028839781,0.7289466857910156,18.620106857270002,-0.09054626624050571,9.67893477835761,14,14,0.0,16399,577453345410182,40,31.0,286.92620849609375,0.7459999918937683,16,0.0,0.0,1561097980,,,,0,0.0,5,-60.63,26.7,-489.51239013671875,8.86301326751709,,,I,2266292902976439
Raw,2266292902,1996864395000000,18,0.0,-1401716603028839781,0.7289466857910156,18.620106857270002,-0.09054626624050571,9.67893477835761,14,9,0.0,16399,577453296215910,53,28.3,122.04109191894531,0.9194999933242798,16,0.0,0.0,1561097980,,,,0,0.0,5,-60.63,24.0,-489.51239013671875,8.86301326751709,,,I,2266292902987272
Raw,2266292903,1996864395000000,18,0.0,-1401716603028839781,0.7289466857910156,18.620106857270002,-0.09054626624050571,9.67893477835761,14,4,0.0,23567,577467343218640,12,41.9,-68.3702621459961,0.06749757379293442,16,0.0,0.0,1575420030,,,,0,0.0,6,-52.29,37.6,-0.9246236681938171,6.250368118286133,,,C,2266292903081960
Raw,2266292903,1996864395000000,18,0.0,-1401716603028839781,0.7289466857910156,18.620106857270002,-0.09054626624050571,9.67893477835761,14,9,0.0,23567,577467333478177,13,40.4,-297.93988037109375,0.06539195030927658,16,0.0,0.0,1575420030,,,,0,0.0,6,-52.29,36.1,-0.9246236681938171,6.250368118286133,,,C,2266292903098106
Raw,2266292903,1996864395000000,18,0.0,-1401716603028839781,0.7289466857910156,18.620106857270002,-0.09054626624050571,9.67893477835761,14,10,0.0,23567,577467341961261,8,46.0,284.73309326171875,0.061700254678726196,16,0.0,0.0,1575420030,,,,0,0.0,6,-52.29,41.7,-0.9246236681938171,6.250368118286133,,,C,2266292903109616
Raw,2266292903,1996864395000000,18,0.0,-1401716603028839781,0.7289466857910156,18.620106857270002,-0.09054626624050571,9.67893477835761,14,11,0.0,23567,577467343986145,17,38.1,2.560502529144287,0.06640715152025223,16,0.0,0.0,1575420030,,,,0,0.0,6,-52.29,33.800000000000004,-0.9246236681938171,6.250368118286133,,,C,2266292903122793
Raw,2266292903,1996864395000000,18,0.0,-1401716603028839781,0.7289466857910156,18.620106857270002,-0.09054626624050571,9.67893477835761,14,19,0.0,23567,577467339700007,80,26.1,267.438720703125,1.1139999628067017,16,0.0,0.0,1575420030,,,,0,0.0,6,-52.29,21.8,-0.9246236681938171,6.250368118286133,,,C,2266292903132220
Raw,2266292903,1996864395000000,18,0.0,-1401716603028839781,0.7289466857910156,18.620106857270002,-0.09054626624050571,9.67893477835761,14,33,0.0,23567,577467327978595,46,29.3,581.8790283203125,0.8327273726463318,16,0.0,0.0,1575420030,,,,0,0.0,6,-52.29,25.0,-0.9246236681938171,6.250368118286133,,,C,2266292903143158
Raw,2266292903,1996864395000000,18,0.0,-1401716603028839781,0.7289466857910156,18.620106857270002,-0.09054626624050571,9.67893477835761,14,36,0.0,23567,577467331277116,61,27.5,-413.65087890625,1.040000081062317,16,0.0,0.0,1575420030,,,,0,0.0,6,-52.29,23.2,-0.9246236681938171,6.250368118286133,,,C,2266292903153574
Raw,2266292903,1996864395000000,18,0.0,-1401716603028839781,0.7289466857910156,18.620106857270002,-0.09054626624050571,9.67893477835761,14,3,0.0,81935,577467354528603,7,34.5,274.9444274902344,0.03809547796845436,16,0.0,0.0,1176450050,,,,0,0.0,1,-41.75,29.5,6.489823818206787,5.7738938331604,,,Q,2266292903162481
Raw,2266292903,1996864395000000,18,0.0,-1401716603028839781,0.7289466857910156,18.620106857270002,-0.09054626624050571,9.67893477835761,14,4,0.0,81935,577467354208581,14,27.9,145.32843017578125,1.002500057220459,16,0.0,0.0,1176450050,,,,0,0.0,1,-41.75,22.9,6.489823818206787,5.7738938331604,,,Q,2266292903173574
Raw,2266292903,1996864395000000,18,0.0,-1401716603028839781,0.7289466857910156,18.620106857270002,-0.09054626624050571,9.67893477835761,14,6,0.0,81935,577467348953702,8,33.9,-202.86949157714844,0.03118506632745266,16,0.0,0.0,1176450050,,,,0,0.0,1,-41.75,28.9,6.489823818206787,5.7738938331604,,,Q,2266292903184304
Raw,2266292903,1996864395000000,18,0.0,-1401716603028839781,0.7289466857910156,18.620106857270002,-0.09054626624050571,9.67893477835761,14,9,0.0,81935,577467353051556,7,34.7,-203.85113525390625,0.036595478653907776,16,0.0,0.0,1176450050,,,,0,0.0,1,-41.75,29.700000000000003,6.489823818206787,5.7738938331604,,,Q,2266292903193887
Raw,2266292903,1996864395000000,18,0.0,-1401716603028839781,0.7289466857910156,18.620106857270002,-0.09054626624050571,9.67893477835761,14,26,0.0,81935,577467343909920,8,32.3,257.5351867675781,0.026156898587942123,16,0.0,0.0,1176450050,,,,0,0.0,1,-41.75,27.299999999999997,6.489823818206787,5.7738938331604,,,Q,2266292903206022
Raw,2266292903,1996864395000000,18,0.0,-1401716603028839781,0.7289466857910156,18.620106857270002,-0.09054626624050571,9.67893477835761,14,30,0.0,81935,577467340112583,20,24.0,-640.8287963867188,3.1614999771118164,16,0.0,0.0,1176450050,,,,0,0.0,1,-41.75,19.0,6.489823818206787,5.7738938331604,,,Q,2266292903218158
Raw,2266292903,1996864395000000,18,0.0,-1401716603028839781,0.7289466857910156,18.620106857270002,-0.09054626624050571,9.67893477835761,14,4,0.0,81935,577467343218624,5,37.5,-68.45558166503906,0.025545312091708183,16,0.0,0.0,1176450050,,,,0,0.0,6,-41.75,32.2,0.1131894588470459,45.12352752685547,,,Q,2266292903227481
Raw,2266292903,1996864395000000,18,0.0,-1401716603028839781,0.7289466857910156,18.620106857270002,-0.09054626624050571,9.67893477835761,14,10,0.0,81935,577467341961251,6,35.4,284.6976623535156,0.04102034494280815,16,0.0,0.0,1176450050,,,,0,0.0,6,-41.75,30.099999999999998,0.1131894588470459,45.12352752685547,,,Q,2266292903238470
Raw,2266292903,1996864395000000,18,0.0,-1401716603028839781,0.7289466857910156,18.620106857270002,-0.09054626624050571,9.67893477835761,14,11,0.0,81935,577467343986130,6,36.1,2.5499885082244873,0.07402034848928452,16,0.0,0.0,1176450050,,,,0,0.0,6,-41.75,30.8,0.1131894588470459,45.12352752685547,,,Q,2266292903249304
Raw,2266292903,1996864395000000,18,0.0,-1401716603028839781,0.7289466857910156,18.620106857270002,-0.09054626624050571,9.67893477835761,14,21,0.0,81935,577467335034335,18,25.7,-103.99532318115234,1.9539999961853027,16,0.0,0.0,1176450050,,,,0,0.0,6,-41.75,20.4,0.1131894588470459,45.12352752685547,,,Q,2266292903258522
Raw,2266292903,1996864395000000,18,0.0,-1401716603028839781,0.7289466857910156,18.620106857270002,-0.09054626624050571,9.67893477835761,14,23,0.0,16399,577453338438454,10,30.1,-638.6228637695312,0.11774752289056778,16,0.0,0.0,1176450050,,,,0,0.0,5,-41.75,25.6,-476.8450927734375,47.03176498413086,,,Q,2266292903269147
Raw,2266292903,1996864395000000,18,0.0,-1401716603028839781,0.7289466857910156,18.620106857270002,-0.09054626624050571,9.67893477835761,14,24,0.0,16399,577453346910689,9,30.6,249.53854370117188,0.0693720206618309,16,0.0,0.0,1176450050,,,,0,0.0,5,-41.75,26.1,-476.8450927734375,47.03176498413086,,,Q,2266292903280085
Raw,2266292903,1996864395000000,18,0.0,-1401716603028839781,0.7289466857910156,18.620106857270002,-0.09054626624050571,9.67893477835761,14,25,0.0,16399,577453349777099,11,28.9,-332.3085021972656,0.1783515065908432,16,0.0,0.0,1176450050,,,,0,0.0,5,-41.75,24.4,-476.8450927734375,47.03176498413086,,,Q,2266292903289616
Raw,2266292903,1996864395000000,18,0.0,-1401716603028839781,0.7289466857910156,18.620106857270002,-0.09054626624050571,9.67893477835761,14,30,0.0,16399,577453333528721,23,22.8,-114.4942398071289,3.4010000228881836,16,0.0,0.0,1176450050,,,,0,0.0,5,-41.75,18.3,-476.8450927734375,47.03176498413086,,,Q,2266292903305449
Raw,2266292903,1996864395000000,18,0.0,-1401716603028839781,0.7289466857910156,18.620106857270002,-0.09054626624050571,9.67893477835761,14,33,0.0,16399,577453348218484,11,28.7,101.56034851074219,0.17685151100158691,16,0.0,0.0,1176450050,,,,0,0.0,5,-41.75,24.2,-476.8450927734375,47.03176498413086,,,Q,2266292903318574
Raw,2266292903,1996864395000000,18,0.0,-1401716603028839781,0.7289466857910156,18.620106857270002,-0.09054626624050571,9.67893477835761,14,41,0.0,16399,577453346558159,4,39.7,-287.7457580566406,0.08324140310287476,16,0.0,0.0,1176450050,,,,0,0.0,5,-41.75,35.2,-476.8450927734375,47.03176498413086,,,Q,2266292903328002
Raw,2266292903,1996864395000000,18,0.0,-1401716603028839781,0.7289466857910156,18.620106857270002,-0.09054626624050571,9.67893477835761,14,42,0.0,16399,577453337108187,10,30.2,391.43365478515625,0.1462475210428238,16,0.0,0.0,1176450050,,,,0,0.0,5,-41.75,25.7,-476.8450927734375,47.03176498413086,,,Q,2266292903338939
Raw,2266292903,1996864395000000,18,0.0,-1401716603028839781,0.7289466857910156,18.620106857270002,-0.09054626624050571,9.67893477835761,14,24,0.0,16399,577453346910720,9,33.0,249.4940185546875,0.8554999828338623,16,0.0,0.0,1575420030,,,,0,0.0,5,-52.29,26.0,-480.2983093261719,44.999855041503906,,,P,2266292903349147
Raw,2266292903,1996864395000000,18,0.0,-1401716603028839781,0.7289466857910156,18.620106857270002,-0.09054626624050571,9.67893477835761,14,25,0.0,16399,577453349777071,10,32.5,-332.4049987792969,0.9049999713897705,16,0.0,0.0,1575420030,,,,0,0.0,5,-52.29,25.5,-480.2983093261719,44.999855041503906,,,P,2266292903358470
Raw,2266292903,1996864395000000,18,0.0,-1401716603028839781,0.7289466857910156,18.620106857270002,-0.09054626624050571,9.67893477835761,14,27,0.0,16399,577453339717241,5,40.3,231.34002685546875,0.5149999856948853,16,0.0,0.0,1575420030,,,,0,0.0,5,-52.29,33.3,-480.2983093261719,44.999855041503906,,,P,2266292903398366
Raw,2266292903,1996864395000000,18,0.0,-1401716603028839781,0.7289466857910156,18.620106857270002,-0.09054626624050571,9.67893477835761,14,33,0.0,16399,577453348218572,4,42.5,101.62633514404297,0.4584999978542328,16,0.0,0.0,1575420030,,,,0,0.0,5,-52.29,35.5,-480.2983093261719,44.999855041503906,,,P,2266292903412481
Raw,2266292903,1996864395000000,18,0.0,-1401716603028839781,0.7289466857910156,18.620106857270002,-0.09054626624050571,9.67893477835761,14,41,0.0,16399,577453346558215,5,40.4,-287.85723876953125,0.5254999995231628,16,0.0,0.0,1575420030,,,,0,0.0,5,-52.29,33.4,-480.2983093261719,44.999855041503906,,,P,2266292903421908
Raw,2266292903,1996864395000000,18,0.0,-1401716603028839781,0.7289466857910156,18.620106857270002,-0.09054626624050571,9.67893477835761,14,42,0.0,16399,577453337108248,14,29.0,391.33892822265625,1.1469999551773071,16,0.0,0.0,1575420030,,,,0,0.0,5,-52.29,22.0,-480.2983093261719,44.999855041503906,,,P,2266292903434147
Raw,2266293906,1996865395000000,18,0.0,-1401716603028839783,0.4639701843261719,18.26270090532489,-1.1561738989515016,9.574485249732504,14,2,0.0,16399,577468341262378,40,31.7,626.5228881835938,0.7519999742507935,16,0.0,0.0,1575420030,,,,0,0.0,1,-48.44,26.7,0.0,0.0,,,C,2266293906381282
Raw,2266293906,1996865395000000,18,0.0,-1401716603028839783,0.4639701843261719,18.26270090532489,-1.1561738989515016,9.574485249732504,14,3,0.0,16399,577468354527675,35,32.3,275.1646423339844,0.67249995470047,16,0.0,0.0,1575420030,,,,0,0.0,1,-48.44,27.299999999999997,0.0,0.0,,,C,2266293906412741
Raw,2266293906,1996865395000000,18,0.0,-1401716603028839783,0.4639701843261719,18.26270090532489,-1.1561738989515016,9.574485249732504,14,6,0.0,16399,577468348954405,13,41.7,-202.66250610351562,0.03989195451140404,16,0.0,0.0,1575420030,,,,0,0.0,1,-48.44,36.7,0.0,0.0,,,C,2266293906426335
Raw,2266293906,1996865395000000,18,0.0,-1401716603028839783,0.4639701843261719,18.26270090532489,-1.1561738989515016,9.574485249732504,14,9,0.0,16399,577468353052251,12,42.5,-203.74278259277344,0.03149757161736488,16,0.0,0.0,1575420030,,,,0,0.0,1,-48.44,37.5,0.0,0.0,,,C,2266293906439303
Raw,2266293906,1996865395000000,18,0.0,-1401716603028839783,0.4639701843261719,18.26270090532489,-1.1561738989515016,9.574485249732504,14,11,0.0,16399,577468338743948,53,29.9,-552.2512817382812,0.8464999794960022,16,0.0,0.0,1575420030,,,,0,0.0,1,-48.44,24.9,0.0,0.0,,,C,2266293906450345
Raw,2266293906,1996865395000000,18,0.0,-1401716603028839783,0.4639701843261719,18.26270090532489,-1.1561738989515016,9.574485249732504,14,26,0.0,16399,577468343909049,92,25.9,258.3426818847656,2.50600004196167,16,0.0,0.0,1575420030,,,,0,0.0,1,-48.44,20.9,0.0,0.0,,,C,2266293906459303
Raw,2266293906,1996865395000000,18,0.0,-1401716603028839783,0.4639701843261719,18.26270090532489,-1.1561738989515016,9.574485249732504,14,30,0.0,16399,577468340114843,31,33.3,-640.4999389648438,0.643500030040741,16,0.0,0.0,1575420030,,,,0,0.0,1,-48.44,28.299999999999997,0.0,0.0,,,C,2266293906469824
Raw,2266293906,1996865395000000,18,0.0,-1401716603028839783,0.4639701843261719,18.26270090532489,-1.1561738989515016,9.574485249732504,14,14,0.0,49359,69850355540409,80,25.1,120.13741302490234,2.5240001678466797,16,0.0,0.0,1598062460,,,,0,0.0,3,-47.05,21.1,4851.66064453125,13.132353782653809,,,C,2266293906478939
Raw,2266293906,1996865395000000,18,0.0,-1401716603028839783,0.4639701843261719,18.26270090532489,-1.1561738989515016,9.574485249732504,14,16,0.0,49359,69850342569754,35,31.4,-828.8372802734375,0.750499963760376,16,0.0,0.0,1601437440,,,,0,0.0,3,-47.05,27.4,4851.66064453125,13.132353782653809,,,C,2266293906493053
Raw,2266293906,1996865395000000,18,0.0,-1401716603028839783,0.4639701843261719,18.26270090532489,-1.1561738989515016,9.574485249732504,14,5,0.0,49359,69850353635185,17,37.4,-288.3255310058594,0.039526864886283875,16,0.0,0.0,1602562560,,,,0,0.0,3,-47.05,33.4,4851.66064453125,13.132353782653809,,,C,2266293906504043
Raw,2266293906,1996865395000000,18,0.0,-1401716603028839783,0.4639701843261719,18.26270090532489,-1.1561738989515016,9.574485249732504,14,4,0.0,49359,69850355033382,17,37.6,102.8083724975586,0.036499664187431335,16,0.0,0.0,1605374980,,,,0,0.0,3,-47.05,33.6,4851.66064453125,13.132353782653809,,,C,2266293906513470
Raw,2266293906,1996865395000000,18,0.0,-1401716603028839783,0.4639701843261719,18.26270090532489,-1.1561738989515016,9.574485249732504,14,60,0.0,16399,577454294515029,46,30.2,-2.602135181427002,7.115699768066406,16,0.0,0.0,1561097980,,,,0,0.0,5,-60.57,25.9,-488.4889221191406,8.772867202758789,,,I,2266293906523939
Raw,2266293906,1996865395000000,18,0.0,-1401716603028839783,0.4639701843261719,18.26270090532489,-1.1561738989515016,9.574485249732504,14,41,0.0,16399,577454346559163,13,40.4,-287.72796630859375,0.04296894371509552,16,0.0,0.0,1561097980,,,,0,0.0,5,-60.57,36.1,-488.4889221191406,8.772867202758789,,,I,2266293906534564
Raw,2266293906,1996865395000000,18,0.0,-1401716603028839783,0.4639701843261719,18.26270090532489,-1.1561738989515016,9.574485249732504,14,33,0.0,16399,577454348218221,16,39.0,101.68787384033203,0.04603739082813263,16,0.0,0.0,1561097980,,,,0,0.0,5,-60.57,34.7,-488.4889221191406,8.772867202758789,,,I,2266293906544668
Raw,2266293906,1996865395000000,18,0.0,-1401716603028839783,0.4639701843261719,18.26270090532489,-1.1561738989515016,9.574485249732504,14,27,0.0,16399,577454339716464,24,35.1,231.4751434326172,0.6978190541267395,16,0.0,0.0,1561097980,,,,0,0.0,5,-60.57,30.8,-488.4889221191406,8.772867202758789,,,I,2266293906555657
Raw,2266293906,1996865395000000,18,0.0,-1401716603028839783,0.4639701843261719,18.26270090532489,-1.1561738989515016,9.574485249732504,14,25,0.0,16399,577454349778173,24,34.3,-332.16796875,1.2589374780654907,16,0.0,0.0,1561097980,,,,0,0.0,5,-60.57,29.999999999999996,-488.4889221191406,8.772867202758789,,,I,2266293906564460
Raw,2266293906,1996865395000000,18,0.0,-1401716603028839783,0.4639701843261719,18.26270090532489,-1.1561738989515016,9.574485249732504,14,24,0.0,16399,577454346909888,40,31.1,249.81455993652344,0.7444999814033508,16,0.0,0.0,1561097980,,,,0,0.0,5,-60.57,26.8,-488.4889221191406,8.772867202758789,,,I,2266293906575657
Raw,2266293906,1996865395000000,18,0.0,-1401716603028839783,0.4639701843261719,18.26270090532489,-1.1561738989515016,9.574485249732504,14,16,0.0,16399,577454290772746,53,28.7,159.60403442382812,0.9284999966621399,16,0.0,0.0,1561097980,,,,0,0.0,5,-60.57,24.4,-488.4889221191406,8.772867202758789,,,I,2266293906587116
Raw,2266293906,1996865395000000,18,0.0,-1401716603028839783,0.4639701843261719,18.26270090532489,-1.1561738989515016,9.574485249732504,14,14,0.0,16399,577454345409220,35,31.4,286.44610595703125,0.7459999918937683,16,0.0,0.0,1561097980,,,,0,0.0,5,-60.57,27.099999999999998,-488.4889221191406,8.772867202758789,,,I,2266293906596543
Raw,2266293906,1996865395000000,18,0.0,-1401716603028839783,0.4639701843261719,18.26270090532489,-1.1561738989515016,9.574485249732504,14,9,0.0,16399,577454296215456,53,28.9,122.05069732666016,0.9194999933242798,16,0.0,0.0,1561097980,,,,0,0.0,5,-60.57,24.599999999999998,-488.4889221191406,8.772867202758789,,,I,2266293906606855
Raw,2266293906,1996865395000000,18,0.0,-1401716603028839783,0.4639701843261719,18.26270090532489,-1.1561738989515016,9.574485249732504,14,5,0.0,16399,577454298528901,53,28.7,7.076655864715576,8.220800399780273,16,0.0,0.0,1561097980,,,,0,0.0,5,-60.57,24.4,-488.4889221191406,8.772867202758789,,,I,2266293906617637
Raw,2266293906,1996865395000000,18,0.0,-1401716603028839783,0.4639701843261719,18.26270090532489,-1.1561738989515016,9.574485249732504,14,4,0.0,23567,577468343218871,12,41.9,-68.38715362548828,0.06749757379293442,16,0.0,0.0,1575420030,,,,0,0.0,6,-52.2,37.6,-1.044010043144226,6.254591941833496,,,C,2266293906626647
Raw,2266293906,1996865395000000,18,0.0,-1401716603028839783,0.4639701843261719,18.26270090532489,-1.1561738989515016,9.574485249732504,14,9,0.0,23567,577468333479162,14,40.0,-297.9306640625,0.06651468575000763,16,0.0,0.0,1575420030,,,,0,0.0,6,-52.2,35.7,-1.044010043144226,6.254591941833496,,,C,2266293906727116
Raw,2266293906,1996865395000000,18,0.0,-1401716603028839783,0.4639701843261719,18.26270090532489,-1.1561738989515016,9.574485249732504,14,10,0.0,23567,577468341960315,8,45.6,284.79443359375,0.061700254678726196,16,0.0,0.0,1575420030,,,,0,0.0,6,-52.2,41.300000000000004,-1.044010043144226,6.254591941833496,,,C,2266293906750241
Raw,2266293906,1996865395000000,18,0.0,-1401716603028839783,0.4639701843261719,18.26270090532489,-1.1561738989515016,9.574485249732504,14,11,0.0,23567,577468343986131,17,37.7,2.645901918411255,0.06640715152025223,16,0.0,0.0,1575420030,,,,0,0.0,6,-52.2,33.400000000000006,-1.044010043144226,6.254591941833496,,,C,2266293906760762
Raw,2266293906,1996865395000000,18,0.0,-1401716603028839783,0.4639701843261719,18.26270090532489,-1.1561738989515016,9.574485249732504,14,19,0.0,23567,577468339699167,70,27.0,267.1532897949219,1.034000039100647,16,0.0,0.0,1575420030,,,,0,0.0,6,-52.2,22.7,-1.044010043144226,6.254591941833496,,,C,2266293906773991
Raw,2266293906,1996865395000000,18,0.0,-1401716603028839783,0.4639701843261719,18.26270090532489,-1.1561738989515016,9.574485249732504,14,33,0.0,23567,577468327976629,46,29.6,581.9080200195312,0.06824328005313873,16,0.0,0.0,1575420030,,,,0,0.0,6,-52.2,25.3,-1.044010043144226,6.254591941833496,,,C,2266293906784928
Raw,2266293906,1996865395000000,18,0.0,-1401716603028839783,0.4639701843261719,18.26270090532489,-1.1561738989515016,9.574485249732504,14,36,0.0,23567,577468331278447,70,26.5,-413.68890380859375,1.1200000047683716,16,0.0,0.0,1575420030,,,,0,0.0,6,-52.2,22.2,-1.044010043144226,6.254591941833496,,,C,2266293906794199
Raw,2266293906,1996865395000000,18,0.0,-1401716603028839783,0.4639701843261719,18.26270090532489,-1.1561738989515016,9.574485249732504,14,3,0.0,81935,577468354527682,7,34.6,275.0835876464844,0.03809547796845436,16,0.0,0.0,1176450050,,,,0,0.0,1,-41.59,29.6,6.488035202026367,5.774111747741699,,,Q,2266293906805293
Raw,2266293906,1996865395000000,18,0.0,-1401716603028839783,0.4639701843261719,18.26270090532489,-1.1561738989515016,9.574485249732504,14,4,0.0,81935,577468354208099,12,28.7,145.88905334472656,0.92249995470047,16,0.0,0.0,1176450050,,,,0,0.0,1,-41.59,23.7,6.488035202026367,5.774111747741699,,,Q,2266293906815710
Raw,2266293906,1996865395000000,18,0.0,-1401716603028839783,0.4639701843261719,18.26270090532489,-1.1561738989515016,9.574485249732504,14,6,0.0,81935,577468348954378,8,33.1,-202.69619750976562,0.03118506632745266,16,0.0,0.0,1176450050,,,,0,0.0,1,-41.59,28.1,6.488035202026367,5.774111747741699,,,Q,2266293906825189
Raw,2266293906,1996865395000000,18,0.0,-1401716603028839783,0.4639701843261719,18.26270090532489,-1.1561738989515016,9.574485249732504,14,9,0.0,81935,577468353052237,6,35.6,-203.78236389160156,0.03491361066699028,16,0.0,0.0,1176450050,,,,0,0.0,1,-41.59,30.6,6.488035202026367,5.774111747741699,,,Q,2266293906835553
Raw,2266293906,1996865395000000,18,0.0,-1401716603028839783,0.4639701843261719,18.26270090532489,-1.1561738989515016,9.574485249732504,14,26,0.0,81935,577468343909071,8,33.2,257.7164001464844,0.023685066029429436,16,0.0,0.0,1176450050,,,,0,0.0,1,-41.59,28.200000000000003,6.488035202026367,5.774111747741699,,,Q,2266293906844824
Raw,2266293906,1996865395000000,18,0.0,-1401716603028839783,0.4639701843261719,18.26270090532489,-1.1561738989515016,9.574485249732504,14,4,0.0,81935,577468343218853,5,37.6,-68.3574447631836,0.025545312091708183,16,0.0,0.0,1176450050,,,,0,0.0,6,-41.59,32.300000000000004,-0.012197494506835938,44.4385871887207,,,Q,2266293906856022
Raw,2266293906,1996865395000000,18,0.0,-1401716603028839783,0.4639701843261719,18.26270090532489,-1.1561738989515016,9.574485249732504,14,10,0.0,81935,577468341960300,6,36.0,284.7855529785156,0.04102034494280815,16,0.0,0.0,1176450050,,,,0,0.0,6,-41.59,30.7,-0.012197494506835938,44.4385871887207,,,Q,2266293906868835
Raw,2266293906,1996865395000000,18,0.0,-1401716603028839783,0.4639701843261719,18.26270090532489,-1.1561738989515016,9.574485249732504,14,11,0.0,81935,577468343986124,6,36.5,2.639038324356079,0.06158473715186119,16,0.0,0.0,1176450050,,,,0,0.0,6,-41.59,31.2,-0.012197494506835938,44.4385871887207,,,Q,2266293906879824
Raw,2266293906,1996865395000000,18,0.0,-1401716603028839783,0.4639701843261719,18.26270090532489,-1.1561738989515016,9.574485249732504,14,12,0.0,81935,577468339243505,18,25.7,478.2230529785156,1.899999976158142,16,0.0,0.0,1176450050,,,,0,0.0,6,-41.59,20.4,-0.012197494506835938,44.4385871887207,,,Q,2266293906889355
Raw,2266293906,1996865395000000,18,0.0,-1401716603028839783,0.4639701843261719,18.26270090532489,-1.1561738989515016,9.574485249732504,14,21,0.0,81935,577468335034683,14,27.3,-104.275634765625,1.0040000677108765,16,0.0,0.0,1176450050,,,,0,0.0,6,-41.59,22.0,-0.012197494506835938,44.4385871887207,,,Q,2266293906899876
Raw,2266293906,1996865395000000,18,0.0,-1401716603028839783,0.4639701843261719,18.26270090532489,-1.1561738989515016,9.574485249732504,14,23,0.0,16399,577454338440589,11,29.0,-638.6411743164062,0.19185151159763336,16,0.0,0.0,1176450050,,,,0,0.0,5,-41.59,24.5,-475.82574462890625,46.31184005737305,,,Q,2266293906910345
Raw,2266293906,1996865395000000,18,0.0,-1401716603028839783,0.4639701843261719,18.26270090532489,-1.1561738989515016,9.574485249732504,14,24,0.0,16399,577454346909852,8,32.3,249.62574768066406,0.060656897723674774,16,0.0,0.0,1176450050,,,,0,0.0,5,-41.59,27.799999999999997,-475.82574462890625,46.31184005737305,,,Q,2266293906919668
Raw,2266293906,1996865395000000,18,0.0,-1401716603028839783,0.4639701843261719,18.26270090532489,-1.1561738989515016,9.574485249732504,14,25,0.0,16399,577454349778207,10,29.5,-332.21099853515625,0.10424752533435822,16,0.0,0.0,1176450050,,,,0,0.0,5,-41.59,25.0,-475.82574462890625,46.31184005737305,,,Q,2266293906930970
Raw,2266293906,1996865395000000,18,0.0,-1401716603028839783,0.4639701843261719,18.26270090532489,-1.1561738989515016,9.574485249732504,14,33,0.0,16399,577454348218140,14,27.2,101.74009704589844,1.0234999656677246,16,0.0,0.0,1176450050,,,,0,0.0,5,-41.59,22.7,-475.82574462890625,46.31184005737305,,,Q,2266293906941595
Raw,2266293906,1996865395000000,18,0.0,-1401716603028839783,0.4639701843261719,18.26270090532489,-1.1561738989515016,9.574485249732504,14,39,0.0,16399,577454288769712,27,22.4,169.001953125,4.143500328063965,16,0.0,0.0,1176450050,,,,0,0.0,5,-41.59,17.9,-475.82574462890625,46.31184005737305,,,Q,2266293906950553
Raw,2266293906,1996865395000000,18,0.0,-1401716603028839783,0.4639701843261719,18.26270090532489,-1.1561738989515016,9.574485249732504,14,41,0.0,16399,577454346559122,4,39.9,-287.7745361328125,0.08324140310287476,16,0.0,0.0,1176450050,,,,0,0.0,5,-41.59,35.4,-475.82574462890625,46.31184005737305,,,Q,2266293906962324
Raw,2266293906,1996865395000000,18,0.0,-1401716603028839783,0.4639701843261719,18.26270090532489,-1.1561738989515016,9.574485249732504,14,42,0.0,16399,577454337106879,9,30.6,391.384765625,0.11587201803922653,16,0.0,0.0,1176450050,,,,0,0.0,5,-41.59,26.1,-475.82574462890625,46.31184005737305,,,Q,2266293906973366
Raw,2266293906,1996865395000000,18,0.0,-1401716603028839783,0.4639701843261719,18.26270090532489,-1.1561738989515016,9.574485249732504,14,24,0.0,16399,577454346909866,10,32.8,249.56503295898438,0.1297432780265808,16,0.0,0.0,1575420030,,,,0,0.0,5,-52.2,25.799999999999997,-479.2709655761719,44.28104019165039,,,P,2266293906982376
Raw,2266293906,1996865395000000,18,0.0,-1401716603028839783,0.4639701843261719,18.26270090532489,-1.1561738989515016,9.574485249732504,14,25,0.0,16399,577454349778188,10,32.4,-332.2384948730469,1.2610054016113281,16,0.0,0.0,1575420030,,,,0,0.0,5,-52.2,25.4,-479.2709655761719,44.28104019165039,,,P,2266293906992376
Raw,2266293907,1996865395000000,18,0.0,-1401716603028839783,0.4639701843261719,18.26270090532489,-1.1561738989515016,9.574485249732504,14,27,0.0,16399,577454339716478,5,39.9,231.37574768066406,0.08959552645683289,16,0.0,0.0,1575420030,,,,0,0.0,5,-52.2,32.9,-479.2709655761719,44.28104019165039,,,P,2266293907001439
Raw,2266293907,1996865395000000,18,0.0,-1401716603028839783,0.4639701843261719,18.26270090532489,-1.1561738989515016,9.574485249732504,14,33,0.0,16399,577454348218233,4,41.8,101.6170425415039,0.09930868446826935,16,0.0,0.0,1575420030,,,,0,0.0,5,-52.2,34.8,-479.2709655761719,44.28104019165039,,,P,2266293907045032
Raw,2266293907,1996865395000000,18,0.0,-1401716603028839783,0.4639701843261719,18.26270090532489,-1.1561738989515016,9.574485249732504,14,41,0.0,16399,577454346559182,5,40.6,-287.8065490722656,0.09790714830160141,16,0.0,0.0,1575420030,,,,0,0.0,5,-52.2,33.6,-479.2709655761719,44.28104019165039,,,P,2266293907060085
Raw,2266293907,1996865395000000,18,0.0,-1401716603028839783,0.4639701843261719,18.26270090532489,-1.1561738989515016,9.574485249732504,14,42,0.0,16399,577454337106978,12,30.1,391.6434326171875,1.0670000314712524,16,0.0,0.0,1575420030,,,,0,0.0,5,-52.2,23.1,-479.2709655761719,44.28104019165039,,,P,2266293907069460
Raw,2266294900,1996866395000000,18,0.0,-1401716603028839786,0.02180194854736328,18.23263846745249,-1.1213423785228995,9.610484338814363,14,2,0.0,16399,577469341260279,46,30.1,625.733154296875,0.8119999766349792,16,0.0,0.0,1575420030,,,,0,0.0,1,-48.34,25.1,0.0,0.0,,,C,2266294900515917
Raw,2266294900,1996866395000000,18,0.0,-1401716603028839786,0.02180194854736328,18.23263846745249,-1.1213423785228995,9.610484338814363,14,3,0.0,16399,577469354526793,31,33.4,274.7460021972656,0.6225000023841858,16,0.0,0.0,1575420030,,,,0,0.0,1,-48.34,28.4,0.0,0.0,,,C,2266294900552324
Raw,2266294900,1996866395000000,18,0.0,-1401716603028839786,0.02180194854736328,18.23263846745249,-1.1213423785228995,9.610484338814363,14,6,0.0,16399,577469348955080,12,42.1,-202.8889617919922,0.03899757191538811,16,0.0,0.0,1575420030,,,,0,0.0,1,-48.34,37.1,0.0,0.0,,,C,2266294900563886
Raw,2266294900,1996866395000000,18,0.0,-1401716603028839786,0.02180194854736328,18.23263846745249,-1.1213423785228995,9.610484338814363,14,7,0.0,16399,577469349672338,61,28.3,-454.51641845703125,1.6200000047683716,16,0.0,0.0,1575420030,,,,0,0.0,1,-48.34,23.3,0.0,0.0,,,C,2266294900576074
Raw,2266294900,1996866395000000,18,0.0,-1401716603028839786,0.02180194854736328,18.23263846745249,-1.1213423785228995,9.610484338814363,14,9,0.0,16399,577469353052934,12,42.8,-204.0327911376953,0.03149757161736488,16,0.0,0.0,1575420030,,,,0,0.0,1,-48.34,37.8,0.0,0.0,,,C,2266294900695345
