# 
# Header Description:
# 
# Version: v3.10.3 (24097-google), Manufacturer: samsung, Model: SM-S928B, GNSS HW Year: 2023, Platform: 14, API Level: 34 
# 
# Raw GNSS measurements format:
#   Raw,utcTimeMillis,TimeNanos,LeapSecond,TimeUncertaintyNanos,FullBiasNanos,BiasNanos,BiasUncertaintyNanos,DriftNanosPerSecond,DriftUncertaintyNanosPerSecond,HardwareClockDiscontinuityCount,Svid,TimeOffsetNanos,State,ReceivedSvTimeNanos,ReceivedSvTimeUncertaintyNanos,Cn0DbHz,PseudorangeRateMetersPerSecond,PseudorangeRateUncertaintyMetersPerSecond,AccumulatedDeltaRangeState,AccumulatedDeltaRangeMeters,AccumulatedDeltaRangeUncertaintyMeters,CarrierFrequencyHz,CarrierCycles,CarrierPhase,CarrierPhaseUncertainty,MultipathIndicator,SnrInDb,ConstellationType,AgcDb,BasebandCn0DbHz,FullInterSignalBiasNanos,FullInterSignalBiasUncertaintyNanos,SatelliteInterSignalBiasNanos,SatelliteInterSignalBiasUncertaintyNanos,CodeType,ChipsetElapsedRealtimeNanos
# 
# Location fix format:
#   Fix,Provider,LatitudeDegrees,LongitudeDegrees,AltitudeMeters,SpeedMps,AccuracyMeters,BearingDegrees,UnixTimeMillis,SpeedAccuracyMps,BearingAccuracyDegrees,elapsedRealtimeNanos,VerticalAccuracyMeters,MockLocation
# 
# Navigation message format:
#   Nav,Svid,Type,Status,MessageId,Sub-messageId,Data(Bytes)
# 
# NMEA format (for [NMEA sentence] format see https://en.wikipedia.org/wiki/NMEA_0183):
#   NMEA,[NMEA sentence],(UTC)TimeInMs
# 
# GnssAntennaInfo format (https://developer.android.com/reference/android/location/GnssAntennaInfo):
#   GnssAntennaInfo,CarrierFrequencyMHz,PhaseCenterOffsetXOffsetMm,PhaseCenterOffsetXOffsetUncertaintyMm,PhaseCenterOffsetYOffsetMm,PhaseCenterOffsetYOffsetUncertaintyMm,PhaseCenterOffsetZOffsetMm,PhaseCenterOffsetZOffsetUncertaintyMm,PhaseCenterVariationCorrectionsArray,PhaseCenterVariationCorrectionUncertaintiesArray,PhaseCenterVariationCorrectionsDeltaPhi,PhaseCenterVariationCorrectionsDeltaTheta,SignalGainCorrectionsArray,SignalGainCorrectionUncertaintiesArray,SignalGainCorrectionsDeltaPhi,SignalGainCorrectionsDeltaTheta
# 
# GnssStatus format (https://developer.android.com/reference/android/location/GnssStatus):
#   Status,UnixTimeMillis,SignalCount,SignalIndex,ConstellationType,Svid,CarrierFrequencyHz,Cn0DbHz,AzimuthDegrees,ElevationDegrees,UsedInFix,HasAlmanacData,HasEphemerisData,BasebandCn0DbHz
# Orientation sensor format (https://developer.android.com/reference/android/hardware/SensorEvent#values):
#   OrientationDeg,utcTimeMillis,elapsedRealtimeNanos,yawDeg,rollDeg,pitchDeg
Raw,2266455609,1997027173000000,18,0.0,-1401716603029308211,-0.6842269897460938,2999.6258672326803,-0.9765624737812494,34.5662416730733,14,2,0.0,16399,577630119393188,40,31.4,623.1546630859375,0.7549999952316284,16,0.0,0.0,1575420030,,,,0,0.0,1,-53.72,26.4,0.0,0.0,,,C,2266455609166325
Raw,2266455609,1997027173000000,18,0.0,-1401716603029308211,-0.6842269897460938,2999.6258672326803,-0.9765624737812494,34.5662416730733,14,3,0.0,16399,577630132843770,31,33.3,288.60888671875,1.1805000305175781,16,0.0,0.0,1575420030,,,,0,0.0,1,-53.72,28.299999999999997,0.0,0.0,,,C,2266455609195283
Raw,2266455609,1997027173000000,18,0.0,-1401716603029308211,-0.6842269897460938,2999.6258672326803,-0.9765624737812494,34.5662416730733,14,9,0.0,16399,577630131628957,27,34.4,-199.10427856445312,0.5929999947547913,16,0.0,0.0,1575420030,,,,0,0.0,1,-53.72,29.4,0.0,0.0,,,C,2266455609208981
Raw,2266455609,1997027173000000,18,0.0,-1401716603029308211,-0.6842269897460938,2999.6258672326803,-0.9765624737812494,34.5662416730733,14,4,0.0,49359,70012133444823,35,31.9,107.43321228027344,0.7639999985694885,16,0.0,0.0,1605374980,,,,0,0.0,3,-51.41,27.9,4857.34619140625,16.160839080810547,,,C,2266455609219762
Raw,2266455609,1997027173000000,18,0.0,-1401716603029308211,-0.6842269897460938,2999.6258672326803,-0.9765624737812494,34.5662416730733,14,4,0.0,23567,577630121723413,35,31.7,-65.66083526611328,1.1629999876022339,16,0.0,0.0,1575420030,,,,0,0.0,6,-57.48,27.4,-0.11073067784309387,16.061458587646484,,,C,2266455609231377
Raw,2266455609,1997027173000000,18,0.0,-1401716603029308211,-0.6842269897460938,2999.6258672326803,-0.9765624737812494,34.5662416730733,14,10,0.0,23567,577630120271465,40,31.1,297.5241394042969,1.1644999980926514,16,0.0,0.0,1575420030,,,,0,0.0,6,-57.48,26.8,-0.11073067784309387,16.061458587646484,,,C,2266455609242992
Raw,2266455609,1997027173000000,18,0.0,-1401716603029308211,-0.6842269897460938,2999.6258672326803,-0.9765624737812494,34.5662416730733,14,3,0.0,81935,577630132843702,10,30.4,288.54180908203125,0.7804999947547913,16,0.0,0.0,1176450050,,,,0,0.0,1,-39.51,25.4,6.388516902923584,5.806840896606445,,,Q,2266455609259294
Raw,2266455609,1997027173000000,18,0.0,-1401716603029308211,-0.6842269897460938,2999.6258672326803,-0.9765624737812494,34.5662416730733,14,4,0.0,81935,577630132596390,7,34.3,149.76243591308594,0.5705000162124634,16,0.0,0.0,1176450050,,,,0,0.0,1,-39.51,29.299999999999997,6.388516902923584,5.806840896606445,,,Q,2266455609269971
Raw,2266455609,1997027173000000,18,0.0,-1401716603029308211,-0.6842269897460938,2999.6258672326803,-0.9765624737812494,34.5662416730733,14,6,0.0,81935,577630127526873,5,37.3,-184.25340270996094,0.4580000042915344,16,0.0,0.0,1176450050,,,,0,0.0,1,-39.51,32.3,6.388516902923584,5.806840896606445,,,Q,2266455609279658
Raw,2266455609,1997027173000000,18,0.0,-1401716603029308211,-0.6842269897460938,2999.6258672326803,-0.9765624737812494,34.5662416730733,14,9,0.0,81935,577630131628958,5,37.9,-198.98248291015625,0.4519999921321869,16,0.0,0.0,1176450050,,,,0,0.0,1,-39.51,32.9,6.388516902923584,5.806840896606445,,,Q,2266455609289971
Raw,2266455609,1997027173000000,18,0.0,-1401716603029308211,-0.6842269897460938,2999.6258672326803,-0.9765624737812494,34.5662416730733,14,26,0.0,81935,577630122233544,14,27.9,273.8764343261719,1.005500078201294,16,0.0,0.0,1176450050,,,,0,0.0,1,-39.51,22.9,6.388516902923584,5.806840896606445,,,Q,2266455609299294
Raw,2266455609,1997027173000000,18,0.0,-1401716603029308211,-0.6842269897460938,2999.6258672326803,-0.9765624737812494,34.5662416730733,14,30,0.0,81935,577630118927936,11,29.7,-638.3697509765625,0.8314999938011169,16,0.0,0.0,1176450050,,,,0,0.0,1,-39.51,24.7,6.388516902923584,5.806840896606445,,,Q,2266455609309867
Raw,2266455609,1997027173000000,18,0.0,-1401716603029308211,-0.6842269897460938,2999.6258672326803,-0.9765624737812494,34.5662416730733,14,10,0.0,81935,577630120271404,6,35.4,296.7854919433594,0.5385000109672546,16,0.0,0.0,1176450050,,,,0,0.0,6,-39.51,30.099999999999998,1.0707327127456665,6021.70263671875,,,Q,2266455609321377
Raw,2266455609,1997027173000000,18,0.0,-1401716603029308211,-0.6842269897460938,2999.6258672326803,-0.9765624737812494,34.5662416730733,14,11,0.0,81935,577630122448878,8,33.4,17.162668228149414,0.6255000233650208,16,0.0,0.0,1176450050,,,,0,0.0,6,-39.51,28.099999999999998,1.0707327127456665,6021.70263671875,,,Q,2266455609330700
Raw,2266455609,1997027173000000,18,0.0,-1401716603029308211,-0.6842269897460938,2999.6258672326803,-0.9765624737812494,34.5662416730733,14,24,0.0,16399,577616125239289,12,27.6,263.9508972167969,1.0010000467300415,16,0.0,0.0,1176450050,,,,0,0.0,5,-39.51,23.1,-463.7597351074219,6022.3232421875,,,Q,2266455609340960
Raw,2266455609,1997027173000000,18,0.0,-1401716603029308211,-0.6842269897460938,2999.6258672326803,-0.9765624737812494,34.5662416730733,14,27,0.0,16399,577616118056719,8,32.7,241.99745178222656,0.6514999866485596,16,0.0,0.0,1176450050,,,,0,0.0,5,-39.51,28.200000000000003,-463.7597351074219,6022.3232421875,,,Q,2266455609352575
Raw,2266455609,1997027173000000,18,0.0,-1401716603029308211,-0.6842269897460938,2999.6258672326803,-0.9765624737812494,34.5662416730733,14,28,0.0,16399,577616117435316,14,27.2,471.11334228515625,0.9830000400543213,16,0.0,0.0,1176450050,,,,0,0.0,5,-39.51,22.7,-463.7597351074219,6022.3232421875,,,Q,2266455609361689
Raw,2266455609,1997027173000000,18,0.0,-1401716603029308211,-0.6842269897460938,2999.6258672326803,-0.9765624737812494,34.5662416730733,14,41,0.0,16399,577616125182023,8,32.7,-285.91705322265625,0.7009999752044678,16,0.0,0.0,1176450050,,,,0,0.0,5,-39.51,28.200000000000003,-463.7597351074219,6022.3232421875,,,Q,2266455609371794
Raw,2266456888,1997028393000000,18,0.0,-1401716603029308245,-0.6290721893310547,43.85803549666889,-1.7838252064138416,13.358862251164798,14,2,0.0,16399,577631339390721,40,31.1,623.763671875,0.7249999642372131,16,0.0,0.0,1575420030,,,,0,0.0,1,-53.96,26.1,0.0,0.0,,,C,2266456888256793
Raw,2266456888,1997028393000000,18,0.0,-1401716603029308245,-0.6290721893310547,43.85803549666889,-1.7838252064138416,13.358862251164798,14,3,0.0,16399,577631352842571,35,32.8,289.21783447265625,0.6754999756813049,16,0.0,0.0,1575420030,,,,0,0.0,1,-53.96,27.799999999999997,0.0,0.0,,,C,2266456888327627
Raw,2266456888,1997028393000000,18,0.0,-1401716603029308245,-0.6290721893310547,43.85803549666889,-1.7838252064138416,13.358862251164798,14,6,0.0,16399,577631347527610,70,27.6,-183.9378662109375,2.4620001316070557,16,0.0,0.0,1575420030,,,,0,0.0,1,-53.96,22.6,0.0,0.0,,,C,2266456888344241
Raw,2266456888,1997028393000000,18,0.0,-1401716603029308245,-0.6290721893310547,43.85803549666889,-1.7838252064138416,13.358862251164798,14,9,0.0,16399,577631351629755,27,34.4,-197.64852905273438,0.5870000123977661,16,0.0,0.0,1575420030,,,,0,0.0,1,-53.96,29.4,0.0,0.0,,,C,2266456888357262
Raw,2266456888,1997028393000000,18,0.0,-1401716603029308245,-0.6290721893310547,43.85803549666889,-1.7838252064138416,13.358862251164798,14,4,0.0,49359,70013353444511,46,29.8,108.24555206298828,0.8539999723434448,16,0.0,0.0,1605374980,,,,0,0.0,3,-51.64,25.8,4851.72900390625,13.508545875549316,,,C,2266456888369293
Raw,2266456888,1997028393000000,18,0.0,-1401716603029308245,-0.6290721893310547,43.85803549666889,-1.7838252064138416,13.358862251164798,14,4,0.0,23567,577631341723621,46,30.1,-65.83209991455078,0.8269999623298645,16,0.0,0.0,1575420030,,,,0,0.0,6,-57.67,25.8,-3.130699872970581,10.973973274230957,,,C,2266456888380074
Raw,2266456888,1997028393000000,18,0.0,-1401716603029308245,-0.6290721893310547,43.85803549666889,-1.7838252064138416,13.358862251164798,14,10,0.0,23567,577631340270215,40,31.2,297.6763916015625,0.9455000162124634,16,0.0,0.0,1575420030,,,,0,0.0,6,-57.67,26.9,-3.130699872970581,10.973973274230957,,,C,2266456888391845
Raw,2266456888,1997028393000000,18,0.0,-1401716603029308245,-0.6290721893310547,43.85803549666889,-1.7838252064138416,13.358862251164798,14,12,0.0,23567,577631337449617,70,26.8,486.47625732421875,2.3320000171661377,16,0.0,0.0,1575420030,,,,0,0.0,6,-57.67,22.5,-3.130699872970581,10.973973274230957,,,C,2266456888403668
Raw,2266456888,1997028393000000,18,0.0,-1401716603029308245,-0.6290721893310547,43.85803549666889,-1.7838252064138416,13.358862251164798,14,31,0.0,23567,577631327639885,70,26.3,-501.87103271484375,2.3289999961853027,16,0.0,0.0,1575420030,,,,0,0.0,6,-57.67,22.0,-3.130699872970581,10.973973274230957,,,C,2266456888413668
Raw,2266456888,1997028393000000,18,0.0,-1401716603029308245,-0.6290721893310547,43.85803549666889,-1.7838252064138416,13.358862251164798,14,3,0.0,81935,577631352842528,9,31.6,289.3827209472656,0.909500002861023,16,0.0,0.0,1176450050,,,,0,0.0,1,-39.99,26.6,6.383744239807129,5.808059215545654,,,Q,2266456888425804
Raw,2266456888,1997028393000000,18,0.0,-1401716603029308245,-0.6290721893310547,43.85803549666889,-1.7838252064138416,13.358862251164798,14,4,0.0,81935,577631352595772,8,33.7,150.70530700683594,0.799500048160553,16,0.0,0.0,1176450050,,,,0,0.0,1,-39.99,28.700000000000003,6.383744239807129,5.808059215545654,,,Q,2266456888439137
Raw,2266456888,1997028393000000,18,0.0,-1401716603029308245,-0.6290721893310547,43.85803549666889,-1.7838252064138416,13.358862251164798,14,6,0.0,81935,577631347527621,5,37.8,-183.48892211914062,0.4519999921321869,16,0.0,0.0,1176450050,,,,0,0.0,1,-39.99,32.8,6.383744239807129,5.808059215545654,,,Q,2266456888449397
Raw,2266456888,1997028393000000,18,0.0,-1401716603029308245,-0.6290721893310547,43.85803549666889,-1.7838252064138416,13.358862251164798,14,9,0.0,81935,577631351629768,5,37.3,-198.21800231933594,0.4580000042915344,16,0.0,0.0,1176450050,,,,0,0.0,1,-39.99,32.3,6.383744239807129,5.808059215545654,,,Q,2266456888460804
Raw,2266456888,1997028393000000,18,0.0,-1401716603029308245,-0.6290721893310547,43.85803549666889,-1.7838252064138416,13.358862251164798,14,26,0.0,81935,577631342232437,11,29.1,275.0741271972656,1.0145000219345093,16,0.0,0.0,1176450050,,,,0,0.0,1,-39.99,24.1,6.383744239807129,5.808059215545654,,,Q,2266456888472679
Raw,2266456888,1997028393000000,18,0.0,-1401716603029308245,-0.6290721893310547,43.85803549666889,-1.7838252064138416,13.358862251164798,14,30,0.0,81935,577631338930526,12,28.4,-637.4906005859375,1.1085000038146973,16,0.0,0.0,1176450050,,,,0,0.0,1,-39.99,23.4,6.383744239807129,5.808059215545654,,,Q,2266456888482002
Raw,2266456888,1997028393000000,18,0.0,-1401716603029308245,-0.6290721893310547,43.85803549666889,-1.7838252064138416,13.358862251164798,14,4,0.0,81935,577631341723620,18,25.5,-66.0132064819336,1.9930000305175781,16,0.0,0.0,1176450050,,,,0,0.0,6,-39.99,20.2,-1.927850604057312,95.84294128417969,,,Q,2266456888493147
Raw,2266456888,1997028393000000,18,0.0,-1401716603029308245,-0.6290721893310547,43.85803549666889,-1.7838252064138416,13.358862251164798,14,10,0.0,81935,577631340270192,6,35.8,297.7410888671875,0.5115000009536743,16,0.0,0.0,1176450050,,,,0,0.0,6,-39.99,30.499999999999996,-1.927850604057312,95.84294128417969,,,Q,2266456888502887
Raw,2266456888,1997028393000000,18,0.0,-1401716603029308245,-0.6290721893310547,43.85803549666889,-1.7838252064138416,13.358862251164798,14,11,0.0,81935,577631342448800,8,33.5,17.837963104248047,0.6044999957084656,16,0.0,0.0,1176450050,,,,0,0.0,6,-39.99,28.2,-1.927850604057312,95.84294128417969,,,Q,2266456888514502
Raw,2266456888,1997028393000000,18,0.0,-1401716603029308245,-0.6290721893310547,43.85803549666889,-1.7838252064138416,13.358862251164798,14,24,0.0,16399,577617345238216,11,28.8,264.95745849609375,1.11899995803833,16,0.0,0.0,1176450050,,,,0,0.0,5,-39.99,24.3,-468.2284851074219,97.03555297851562,,,Q,2266456888525908
Raw,2266456888,1997028393000000,18,0.0,-1401716603029308245,-0.6290721893310547,43.85803549666889,-1.7838252064138416,13.358862251164798,14,27,0.0,16399,577617338055731,8,31.6,242.8256378173828,0.7684999704360962,16,0.0,0.0,1176450050,,,,0,0.0,5,-39.99,27.1,-468.2284851074219,97.03555297851562,,,Q,2266456888536741
Raw,2266456888,1997028393000000,18,0.0,-1401716603029308245,-0.6290721893310547,43.85803549666889,-1.7838252064138416,13.358862251164798,14,28,0.0,16399,577617337433398,16,26.3,471.6484680175781,1.2969999313354492,16,0.0,0.0,1176450050,,,,0,0.0,5,-39.99,21.8,-468.2284851074219,97.03555297851562,,,Q,2266456888547679
Raw,2266456888,1997028393000000,18,0.0,-1401716603029308245,-0.6290721893310547,43.85803549666889,-1.7838252064138416,13.358862251164798,14,41,0.0,16399,577617345183186,8,32.6,-285.2799987792969,0.8989999890327454,16,0.0,0.0,1176450050,,,,0,0.0,5,-39.99,28.1,-468.2284851074219,97.03555297851562,,,Q,2266456888558564
Raw,2266456888,1997028393000000,18,0.0,-1401716603029308245,-0.6290721893310547,43.85803549666889,-1.7838252064138416,13.358862251164798,14,42,0.0,16399,577617335361250,16,25.7,395.4421691894531,1.156000018119812,16,0.0,0.0,1176450050,,,,0,0.0,5,-39.99,21.2,-468.2284851074219,97.03555297851562,,,Q,2266456888567835
Raw,2266457873,1997029393000000,18,0.0,-1401716603029308245,-0.9568977355957031,38.679238059557974,-1.640601662237145,12.311656654844567,14,2,0.0,16399,577632339388639,46,30.3,623.8206787109375,0.7849999666213989,16,0.0,0.0,1575420030,,,,0,0.0,1,-54.26,25.3,0.0,0.0,,,C,2266457873971584
Raw,2266457874,1997029393000000,18,0.0,-1401716603029308245,-0.9568977355957031,38.679238059557974,-1.640601662237145,12.311656654844567,14,3,0.0,16399,577632352841561,35,32.0,289.2654113769531,0.6754999756813049,16,0.0,0.0,1575420030,,,,0,0.0,1,-54.26,27.0,0.0,0.0,,,C,2266457874008459
Raw,2266457874,1997029393000000,18,0.0,-1401716603029308245,-0.9568977355957031,38.679238059557974,-1.640601662237145,12.311656654844567,14,6,0.0,16399,577632347528196,70,27.3,-183.6619415283203,1.6820000410079956,16,0.0,0.0,1575420030,,,,0,0.0,1,-54.26,22.3,0.0,0.0,,,C,2266457874021897
Raw,2266457874,1997029393000000,18,0.0,-1401716603029308245,-0.9568977355957031,38.679238059557974,-1.640601662237145,12.311656654844567,14,7,0.0,16399,577632348383885,70,27.9,-441.40521240234375,1.1165000200271606,16,0.0,0.0,1575420030,,,,0,0.0,1,-54.26,22.9,0.0,0.0,,,C,2266457874033095
Raw,2266457874,1997029393000000,18,0.0,-1401716603029308245,-0.9568977355957031,38.679238059557974,-1.640601662237145,12.311656654844567,14,9,0.0,16399,577632351630469,35,32.9,-198.8568878173828,0.6769999861717224,16,0.0,0.0,1575420030,,,,0,0.0,1,-54.26,27.9,0.0,0.0,,,C,2266457874147626
Raw,2266457874,1997029393000000,18,0.0,-1401716603029308245,-0.9568977355957031,38.679238059557974,-1.640601662237145,12.311656654844567,14,4,0.0,49359,70014353443996,40,30.8,107.59194946289062,0.793999969959259,16,0.0,0.0,1605374980,,,,0,0.0,3,-51.86,26.8,4851.72705078125,13.535332679748535,,,C,2266457874161532
Raw,2266457874,1997029393000000,18,0.0,-1401716603029308245,-0.9568977355957031,38.679238059557974,-1.640601662237145,12.311656654844567,14,4,0.0,23567,577632341723843,53,28.5,-66.10601043701172,1.6855489015579224,16,0.0,0.0,1575420030,,,,0,0.0,6,-57.99,24.2,-3.137371778488159,11.006752014160156,,,C,2266457874179605
Raw,2266457874,1997029393000000,18,0.0,-1401716603029308245,-0.9568977355957031,38.679238059557974,-1.640601662237145,12.311656654844567,14,10,0.0,23567,577632340269239,40,30.3,297.4986267089844,1.6060285568237305,16,0.0,0.0,1575420030,,,,0,0.0,6,-57.99,26.0,-3.137371778488159,11.006752014160156,,,C,2266457874192209
Raw,2266457874,1997029393000000,18,0.0,-1401716603029308245,-0.9568977355957031,38.679238059557974,-1.640601662237145,12.311656654844567,14,12,0.0,23567,577632337448038,80,26.0,485.8007507324219,1.5369999408721924,16,0.0,0.0,1575420030,,,,0,0.0,6,-57.99,21.7,-3.137371778488159,11.006752014160156,,,C,2266457874202626
Raw,2266457874,1997029393000000,18,0.0,-1401716603029308245,-0.9568977355957031,38.679238059557974,-1.640601662237145,12.311656654844567,14,31,0.0,23567,577632327641546,70,26.9,-501.3667297363281,1.5339999198913574,16,0.0,0.0,1575420030,,,,0,0.0,6,-57.99,22.599999999999998,-3.137371778488159,11.006752014160156,,,C,2266457874215282
Raw,2266457874,1997029393000000,18,0.0,-1401716603029308245,-0.9568977355957031,38.679238059557974,-1.640601662237145,12.311656654844567,14,3,0.0,81935,577632352841561,9,31.8,289.0356750488281,0.812856137752533,16,0.0,0.0,1176450050,,,,0,0.0,1,-39.51,26.8,6.382303237915039,5.808257579803467,,,Q,2266457874225022
Raw,2266457874,1997029393000000,18,0.0,-1401716603029308245,-0.9568977355957031,38.679238059557974,-1.640601662237145,12.311656654844567,14,4,0.0,81935,577632352595273,7,34.2,150.44493103027344,1.5640636682510376,16,0.0,0.0,1176450050,,,,0,0.0,1,-39.51,29.200000000000003,6.382303237915039,5.808257579803467,,,Q,2266457874236897
Raw,2266457874,1997029393000000,18,0.0,-1401716603029308245,-0.9568977355957031,38.679238059557974,-1.640601662237145,12.311656654844567,14,6,0.0,81935,577632347528229,6,36.9,-183.61785888671875,0.037584736943244934,16,0.0,0.0,1176450050,,,,0,0.0,1,-39.51,31.9,6.382303237915039,5.808257579803467,,,Q,2266457874248199
Raw,2266457874,1997029393000000,18,0.0,-1401716603029308245,-0.9568977355957031,38.679238059557974,-1.640601662237145,12.311656654844567,14,9,0.0,81935,577632351630427,6,36.9,-198.45745849609375,0.043584734201431274,16,0.0,0.0,1176450050,,,,0,0.0,1,-39.51,31.9,6.382303237915039,5.808257579803467,,,Q,2266457874262678
Raw,2266457874,1997029393000000,18,0.0,-1401716603029308245,-0.9568977355957031,38.679238059557974,-1.640601662237145,12.311656654844567,14,26,0.0,81935,577632342231513,12,28.0,275.3926696777344,0.9044999480247498,16,0.0,0.0,1176450050,,,,0,0.0,1,-39.51,23.0,6.382303237915039,5.808257579803467,,,Q,2266457874276376
Raw,2266457874,1997029393000000,18,0.0,-1401716603029308245,-0.9568977355957031,38.679238059557974,-1.640601662237145,12.311656654844567,14,30,0.0,81935,577632338932658,12,28.0,-637.5160522460938,0.9284999966621399,16,0.0,0.0,1176450050,,,,0,0.0,1,-39.51,23.0,6.382303237915039,5.808257579803467,,,Q,2266457874287782
Raw,2266457874,1997029393000000,18,0.0,-1401716603029308245,-0.9568977355957031,38.679238059557974,-1.640601662237145,12.311656654844567,14,10,0.0,81935,577632340269195,6,36.1,297.4651184082031,0.039520345628261566,16,0.0,0.0,1176450050,,,,0,0.0,6,-39.51,30.8,-1.9218111038208008,85.72388458251953,,,Q,2266457874297314
Raw,2266457874,1997029393000000,18,0.0,-1401716603029308245,-0.9568977355957031,38.679238059557974,-1.640601662237145,12.311656654844567,14,11,0.0,81935,577632342448740,8,32.8,17.664405822753906,0.02465689741075039,16,0.0,0.0,1176450050,,,,0,0.0,6,-39.51,27.499999999999996,-1.9218111038208008,85.72388458251953,,,Q,2266457874309814
Raw,2266457874,1997029393000000,18,0.0,-1401716603029308245,-0.9568977355957031,38.679238059557974,-1.640601662237145,12.311656654844567,14,24,0.0,16399,577618345237326,12,28.3,264.58795166015625,0.9389999508857727,16,0.0,0.0,1176450050,,,,0,0.0,5,-39.51,23.8,-468.1972351074219,86.98028564453125,,,Q,2266457874322001
Raw,2266457874,1997029393000000,18,0.0,-1401716603029308245,-0.9568977355957031,38.679238059557974,-1.640601662237145,12.311656654844567,14,27,0.0,16399,577618338054921,9,31.4,242.7051544189453,1.6163402795791626,16,0.0,0.0,1176450050,,,,0,0.0,5,-39.51,26.9,-468.1972351074219,86.98028564453125,,,Q,2266457874331689
Raw,2266457874,1997029393000000,18,0.0,-1401716603029308245,-0.9568977355957031,38.679238059557974,-1.640601662237145,12.311656654844567,14,28,0.0,16399,577618337431831,14,26.8,471.5975036621094,1.1169999837875366,16,0.0,0.0,1176450050,,,,0,0.0,5,-39.51,22.3,-468.1972351074219,86.98028564453125,,,Q,2266457874342939
Raw,2266457874,1997029393000000,18,0.0,-1401716603029308245,-0.9568977355957031,38.679238059557974,-1.640601662237145,12.311656654844567,14,41,0.0,16399,577618345184137,8,32.5,-285.6156311035156,0.8511691689491272,16,0.0,0.0,1176450050,,,,0,0.0,5,-39.51,28.0,-468.1972351074219,86.98028564453125,,,Q,2266457874354970
Raw,2266457874,1997029393000000,18,0.0,-1401716603029308245,-0.9568977355957031,38.679238059557974,-1.640601662237145,12.311656654844567,14,42,0.0,16399,577618335359916,14,26.7,395.0216979980469,1.1439999341964722,16,0.0,0.0,1176450050,,,,0,0.0,5,-39.51,22.2,-468.1972351074219,86.98028564453125,,,Q,2266457874364345
Raw,2266457874,1997029393000000,18,0.0,-1401716603029308245,-0.9568977355957031,38.679238059557974,-1.640601662237145,12.311656654844567,14,23,0.0,16399,577618337257756,11,31.2,-637.07470703125,0.9629999995231628,16,0.0,0.0,1575420030,,,,0,0.0,5,-57.99,24.2,-472.1875915527344,84.98078918457031,,,P,2266457874376949
Raw,2266457874,1997029393000000,18,0.0,-1401716603029308245,-0.9568977355957031,38.679238059557974,-1.640601662237145,12.311656654844567,14,24,0.0,16399,577618345237327,12,30.1,264.717529296875,1.0460000038146973,16,0.0,0.0,1575420030,,,,0,0.0,5,-57.99,23.1,-472.1875915527344,84.98078918457031,,,P,2266457874388147
Raw,2266458895,1997030393000000,18,0.0,-1401716603029308244,-0.4667816162109375,34.582648368086666,-1.9350244026169967,11.39220702696372,14,2,0.0,16399,577633339386605,40,31.2,622.9263305664062,0.7099999785423279,16,0.0,0.0,1575420030,,,,0,0.0,1,-54.14,26.2,0.0,0.0,,,C,2266458895974344
Raw,2266458896,1997030393000000,18,0.0,-1401716603029308244,-0.4667816162109375,34.582648368086666,-1.9350244026169967,11.39220702696372,14,3,0.0,16399,577633352840622,31,33.1,288.6469421386719,0.6255000233650208,16,0.0,0.0,1575420030,,,,0,0.0,1,-54.14,28.1,0.0,0.0,,,C,2266458896011324
Raw,2266458896,1997030393000000,18,0.0,-1401716603029308244,-0.4667816162109375,34.582648368086666,-1.9350244026169967,11.39220702696372,14,9,0.0,16399,577633351631126,31,33.4,-198.59046936035156,0.6270000338554382,16,0.0,0.0,1575420030,,,,0,0.0,1,-54.14,28.4,0.0,0.0,,,C,2266458896029084
Raw,2266458896,1997030393000000,18,0.0,-1401716603029308244,-0.4667816162109375,34.582648368086666,-1.9350244026169967,11.39220702696372,14,5,0.0,49359,70015352261614,80,25.6,-286.1246032714844,1.7695000171661377,16,0.0,0.0,1602562560,,,,0,0.0,3,-51.85,21.6,4851.71923828125,13.559849739074707,,,C,2266458896042574
Raw,2266458896,1997030393000000,18,0.0,-1401716603029308244,-0.4667816162109375,34.582648368086666,-1.9350244026169967,11.39220702696372,14,4,0.0,49359,70015353443451,53,28.9,108.18952941894531,0.9239999651908875,16,0.0,0.0,1605374980,,,,0,0.0,3,-51.85,24.9,4851.71923828125,13.559849739074707,,,C,2266458896058042
Raw,2266458896,1997030393000000,18,0.0,-1401716603029308244,-0.4667816162109375,34.582648368086666,-1.9350244026169967,11.39220702696372,14,4,0.0,23567,577633341724065,46,29.8,-66.29522705078125,0.8657273650169373,16,0.0,0.0,1575420030,,,,0,0.0,6,-57.87,25.5,-3.147367238998413,11.037763595581055,,,C,2266458896166740
Raw,2266458896,1997030393000000,18,0.0,-1401716603029308244,-0.4667816162109375,34.582648368086666,-1.9350244026169967,11.39220702696372,14,10,0.0,23567,577633340268236,40,30.9,297.3944091796875,0.0770602747797966,16,0.0,0.0,1575420030,,,,0,0.0,6,-57.87,26.599999999999998,-3.147367238998413,11.037763595581055,,,C,2266458896184188
Raw,2266458896,1997030393000000,18,0.0,-1401716603029308244,-0.4667816162109375,34.582648368086666,-1.9350244026169967,11.39220702696372,14,12,0.0,23567,577633337446371,70,26.3,485.4962463378906,1.1169999837875366,16,0.0,0.0,1575420030,,,,0,0.0,6,-57.87,22.0,-3.147367238998413,11.037763595581055,,,C,2266458896199188
Raw,2266458896,1997030393000000,18,0.0,-1401716603029308244,-0.4667816162109375,34.582648368086666,-1.9350244026169967,11.39220702696372,14,21,0.0,23567,577633333556601,92,24.5,-91.09358215332031,1.8669999837875366,16,0.0,0.0,1575420030,,,,0,0.0,6,-57.87,20.2,-3.147367238998413,11.037763595581055,,,C,2266458896213303
Raw,2266458896,1997030393000000,18,0.0,-1401716603029308244,-0.4667816162109375,34.582648368086666,-1.9350244026169967,11.39220702696372,14,31,0.0,23567,577633327643245,80,25.6,-502.099365234375,1.2039999961853027,16,0.0,0.0,1575420030,,,,0,0.0,6,-57.87,21.3,-3.147367238998413,11.037763595581055,,,C,2266458896225178
Raw,2266458896,1997030393000000,18,0.0,-1401716603029308244,-0.4667816162109375,34.582648368086666,-1.9350244026169967,11.39220702696372,14,3,0.0,81935,577633352840585,8,32.2,288.9310607910156,0.039656899869441986,16,0.0,0.0,1176450050,,,,0,0.0,1,-39.35,27.200000000000003,6.3843302726745605,5.8084564208984375,,,Q,2266458896238042
Raw,2266458896,1997030393000000,18,0.0,-1401716603029308244,-0.4667816162109375,34.582648368086666,-1.9350244026169967,11.39220702696372,14,4,0.0,81935,577633352594773,7,34.3,150.2772979736328,0.03509547561407089,16,0.0,0.0,1176450050,,,,0,0.0,1,-39.35,29.299999999999997,6.3843302726745605,5.8084564208984375,,,Q,2266458896254240
Raw,2266458896,1997030393000000,18,0.0,-1401716603029308244,-0.4667816162109375,34.582648368086666,-1.9350244026169967,11.39220702696372,14,6,0.0,81935,577633347528847,5,37.9,-183.72959899902344,0.03154531121253967,16,0.0,0.0,1176450050,,,,0,0.0,1,-39.35,32.9,6.3843302726745605,5.8084564208984375,,,Q,2266458896266063
Raw,2266458896,1997030393000000,18,0.0,-1401716603029308244,-0.4667816162109375,34.582648368086666,-1.9350244026169967,11.39220702696372,14,9,0.0,81935,577633351631084,5,37.4,-198.6309356689453,0.03754531219601631,16,0.0,0.0,1176450050,,,,0,0.0,1,-39.35,32.4,6.3843302726745605,5.8084564208984375,,,Q,2266458896280699
Raw,2266458896,1997030393000000,18,0.0,-1401716603029308244,-0.4667816162109375,34.582648368086666,-1.9350244026169967,11.39220702696372,14,26,0.0,81935,577633342230610,12,28.9,274.9594421386719,0.9044999480247498,16,0.0,0.0,1176450050,,,,0,0.0,1,-39.35,23.9,6.3843302726745605,5.8084564208984375,,,Q,2266458896293407
Raw,2266458896,1997030393000000,18,0.0,-1401716603029308244,-0.4667816162109375,34.582648368086666,-1.9350244026169967,11.39220702696372,14,30,0.0,81935,577633338934782,12,28.7,-637.79638671875,0.9284999966621399,16,0.0,0.0,1176450050,,,,0,0.0,1,-39.35,23.7,6.3843302726745605,5.8084564208984375,,,Q,2266458896304397
Raw,2266458896,1997030393000000,18,0.0,-1401716603029308244,-0.4667816162109375,34.582648368086666,-1.9350244026169967,11.39220702696372,14,4,0.0,81935,577633341724058,14,27.4,-66.17884063720703,1.7030000686645508,16,0.0,0.0,1176450050,,,,0,0.0,6,-39.35,22.099999999999998,-1.9486278295516968,77.7618179321289,,,Q,2266458896316480
Raw,2266458896,1997030393000000,18,0.0,-1401716603029308244,-0.4667816162109375,34.582648368086666,-1.9350244026169967,11.39220702696372,14,10,0.0,81935,577633340268203,6,35.5,297.3077087402344,0.039520345628261566,16,0.0,0.0,1176450050,,,,0,0.0,6,-39.35,30.2,-1.9486278295516968,77.7618179321289,,,Q,2266458896327834
Raw,2266458896,1997030393000000,18,0.0,-1401716603029308244,-0.4667816162109375,34.582648368086666,-1.9350244026169967,11.39220702696372,14,11,0.0,81935,577633342448686,8,33.0,17.498363494873047,0.02465689741075039,16,0.0,0.0,1176450050,,,,0,0.0,6,-39.35,27.7,-1.9486278295516968,77.7618179321289,,,Q,2266458896340126
Raw,2266458896,1997030393000000,18,0.0,-1401716603029308244,-0.4667816162109375,34.582648368086666,-1.9350244026169967,11.39220702696372,14,24,0.0,16399,577619345236460,11,28.5,264.6042175292969,0.17235150933265686,16,0.0,0.0,1176450050,,,,0,0.0,5,-39.35,24.0,-468.1972351074219,79.07563018798828,,,Q,2266458896352105
Raw,2266458896,1997030393000000,18,0.0,-1401716603029308244,-0.4667816162109375,34.582648368086666,-1.9350244026169967,11.39220702696372,14,27,0.0,16399,577619338054112,8,32.5,242.6034393310547,0.07618506997823715,16,0.0,0.0,1176450050,,,,0,0.0,5,-39.35,28.0,-468.1972351074219,79.07563018798828,,,Q,2266458896363094
Raw,2266458896,1997030393000000,18,0.0,-1401716603029308244,-0.4667816162109375,34.582648368086666,-1.9350244026169967,11.39220702696372,14,28,0.0,16399,577619337430270,12,27.8,471.3936462402344,1.037000060081482,16,0.0,0.0,1176450050,,,,0,0.0,5,-39.35,23.3,-468.1972351074219,79.07563018798828,,,Q,2266458896376063
Raw,2266458896,1997030393000000,18,0.0,-1401716603029308244,-0.4667816162109375,34.582648368086666,-1.9350244026169967,11.39220702696372,14,41,0.0,16399,577619345185095,8,33.2,-285.7566833496094,0.08668506890535355,16,0.0,0.0,1176450050,,,,0,0.0,5,-39.35,28.700000000000003,-468.1972351074219,79.07563018798828,,,Q,2266458896390855
Raw,2266458896,1997030393000000,18,0.0,-1401716603029308244,-0.4667816162109375,34.582648368086666,-1.9350244026169967,11.39220702696372,14,23,0.0,16399,577619337259830,16,28.8,-637.417236328125,1.1469999551773071,16,0.0,0.0,1575420030,,,,0,0.0,5,-57.87,21.8,-472.1875915527344,77.07618713378906,,,P,2266458896400282
Raw,2266458896,1997030393000000,18,0.0,-1401716603029308244,-0.4667816162109375,34.582648368086666,-1.9350244026169967,11.39220702696372,14,24,0.0,16399,577619345236437,16,28.8,264.63189697265625,1.1439999341964722,16,0.0,0.0,1575420030,,,,0,0.0,5,-57.87,21.8,-472.1875915527344,77.07618713378906,,,P,2266458896410959
Raw,2266459894,1997031393000000,18,0.0,-1401716603029308249,-0.2947578430175781,33.24127465020865,-2.6670194666272127,10.224841169795255,14,2,0.0,16399,577634339384520,53,29.0,622.4886474609375,0.8299999833106995,16,0.0,0.0,1575420030,,,,0,0.0,1,-56.28,24.0,0.0,0.0,,,C,2266459894527886
Raw,2266459894,1997031393000000,18,0.0,-1401716603029308249,-0.2947578430175781,33.24127465020865,-2.6670194666272127,10.224841169795255,14,3,0.0,16399,577634352839717,53,29.1,288.5232849121094,0.8554999828338623,16,0.0,0.0,1575420030,,,,0,0.0,1,-56.28,24.1,0.0,0.0,,,C,2266459894578719
Raw,2266459894,1997031393000000,18,0.0,-1401716603029308249,-0.2947578430175781,33.24127465020865,-2.6670194666272127,10.224841169795255,14,6,0.0,16399,577634347529473,80,26.2,-183.0149383544922,1.7769999504089355,16,0.0,0.0,1575420030,,,,0,0.0,1,-56.28,21.2,0.0,0.0,,,C,2266459894601636
Raw,2266459894,1997031393000000,18,0.0,-1401716603029308249,-0.2947578430175781,33.24127465020865,-2.6670194666272127,10.224841169795255,14,7,0.0,16399,577634348386876,92,25.8,-442.0997619628906,1.868499994277954,16,0.0,0.0,1575420030,,,,0,0.0,1,-56.28,20.8,0.0,0.0,,,C,2266459894622469
Raw,2266459894,1997031393000000,18,0.0,-1401716603029308249,-0.2947578430175781,33.24127465020865,-2.6670194666272127,10.224841169795255,14,9,0.0,16399,577634351631804,35,32.0,-198.4953155517578,0.6769999861717224,16,0.0,0.0,1575420030,,,,0,0.0,1,-56.28,27.0,0.0,0.0,,,C,2266459894643042
Raw,2266459894,1997031393000000,18,0.0,-1401716603029308249,-0.2947578430175781,33.24127465020865,-2.6670194666272127,10.224841169795255,14,4,0.0,49359,70016353443316,46,29.0,107.33050537109375,0.8539999723434448,16,0.0,0.0,1605374980,,,,0,0.0,3,-53.71,25.0,4851.74462890625,13.585282325744629,,,C,2266459894660073
Raw,2266459894,1997031393000000,18,0.0,-1401716603029308249,-0.2947578430175781,33.24127465020865,-2.6670194666272127,10.224841169795255,14,5,0.0,16399,577620296993231,61,27.9,3.4471089839935303,8.96679973602295,16,0.0,0.0,1561097980,,,,0,0.0,5,-66.91,23.599999999999998,-481.5234069824219,12.818413734436035,,,I,2266459894783875
Raw,2266459894,1997031393000000,18,0.0,-1401716603029308249,-0.2947578430175781,33.24127465020865,-2.6670194666272127,10.224841169795255,14,4,0.0,23567,577634341724355,70,26.4,-66.53617858886719,1.1169999837875366,16,0.0,0.0,1575420030,,,,0,0.0,6,-59.98,22.099999999999998,-3.1533944606781006,11.069189071655273,,,C,2266459894804761
Raw,2266459894,1997031393000000,18,0.0,-1401716603029308249,-0.2947578430175781,33.24127465020865,-2.6670194666272127,10.224841169795255,14,10,0.0,23567,577634340267234,46,29.4,297.27874755859375,2.393195629119873,16,0.0,0.0,1575420030,,,,0,0.0,6,-59.98,25.099999999999998,-3.1533944606781006,11.069189071655273,,,C,2266459894822990
Raw,2266459894,1997031393000000,18,0.0,-1401716603029308249,-0.2947578430175781,33.24127465020865,-2.6670194666272127,10.224841169795255,14,3,0.0,81935,577634352839633,9,31.9,288.88568115234375,0.812856137752533,16,0.0,0.0,1176450050,,,,0,0.0,1,-39.43,26.9,6.391198635101318,5.80865478515625,,,Q,2266459894841584
Raw,2266459894,1997031393000000,18,0.0,-1401716603029308249,-0.2947578430175781,33.24127465020865,-2.6670194666272127,10.224841169795255,14,4,0.0,81935,577634352594270,8,33.5,150.16737365722656,0.03718506544828415,16,0.0,0.0,1176450050,,,,0,0.0,1,-39.43,28.5,6.391198635101318,5.80865478515625,,,Q,2266459894857105
Raw,2266459894,1997031393000000,18,0.0,-1401716603029308249,-0.2947578430175781,33.24127465020865,-2.6670194666272127,10.224841169795255,14,6,0.0,81935,577634347529460,5,37.4,-183.73187255859375,0.03154531121253967,16,0.0,0.0,1176450050,,,,0,0.0,1,-39.43,32.4,6.391198635101318,5.80865478515625,,,Q,2266459894877261
Raw,2266459894,1997031393000000,18,0.0,-1401716603029308249,-0.2947578430175781,33.24127465020865,-2.6670194666272127,10.224841169795255,14,9,0.0,81935,577634351631756,5,37.4,-198.7325897216797,0.03754531219601631,16,0.0,0.0,1176450050,,,,0,0.0,1,-39.43,32.4,6.391198635101318,5.80865478515625,,,Q,2266459894896948
Raw,2266459894,1997031393000000,18,0.0,-1401716603029308249,-0.2947578430175781,33.24127465020865,-2.6670194666272127,10.224841169795255,14,26,0.0,81935,577634342229691,10,30.1,274.95269775390625,0.8282315731048584,16,0.0,0.0,1176450050,,,,0,0.0,1,-39.43,25.1,6.391198635101318,5.80865478515625,,,Q,2266459894911844
Raw,2266459894,1997031393000000,18,0.0,-1401716603029308249,-0.2947578430175781,33.24127465020865,-2.6670194666272127,10.224841169795255,14,30,0.0,81935,577634338936912,10,30.2,-637.8963012695312,0.8522316217422485,16,0.0,0.0,1176450050,,,,0,0.0,1,-39.43,25.2,6.391198635101318,5.80865478515625,,,Q,2266459894928511
Raw,2266459894,1997031393000000,18,0.0,-1401716603029308249,-0.2947578430175781,33.24127465020865,-2.6670194666272127,10.224841169795255,14,4,0.0,81935,577634341724281,12,29.2,-66.35721588134766,0.8330000042915344,16,0.0,0.0,1176450050,,,,0,0.0,6,-39.43,23.9,-1.9751715660095215,75.10462951660156,,,Q,2266459894942677
Raw,2266459894,1997031393000000,18,0.0,-1401716603029308249,-0.2947578430175781,33.24127465020865,-2.6670194666272127,10.224841169795255,14,10,0.0,81935,577634340267215,6,35.9,297.2796936035156,0.039520345628261566,16,0.0,0.0,1176450050,,,,0,0.0,6,-39.43,30.599999999999998,-1.9751715660095215,75.10462951660156,,,Q,2266459894959344
Raw,2266459894,1997031393000000,18,0.0,-1401716603029308249,-0.2947578430175781,33.24127465020865,-2.6670194666272127,10.224841169795255,14,11,0.0,81935,577634342448627,8,33.1,17.494735717773438,0.02465689741075039,16,0.0,0.0,1176450050,,,,0,0.0,6,-39.43,27.8,-1.9751715660095215,75.10462951660156,,,Q,2266459894976427
Raw,2266459894,1997031393000000,18,0.0,-1401716603029308249,-0.2947578430175781,33.24127465020865,-2.6670194666272127,10.224841169795255,14,24,0.0,16399,577620345235569,10,29.5,264.51580810546875,0.09824752062559128,16,0.0,0.0,1176450050,,,,0,0.0,5,-39.43,25.0,-468.2284851074219,76.41222381591797,,,Q,2266459894991375
Raw,2266459895,1997031393000000,18,0.0,-1401716603029308249,-0.2947578430175781,33.24127465020865,-2.6670194666272127,10.224841169795255,14,27,0.0,16399,577620338053308,8,31.7,242.4760284423828,0.8431410193443298,16,0.0,0.0,1176450050,,,,0,0.0,5,-39.43,27.2,-468.2284851074219,76.41222381591797,,,Q,2266459895042834
Raw,2266459895,1997031393000000,18,0.0,-1401716603029308249,-0.2947578430175781,33.24127465020865,-2.6670194666272127,10.224841169795255,14,28,0.0,16399,577620337428681,12,28.0,471.6357421875,0.9569999575614929,16,0.0,0.0,1176450050,,,,0,0.0,5,-39.43,23.5,-468.2284851074219,76.41222381591797,,,Q,2266459895061532
Raw,2266459895,1997031393000000,18,0.0,-1401716603029308249,-0.2947578430175781,33.24127465020865,-2.6670194666272127,10.224841169795255,14,41,0.0,16399,577620345186046,8,32.5,-285.98248291015625,0.08668506890535355,16,0.0,0.0,1176450050,,,,0,0.0,5,-39.43,28.0,-468.2284851074219,76.41222381591797,,,Q,2266459895076844
Raw,2266459895,1997031393000000,18,0.0,-1401716603029308249,-0.2947578430175781,33.24127465020865,-2.6670194666272127,10.224841169795255,14,42,0.0,16399,577620335357290,20,24.3,394.5502624511719,2.074000120162964,16,0.0,0.0,1176450050,,,,0,0.0,5,-39.43,19.8,-468.2284851074219,76.41222381591797,,,Q,2266459895091480
Raw,2266459895,1997031393000000,18,0.0,-1401716603029308249,-0.2947578430175781,33.24127465020865,-2.6670194666272127,10.224841169795255,14,23,0.0,16399,577620337261958,16,28.7,-637.8453979492188,1.1769999265670776,16,0.0,0.0,1575420030,,,,0,0.0,5,-59.98,21.7,-472.2188415527344,74.4128189086914,,,P,2266459895106688
Raw,2266459895,1997031393000000,18,0.0,-1401716603029308249,-0.2947578430175781,33.24127465020865,-2.6670194666272127,10.224841169795255,14,24,0.0,16399,577620345235558,14,29.4,264.3559875488281,1.1439999341964722,16,0.0,0.0,1575420030,,,,0,0.0,5,-59.98,22.4,-472.2188415527344,74.4128189086914,,,P,2266459895118875
Raw,2266459895,1997031393000000,18,0.0,-1401716603029308249,-0.2947578430175781,33.24127465020865,-2.6670194666272127,10.224841169795255,14,33,0.0,16399,577620346628436,20,26.6,107.14485168457031,2.7755000591278076,16,0.0,0.0,1575420030,,,,0,0.0,5,-59.98,19.6,-472.2188415527344,74.4128189086914,,,P,2266459895135334
Raw,2266460893,1997032393000000,18,0.0,-1401716603029308254,-0.39095497131347656,32.42384264012799,-3.545710659590247,10.651704667065179,14,2,0.0,16399,577635339382375,53,29.6,624.4772338867188,0.8299999833106995,16,0.0,0.0,1575420030,,,,0,0.0,1,-56.01,24.6,0.0,0.0,,,C,2266460893005125
Raw,2266460893,1997032393000000,18,0.0,-1401716603029308254,-0.39095497131347656,32.42384264012799,-3.545710659590247,10.651704667065179,14,3,0.0,16399,577635352838717,46,30.1,288.8087158203125,0.7954999804496765,16,0.0,0.0,1575420030,,,,0,0.0,1,-56.01,25.1,0.0,0.0,,,C,2266460893041687
Raw,2266460893,1997032393000000,18,0.0,-1401716603029308254,-0.39095497131347656,32.42384264012799,-3.545710659590247,10.651704667065179,14,9,0.0,16399,577635351632490,35,32.5,-198.64756774902344,0.6769999861717224,16,0.0,0.0,1575420030,,,,0,0.0,1,-56.01,27.5,0.0,0.0,,,C,2266460893062260
Raw,2266460893,1997032393000000,18,0.0,-1401716603029308254,-0.39095497131347656,32.42384264012799,-3.545710659590247,10.651704667065179,14,4,0.0,49359,70017353442899,53,28.7,107.96543884277344,0.9239999651908875,16,0.0,0.0,1605374980,,,,0,0.0,3,-53.33,24.7,4851.78076171875,13.609618186950684,,,C,2266460893074812
Raw,2266460893,1997032393000000,18,0.0,-1401716603029308254,-0.39095497131347656,32.42384264012799,-3.545710659590247,10.651704667065179,14,4,0.0,23567,577635341724511,61,28.1,-66.66938781738281,0.9569999575614929,16,0.0,0.0,1575420030,,,,0,0.0,6,-59.74,23.8,-3.157750129699707,11.100037574768066,,,C,2266460893089135
Raw,2266460893,1997032393000000,18,0.0,-1401716603029308254,-0.39095497131347656,32.42384264012799,-3.545710659590247,10.651704667065179,14,10,0.0,23567,577635340266266,53,28.8,297.4656066894531,0.1550806760787964,16,0.0,0.0,1575420030,,,,0,0.0,6,-59.74,24.5,-3.157750129699707,11.100037574768066,,,C,2266460893101271
Raw,2266460893,1997032393000000,18,0.0,-1401716603029308254,-0.39095497131347656,32.42384264012799,-3.545710659590247,10.651704667065179,14,12,0.0,23567,577635337443088,122,23.2,485.7055969238281,2.117000102996826,16,0.0,0.0,1575420030,,,,0,0.0,6,-59.74,18.9,-3.157750129699707,11.100037574768066,,,C,2266460893190229
Raw,2266460893,1997032393000000,18,0.0,-1401716603029308254,-0.39095497131347656,32.42384264012799,-3.545710659590247,10.651704667065179,14,3,0.0,81935,577635352838667,9,31.4,289.00506591796875,0.048372019082307816,16,0.0,0.0,1176450050,,,,0,0.0,1,-39.35,26.4,6.40054178237915,5.808853626251221,,,Q,2266460893209292
Raw,2266460893,1997032393000000,18,0.0,-1401716603029308254,-0.39095497131347656,32.42384264012799,-3.545710659590247,10.651704667065179,14,4,0.0,81935,577635352593764,7,34.4,150.24563598632812,0.03509547561407089,16,0.0,0.0,1176450050,,,,0,0.0,1,-39.35,29.4,6.40054178237915,5.808853626251221,,,Q,2266460893221271
Raw,2266460893,1997032393000000,18,0.0,-1401716603029308254,-0.39095497131347656,32.42384264012799,-3.545710659590247,10.651704667065179,14,6,0.0,81935,577635347530071,5,38.1,-183.49130249023438,0.028614787384867668,16,0.0,0.0,1176450050,,,,0,0.0,1,-39.35,33.1,6.40054178237915,5.808853626251221,,,Q,2266460893237833
Raw,2266460893,1997032393000000,18,0.0,-1401716603029308254,-0.39095497131347656,32.42384264012799,-3.545710659590247,10.651704667065179,14,9,0.0,81935,577635351632414,5,37.9,-198.5718994140625,0.03754531219601631,16,0.0,0.0,1176450050,,,,0,0.0,1,-39.35,32.9,6.40054178237915,5.808853626251221,,,Q,2266460893251271
Raw,2266460893,1997032393000000,18,0.0,-1401716603029308254,-0.39095497131347656,32.42384264012799,-3.545710659590247,10.651704667065179,14,26,0.0,81935,577635342228763,11,29.4,275.0622863769531,0.1378515064716339,16,0.0,0.0,1176450050,,,,0,0.0,1,-39.35,24.4,6.40054178237915,5.808853626251221,,,Q,2266460893261010
Raw,2266460893,1997032393000000,18,0.0,-1401716603029308254,-0.39095497131347656,32.42384264012799,-3.545710659590247,10.651704667065179,14,30,0.0,81935,577635338939034,12,28.4,-637.5543212890625,0.9284999966621399,16,0.0,0.0,1176450050,,,,0,0.0,1,-39.35,23.4,6.40054178237915,5.808853626251221,,,Q,2266460893272365
Raw,2266460893,1997032393000000,18,0.0,-1401716603029308254,-0.39095497131347656,32.42384264012799,-3.545710659590247,10.651704667065179,14,4,0.0,81935,577635341724495,12,29.1,-66.344482421875,0.8330000042915344,16,0.0,0.0,1176450050,,,,0,0.0,6,-39.35,23.8,-1.9387500286102295,73.58358764648438,,,Q,2266460893283562
Raw,2266460893,1997032393000000,18,0.0,-1401716603029308254,-0.39095497131347656,32.42384264012799,-3.545710659590247,10.651704667065179,14,9,0.0,81935,577635332112829,30,22.2,-296.44146728515625,4.479499816894531,16,0.0,0.0,1176450050,,,,0,0.0,6,-39.35,16.9,-1.9387500286102295,73.58358764648438,,,Q,2266460893293250
Raw,2266460893,1997032393000000,18,0.0,-1401716603029308254,-0.39095497131347656,32.42384264012799,-3.545710659590247,10.651704667065179,14,10,0.0,81935,577635340266224,6,36.4,297.53717041015625,0.02708473429083824,16,0.0,0.0,1176450050,,,,0,0.0,6,-39.35,31.099999999999998,-1.9387500286102295,73.58358764648438,,,Q,2266460893303875
Raw,2266460893,1997032393000000,18,0.0,-1401716603029308254,-0.39095497131347656,32.42384264012799,-3.545710659590247,10.651704667065179,14,11,0.0,81935,577635342448564,8,33.6,17.656944274902344,0.0221850648522377,16,0.0,0.0,1176450050,,,,0,0.0,6,-39.35,28.3,-1.9387500286102295,73.58358764648438,,,Q,2266460893315490
Raw,2266460893,1997032393000000,18,0.0,-1401716603029308254,-0.39095497131347656,32.42384264012799,-3.545710659590247,10.651704667065179,14,24,0.0,16399,577621345234688,11,28.8,264.7112121582031,0.17235150933265686,16,0.0,0.0,1176450050,,,,0,0.0,5,-39.35,24.3,-468.1972351074219,74.90995025634766,,,Q,2266460893327052
Raw,2266460893,1997032393000000,18,0.0,-1401716603029308254,-0.39095497131347656,32.42384264012799,-3.545710659590247,10.651704667065179,14,27,0.0,16399,577621338052497,8,32.1,242.62754821777344,0.07865689694881439,16,0.0,0.0,1176450050,,,,0,0.0,5,-39.35,27.6,-468.1972351074219,74.90995025634766,,,Q,2266460893336479
Raw,2266460893,1997032393000000,18,0.0,-1401716603029308254,-0.39095497131347656,32.42384264012799,-3.545710659590247,10.651704667065179,14,28,0.0,16399,577621337427123,14,27.1,471.5338134765625,1.037000060081482,16,0.0,0.0,1176450050,,,,0,0.0,5,-39.35,22.6,-468.1972351074219,74.90995025634766,,,Q,2266460893348146
Raw,2266460893,1997032393000000,18,0.0,-1401716603029308254,-0.39095497131347656,32.42384264012799,-3.545710659590247,10.651704667065179,14,41,0.0,16399,577621345187002,7,33.5,-285.8192138671875,0.11459548026323318,16,0.0,0.0,1176450050,,,,0,0.0,5,-39.35,29.0,-468.1972351074219,74.90995025634766,,,Q,2266460893358719
Raw,2266460893,1997032393000000,18,0.0,-1401716603029308254,-0.39095497131347656,32.42384264012799,-3.545710659590247,10.651704667065179,14,42,0.0,16399,577621335355977,16,25.9,395.14910888671875,1.2639999389648438,16,0.0,0.0,1176450050,,,,0,0.0,5,-39.35,21.4,-468.1972351074219,74.90995025634766,,,Q,2266460893368250
Raw,2266460893,1997032393000000,18,0.0,-1401716603029308254,-0.39095497131347656,32.42384264012799,-3.545710659590247,10.651704667065179,14,23,0.0,16399,577621337264131,16,28.6,-637.398193359375,1.2669999599456787,16,0.0,0.0,1575420030,,,,0,0.0,5,-59.74,21.6,-472.1875915527344,72.91059112548828,,,P,2266460893378875
Raw,2266460893,1997032393000000,18,0.0,-1401716603029308254,-0.39095497131347656,32.42384264012799,-3.545710659590247,10.651704667065179,14,24,0.0,16399,577621345234690,14,29.5,264.6604309082031,1.1439999341964722,16,0.0,0.0,1575420030,,,,0,0.0,5,-59.74,22.5,-472.1875915527344,72.91059112548828,,,P,2266460893389552
Raw,2266461894,1997033393000000,18,0.0,-1401716603029308257,-0.6692104339599609,30.17537710547913,-3.1723207131311497,10.042711196150737,14,2,0.0,16399,577636339380280,61,28.0,623.5067138671875,0.8999999761581421,16,0.0,0.0,1575420030,,,,0,0.0,1,-56.44,23.0,0.0,0.0,,,C,2266461894107156
Raw,2266461894,1997033393000000,18,0.0,-1401716603029308257,-0.6692104339599609,30.17537710547913,-3.1723207131311497,10.042711196150737,14,3,0.0,16399,577636352837714,46,30.7,289.6935729980469,0.7954999804496765,16,0.0,0.0,1575420030,,,,0,0.0,1,-56.44,25.7,0.0,0.0,,,C,2266461894135489
Raw,2266461894,1997033393000000,18,0.0,-1401716603029308257,-0.6692104339599609,30.17537710547913,-3.1723207131311497,10.042711196150737,14,6,0.0,16399,577636347530756,92,25.9,-183.04348754882812,1.8669999837875366,16,0.0,0.0,1575420030,,,,0,0.0,1,-56.44,20.9,0.0,0.0,,,C,2266461894149552
Raw,2266461894,1997033393000000,18,0.0,-1401716603029308257,-0.6692104339599609,30.17537710547913,-3.1723207131311497,10.042711196150737,14,9,0.0,16399,577636351633066,46,30.4,-198.81883239746094,0.796999990940094,16,0.0,0.0,1575420030,,,,0,0.0,1,-56.44,25.4,0.0,0.0,,,C,2266461894160437
Raw,2266461894,1997033393000000,18,0.0,-1401716603029308257,-0.6692104339599609,30.17537710547913,-3.1723207131311497,10.042711196150737,14,24,0.0,16399,577622345233853,122,22.6,264.3807678222656,4.304000377655029,16,0.0,0.0,1561097980,,,,0,0.0,5,-67.01,18.3,-481.51959228515625,12.825713157653809,,,I,2266461894171270
Raw,2266461894,1997033393000000,18,0.0,-1401716603029308257,-0.6692104339599609,30.17537710547913,-3.1723207131311497,10.042711196150737,14,4,0.0,23567,577636341724736,80,26.2,-66.21268463134766,1.1169999837875366,16,0.0,0.0,1575420030,,,,0,0.0,6,-60.14,21.9,-3.1586804389953613,11.131303787231445,,,C,2266461894183875
Raw,2266461894,1997033393000000,18,0.0,-1401716603029308257,-0.6692104339599609,30.17537710547913,-3.1723207131311497,10.042711196150737,14,10,0.0,23567,577636340265278,46,29.7,297.7073059082031,1.6287115812301636,16,0.0,0.0,1575420030,,,,0,0.0,6,-60.14,25.4,-3.1586804389953613,11.131303787231445,,,C,2266461894195073
Raw,2266461894,1997033393000000,18,0.0,-1401716603029308257,-0.6692104339599609,30.17537710547913,-3.1723207131311497,10.042711196150737,14,11,0.0,23567,577636342448505,159,20.6,17.46895980834961,4.618500232696533,16,0.0,0.0,1575420030,,,,0,0.0,6,-60.14,16.3,-3.1586804389953613,11.131303787231445,,,C,2266461894205541
Raw,2266461894,1997033393000000,18,0.0,-1401716603029308257,-0.6692104339599609,30.17537710547913,-3.1723207131311497,10.042711196150737,14,31,0.0,23567,577636327648244,122,22.6,-501.52850341796875,3.0139999389648438,16,0.0,0.0,1575420030,,,,0,0.0,6,-60.14,18.3,-3.1586804389953613,11.131303787231445,,,C,2266461894296583
Raw,2266461894,1997033393000000,18,0.0,-1401716603029308257,-0.6692104339599609,30.17537710547913,-3.1723207131311497,10.042711196150737,14,3,0.0,81935,577636352837703,8,32.6,289.25323486328125,0.039656899869441986,16,0.0,0.0,1176450050,,,,0,0.0,1,-39.43,27.6,6.402904510498047,5.809051990509033,,,Q,2266461894313927
Raw,2266461894,1997033393000000,18,0.0,-1401716603029308257,-0.6692104339599609,30.17537710547913,-3.1723207131311497,10.042711196150737,14,4,0.0,81935,577636352593267,7,34.6,150.46951293945312,0.03509547561407089,16,0.0,0.0,1176450050,,,,0,0.0,1,-39.43,29.6,6.402904510498047,5.809051990509033,,,Q,2266461894327937
Raw,2266461894,1997033393000000,18,0.0,-1401716603029308257,-0.6692104339599609,30.17537710547913,-3.1723207131311497,10.042711196150737,14,6,0.0,81935,577636347530683,5,37.3,-183.2203826904297,0.03154531121253967,16,0.0,0.0,1176450050,,,,0,0.0,1,-39.43,32.3,6.402904510498047,5.809051990509033,,,Q,2266461894337781
Raw,2266461894,1997033393000000,18,0.0,-1401716603029308257,-0.6692104339599609,30.17537710547913,-3.1723207131311497,10.042711196150737,14,9,0.0,81935,577636351633077,5,37.5,-198.41502380371094,0.03754531219601631,16,0.0,0.0,1176450050,,,,0,0.0,1,-39.43,32.5,6.402904510498047,5.809051990509033,,,Q,2266461894348041
Raw,2266461894,1997033393000000,18,0.0,-1401716603029308257,-0.6692104339599609,30.17537710547913,-3.1723207131311497,10.042711196150737,14,26,0.0,81935,577636342227856,10,30.5,275.3815612792969,0.8282315731048584,16,0.0,0.0,1176450050,,,,0,0.0,1,-39.43,25.5,6.402904510498047,5.809051990509033,,,Q,2266461894360385
Raw,2266461894,1997033393000000,18,0.0,-1401716603029308257,-0.6692104339599609,30.17537710547913,-3.1723207131311497,10.042711196150737,14,30,0.0,81935,577636338941162,14,27.5,-637.6179809570312,1.0084999799728394,16,0.0,0.0,1176450050,,,,0,0.0,1,-39.43,22.5,6.402904510498047,5.809051990509033,,,Q,2266461894369343
Raw,2266461894,1997033393000000,18,0.0,-1401716603029308257,-0.6692104339599609,30.17537710547913,-3.1723207131311497,10.042711196150737,14,4,0.0,81935,577636341724715,12,28.6,-66.1023941040039,0.902999997138977,16,0.0,0.0,1176450050,,,,0,0.0,6,-39.43,23.3,-1.9649912118911743,69.24848175048828,,,Q,2266461894379604
Raw,2266461894,1997033393000000,18,0.0,-1401716603029308257,-0.6692104339599609,30.17537710547913,-3.1723207131311497,10.042711196150737,14,10,0.0,81935,577636340265229,6,35.3,297.68603515625,0.039520345628261566,16,0.0,0.0,1176450050,,,,0,0.0,6,-39.43,29.999999999999996,-1.9649912118911743,69.24848175048828,,,Q,2266461894388562
Raw,2266461894,1997033393000000,18,0.0,-1401716603029308257,-0.6692104339599609,30.17537710547913,-3.1723207131311497,10.042711196150737,14,11,0.0,81935,577636342448513,8,33.2,17.933366775512695,0.02465689741075039,16,0.0,0.0,1176450050,,,,0,0.0,6,-39.43,27.900000000000002,-1.9649912118911743,69.24848175048828,,,Q,2266461894399552
Raw,2266461894,1997033393000000,18,0.0,-1401716603029308257,-0.6692104339599609,30.17537710547913,-3.1723207131311497,10.042711196150737,14,24,0.0,16399,577622345233798,10,29.9,264.961669921875,0.09824752062559128,16,0.0,0.0,1176450050,,,,0,0.0,5,-39.43,25.4,-468.2239990234375,70.60440063476562,,,Q,2266461894410645
Raw,2266461894,1997033393000000,18,0.0,-1401716603029308257,-0.6692104339599609,30.17537710547913,-3.1723207131311497,10.042711196150737,14,27,0.0,16399,577622338051685,7,33.5,242.87222290039062,0.0740954801440239,16,0.0,0.0,1176450050,,,,0,0.0,5,-39.43,29.0,-468.2239990234375,70.60440063476562,,,Q,2266461894422104
Raw,2266461894,1997033393000000,18,0.0,-1401716603029308257,-0.6692104339599609,30.17537710547913,-3.1723207131311497,10.042711196150737,14,28,0.0,16399,577622337425542,12,28.2,471.572021484375,0.9569999575614929,16,0.0,0.0,1176450050,,,,0,0.0,5,-39.43,23.7,-468.2239990234375,70.60440063476562,,,Q,2266461894431583
Raw,2266461894,1997033393000000,18,0.0,-1401716603029308257,-0.6692104339599609,30.17537710547913,-3.1723207131311497,10.042711196150737,14,41,0.0,16399,577622345187955,8,33.4,-285.6611022949219,0.08668506890535355,16,0.0,0.0,1176450050,,,,0,0.0,5,-39.43,28.9,-468.2239990234375,70.60440063476562,,,Q,2266461894442729
Raw,2266461894,1997033393000000,18,0.0,-1401716603029308257,-0.6692104339599609,30.17537710547913,-3.1723207131311497,10.042711196150737,14,42,0.0,16399,577622335354656,16,26.2,395.1363525390625,1.1439999341964722,16,0.0,0.0,1176450050,,,,0,0.0,5,-39.43,21.7,-468.2239990234375,70.60440063476562,,,Q,2266461894454760
Raw,2266461894,1997033393000000,18,0.0,-1401716603029308257,-0.6692104339599609,30.17537710547913,-3.1723207131311497,10.042711196150737,14,23,0.0,16399,577622337266249,16,28.0,-637.0460815429688,1.2369999885559082,16,0.0,0.0,1575420030,,,,0,0.0,5,-60.14,21.0,-472.2188415527344,68.60513305664062,,,P,2266461894466687
Raw,2266461894,1997033393000000,18,0.0,-1401716603029308257,-0.6692104339599609,30.17537710547913,-3.1723207131311497,10.042711196150737,14,33,0.0,16399,577622346627741,23,25.9,107.60155487060547,2.2355000972747803,16,0.0,0.0,1575420030,,,,0,0.0,5,-60.14,18.9,-472.2188415527344,68.60513305664062,,,P,2266461894484343
Raw,2266462885,1997034393000000,18,0.0,-1401716603029308259,-0.8447799682617188,29.159347832319327,-2.6445739160881363,10.17572713841567,14,2,0.0,16399,577637339378298,40,31.0,623.5447998046875,0.7099999785423279,16,0.0,0.0,1575420030,,,,0,0.0,1,-54.54,26.0,0.0,0.0,,,C,2266462885939499
Raw,2266462885,1997034393000000,18,0.0,-1401716603029308259,-0.8447799682617188,29.159347832319327,-2.6445739160881363,10.17572713841567,14,3,0.0,16399,577637352836748,35,32.5,289.42718505859375,0.6754999756813049,16,0.0,0.0,1575420030,,,,0,0.0,1,-54.54,27.5,0.0,0.0,,,C,2266462885979603
Raw,2266462885,1997034393000000,18,0.0,-1401716603029308259,-0.8447799682617188,29.159347832319327,-2.6445739160881363,10.17572713841567,14,9,0.0,16399,577637351633753,31,33.5,-198.1718292236328,0.6270000338554382,16,0.0,0.0,1575420030,,,,0,0.0,1,-54.54,28.5,0.0,0.0,,,C,2266462885997885
Raw,2266462886,1997034393000000,18,0.0,-1401716603029308259,-0.8447799682617188,29.159347832319327,-2.6445739160881363,10.17572713841567,14,4,0.0,23567,577637341724918,46,29.7,-66.20699310302734,0.1012432798743248,16,0.0,0.0,1575420030,,,,0,0.0,6,-58.19,25.4,-3.1679985523223877,11.16202449798584,,,C,2266462886015437
Raw,2266462886,1997034393000000,18,0.0,-1401716603029308259,-0.8447799682617188,29.159347832319327,-2.6445739160881363,10.17572713841567,14,10,0.0,23567,577637340264284,40,30.7,297.6839599609375,0.0770602747797966,16,0.0,0.0,1575420030,,,,0,0.0,6,-58.19,26.4,-3.1679985523223877,11.16202449798584,,,C,2266462886027416
Raw,2266462886,1997034393000000,18,0.0,-1401716603029308259,-0.8447799682617188,29.159347832319327,-2.6445739160881363,10.17572713841567,14,3,0.0,81935,577637352836740,9,31.7,289.3150329589844,0.048372019082307816,16,0.0,0.0,1176450050,,,,0,0.0,1,-39.26,26.7,6.403266906738281,5.809249401092529,,,Q,2266462886041062
Raw,2266462886,1997034393000000,18,0.0,-1401716603029308259,-0.8447799682617188,29.159347832319327,-2.6445739160881363,10.17572713841567,14,4,0.0,81935,577637352592766,7,34.0,150.43409729003906,0.03509547561407089,16,0.0,0.0,1176450050,,,,0,0.0,1,-39.26,29.0,6.403266906738281,5.809249401092529,,,Q,2266462886056999
Raw,2266462886,1997034393000000,18,0.0,-1401716603029308259,-0.8447799682617188,29.159347832319327,-2.6445739160881363,10.17572713841567,14,6,0.0,81935,577637347531291,5,37.4,-183.202392578125,0.03154531121253967,16,0.0,0.0,1176450050,,,,0,0.0,1,-39.26,32.4,6.403266906738281,5.809249401092529,,,Q,2266462886068510
Raw,2266462886,1997034393000000,18,0.0,-1401716603029308259,-0.8447799682617188,29.159347832319327,-2.6445739160881363,10.17572713841567,14,9,0.0,81935,577637351633739,5,37.7,-198.41409301757812,0.03754531219601631,16,0.0,0.0,1176450050,,,,0,0.0,1,-39.26,32.7,6.403266906738281,5.809249401092529,,,Q,2266462886082208
Raw,2266462886,1997034393000000,18,0.0,-1401716603029308259,-0.8447799682617188,29.159347832319327,-2.6445739160881363,10.17572713841567,14,26,0.0,81935,577637342226930,10,30.1,275.4415283203125,0.06374751776456833,16,0.0,0.0,1176450050,,,,0,0.0,1,-39.26,25.1,6.403266906738281,5.809249401092529,,,Q,2266462886185385
Raw,2266462886,1997034393000000,18,0.0,-1401716603029308259,-0.8447799682617188,29.159347832319327,-2.6445739160881363,10.17572713841567,14,30,0.0,81935,577637338943292,11,29.8,-637.6637573242188,0.16185151040554047,16,0.0,0.0,1176450050,,,,0,0.0,1,-39.26,24.8,6.403266906738281,5.809249401092529,,,Q,2266462886205072
Raw,2266462886,1997034393000000,18,0.0,-1401716603029308259,-0.8447799682617188,29.159347832319327,-2.6445739160881363,10.17572713841567,14,4,0.0,81935,577637341724948,16,27.2,-65.94950103759766,0.9830000400543213,16,0.0,0.0,1176450050,,,,0,0.0,6,-39.26,21.9,-1.929534912109375,67.34584045410156,,,Q,2266462886220958
Raw,2266462886,1997034393000000,18,0.0,-1401716603029308259,-0.8447799682617188,29.159347832319327,-2.6445739160881363,10.17572713841567,14,9,0.0,81935,577637332114798,20,24.7,-296.8109436035156,2.0394999980926514,16,0.0,0.0,1176450050,,,,0,0.0,6,-39.26,19.4,-1.929534912109375,67.34584045410156,,,Q,2266462886234291
Raw,2266462886,1997034393000000,18,0.0,-1401716603029308259,-0.8447799682617188,29.159347832319327,-2.6445739160881363,10.17572713841567,14,10,0.0,81935,577637340264238,6,36.2,297.72735595703125,0.039520345628261566,16,0.0,0.0,1176450050,,,,0,0.0,6,-39.26,30.900000000000002,-1.929534912109375,67.34584045410156,,,Q,2266462886245853
Raw,2266462886,1997034393000000,18,0.0,-1401716603029308259,-0.8447799682617188,29.159347832319327,-2.6445739160881363,10.17572713841567,14,11,0.0,81935,577637342448448,8,33.0,17.94661521911621,0.02465689741075039,16,0.0,0.0,1176450050,,,,0,0.0,6,-39.26,27.7,-1.929534912109375,67.34584045410156,,,Q,2266462886259760
Raw,2266462886,1997034393000000,18,0.0,-1401716603029308259,-0.8447799682617188,29.159347832319327,-2.6445739160881363,10.17572713841567,14,24,0.0,16399,577623345232921,11,28.9,264.9878234863281,0.17235150933265686,16,0.0,0.0,1176450050,,,,0,0.0,5,-39.26,24.4,-468.2174072265625,68.73247528076172,,,Q,2266462886272937
Raw,2266462886,1997034393000000,18,0.0,-1401716603029308259,-0.8447799682617188,29.159347832319327,-2.6445739160881363,10.17572713841567,14,27,0.0,16399,577623338050876,8,31.9,242.8563690185547,0.07865689694881439,16,0.0,0.0,1176450050,,,,0,0.0,5,-39.26,27.4,-468.2174072265625,68.73247528076172,,,Q,2266462886285541
