# 
# Header Description:
# 
# Version: v3.0.6.4 Platform: 14 Manufacturer: samsung Model: SM-S918B
# 
# Raw,utcTimeMillis,TimeNanos,LeapSecond,TimeUncertaintyNanos,FullBiasNanos,BiasNanos,BiasUncertaintyNanos,DriftNanosPerSecond,DriftUncertaintyNanosPerSecond,HardwareClockDiscontinuityCount,Svid,TimeOffsetNanos,State,ReceivedSvTimeNanos,ReceivedSvTimeUncertaintyNanos,Cn0DbHz,PseudorangeRateMetersPerSecond,PseudorangeRateUncertaintyMetersPerSecond,AccumulatedDeltaRangeState,AccumulatedDeltaRangeMeters,AccumulatedDeltaRangeUncertaintyMeters,CarrierFrequencyHz,CarrierCycles,CarrierPhase,CarrierPhaseUncertainty,MultipathIndicator,SnrInDb,ConstellationType,AgcDb,BasebandCn0DbHz,FullInterSignalBiasNanos,FullInterSignalBiasUncertaintyNanos,SatelliteInterSignalBiasNanos,SatelliteInterSignalBiasUncertaintyNanos,CodeType,ChipsetElapsedRealtimeNanos
# 
# UncalAccel,utcTimeMillis,elapsedRealtimeNanos,UncalAccelXMps2,UncalAccelYMps2,UncalAccelZMps2,BiasXMps2,BiasYMps2,BiasZMps2
# 
# Accel,utcTimeMillis,elapsedRealtimeNanos,AccelXMps2,AccelYMps2,AccelZMps2
# 
# UncalGyro,utcTimeMillis,elapsedRealtimeNanos,UncalGyroXRadPerSec,UncalGyroYRadPerSec,UncalGyroZRadPerSec,DriftXRadPerSec,DriftYRadPerSec,DriftZRadPerSec
# 
# Gyro,utcTimeMillis,elapsedRealtimeNanos,GyroXRadPerSec,GyroYRadPerSec,GyroZRadPerSec
# 
# UncalMag,utcTimeMillis,elapsedRealtimeNanos,UncalMagXMicroT,UncalMagYMicroT,UncalMagZMicroT,BiasXMicroT,BiasYMicroT,BiasZMicroT
# 
# Mag,utcTimeMillis,elapsedRealtimeNanos,MagXMicroT,MagYMicroT,MagZMicroT
# 
# OrientationDeg,utcTimeMillis,elapsedRealtimeNanos,yawDeg,rollDeg,pitchDeg
# 
# Fix,Provider,LatitudeDegrees,LongitudeDegrees,AltitudeMeters,SpeedMps,AccuracyMeters,BearingDegrees,UnixTimeMillis,SpeedAccuracyMps,BearingAccuracyDegrees,elapsedRealtimeNanos,VerticalAccuracyMeters,MockLocation,NumberOfUsedSignals,VerticalSpeedAccuracyMps,SolutionType
# 
# Nav,Svid,Type,Status,MessageId,Sub-messageId,Data(Bytes)
# 
# Status,UnixTimeMillis,SignalCount,SignalIndex,ConstellationType,Svid,CarrierFrequencyHz,Cn0DbHz,AzimuthDegrees,ElevationDegrees,UsedInFix,HasAlmanacData,HasEphemerisData,BasebandCn0DbHz
# 
# Agc,utcTimeMillis,TimeNanos,LeapSecond,TimeUncertaintyNanos,FullBiasNanos,BiasNanos,BiasUncertaintyNanos,DriftNanosPerSecond,DriftUncertaintyNanosPerSecond,HardwareClockDiscontinuityCount,AgcDb,CarrierFrequencyHz,ConstellationType
# 
Fix,FLP,33.8182643000,35.4907971000,208.02787822205931,0.11620968,4.141,219.5879,1713958354791,0.42434254,45.0,1103504856486714,6.2385235,0,,,
Status,,17,0,1,5,1575420030,40.90,39.547237,14.015289,1,1,1,35.9
Status,,17,1,1,10,1575420030,41.20,195.48857,23.98961,1,0,1,36.2
Status,,17,2,1,13,1575420030,41.20,65.20973,1.7394788,0,1,1,36.2
Status,,17,3,1,15,1575420030,41.40,93.27423,17.965208,1,1,1,36.4
Status,,17,4,1,18,1575420030,41.50,357.1045,67.05225,1,1,1,36.5
Status,,17,5,1,23,1575420030,41.50,173.7478,55.597397,1,1,1,36.5
Status,,17,6,1,25,1575420030,41.10,159.98125,12.338493,1,1,1,36.1
Status,,17,7,1,26,1575420030,41.50,278.09686,53.65998,1,1,1,36.5
Status,,17,8,1,28,1575420030,41.00,219.21063,3.9415045,0,1,1,36.0
Status,,17,9,1,29,1575420030,41.20,86.89479,43.556572,1,1,1,36.2
Status,,17,10,1,31,1575420030,41.10,245.79663,11.337911,1,1,1,36.1
Status,,17,11,3,22,1600312450,27.00,281.0999,19.163857,0,1,1,22.0
Status,,17,12,3,12,1601437440,33.20,324.36966,19.99683,0,1,1,28.2
Status,,17,13,3,5,1602562560,39.80,61.341396,28.050823,0,1,1,34.8
Status,,17,14,3,20,1603124990,21.10,47.48601,27.530544,0,1,1,16.1
Status,,17,15,3,21,1604249980,35.70,335.28818,48.217316,0,1,1,30.7
Status,,17,16,6,34,1575420030,28.10,42.553886,38.22446,0,1,1,23.1
Raw,1713958355415,940637344000000,18,0.0,-1397052936071309027,-0.4631977081298828,32.94175985502079,50.92428628438774,19.401843701364456,20,5,0.0,16399,300773334565840,9,45.9,651.090087890625,4.0239763259887695,16,0.0,0.0,1575420030,,,,0,0.0,1,-51.53,40.9,0.0,0.0,,,C,1103505274053902
Raw,1713958355415,940637344000000,18,0.0,-1397052936071309027,-0.4631977081298828,32.94175985502079,50.92428628438774,19.401843701364456,20,10,0.0,16399,300773337219759,8,46.2,-638.4522094726562,4.589748382568359,16,0.0,0.0,1575420030,,,,0,0.0,1,-51.53,41.2,0.0,0.0,,,C,1103505274053902
Raw,1713958355415,940637344000000,18,0.0,-1397052936071309027,-0.4631977081298828,32.94175985502079,50.92428628438774,19.401843701364456,20,13,0.0,16399,300773331258024,8,46.2,-180.25167846679688,4.027867317199707,16,0.0,0.0,1575420030,,,,0,0.0,1,-51.53,41.2,0.0,0.0,,,C,1103505274053902
Raw,1713958355415,940637344000000,18,0.0,-1397052936071309027,-0.4631977081298828,32.94175985502079,50.92428628438774,19.401843701364456,20,15,0.0,16399,300773336554659,8,46.4,-292.4504089355469,4.591248035430908,16,0.0,0.0,1575420030,,,,0,0.0,1,-51.53,41.4,0.0,0.0,,,C,1103505274053902
Raw,1713958355415,940637344000000,18,0.0,-1397052936071309027,-0.4631977081298828,32.94175985502079,50.92428628438774,19.401843701364456,20,18,0.0,16399,300773345907830,8,46.5,145.24163818359375,0.2459999918937683,16,0.0,0.0,1575420030,,,,0,0.0,1,-51.53,41.5,0.0,0.0,,,C,1103505274053902
Raw,1713958355415,940637344000000,18,0.0,-1397052936071309027,-0.4631977081298828,32.94175985502079,50.92428628438774,19.401843701364456,20,23,0.0,16399,300773344942463,8,46.5,-408.1119384765625,4.609248161315918,16,0.0,0.0,1575420030,,,,0,0.0,1,-51.53,41.5,0.0,0.0,,,C,1103505274053902
Raw,1713958355415,940637344000000,18,0.0,-1397052936071309027,-0.4631977081298828,32.94175985502079,50.92428628438774,19.401843701364456,20,25,0.0,16399,300773333323733,8,46.1,728.929443359375,0.23399999737739563,16,0.0,0.0,1575420030,,,,0,0.0,1,-51.53,41.1,0.0,0.0,,,C,1103505274053902
Raw,1713958355415,940637344000000,18,0.0,-1397052936071309027,-0.4631977081298828,32.94175985502079,50.92428628438774,19.401843701364456,20,26,0.0,16399,300773344678044,8,46.5,-37.868438720703125,0.2475000023841858,16,0.0,0.0,1575420030,,,,0,0.0,1,-51.53,41.5,0.0,0.0,,,C,1103505274053902
Raw,1713958355415,940637344000000,18,0.0,-1397052936071309027,-0.4631977081298828,32.94175985502079,50.92428628438774,19.401843701364456,20,28,0.0,16399,300773330564181,8,46.0,490.17559814453125,5.17112922668457,16,0.0,0.0,1575420030,,,,0,0.0,1,-51.53,41.0,0.0,0.0,,,C,1103505274053902
Raw,1713958355415,940637344000000,18,0.0,-1397052936071309027,-0.4631977081298828,32.94175985502079,50.92428628438774,19.401843701364456,20,29,0.0,16399,300773342358321,8,46.2,316.983154296875,4.041367530822754,16,0.0,0.0,1575420030,,,,0,0.0,1,-51.53,41.2,0.0,0.0,,,C,1103505274053902
Raw,1713958355415,940637344000000,18,0.0,-1397052936071309027,-0.4631977081298828,32.94175985502079,50.92428628438774,19.401843701364456,20,31,0.0,16399,300773332369293,8,46.1,459.5352783203125,3.455486297607422,16,0.0,0.0,1575420030,,,,0,0.0,1,-51.53,41.1,0.0,0.0,,,C,1103505274053902
Raw,1713958355415,940637344000000,18,0.0,-1397052936071309027,-0.4631977081298828,32.94175985502079,50.92428628438774,19.401843701364456,20,12,0.0,49359,52355339838765,17,37.2,-505.379150390625,0.06053777411580086,16,0.0,0.0,1601437440,,,,0,0.0,3,-53.71,33.2,0.0,20000.0,,,C,1103505274053902
Raw,1713958355415,940637344000000,18,0.0,-1397052936071309027,-0.4631977081298828,32.94175985502079,50.92428628438774,19.401843701364456,20,5,0.0,49359,52355342322583,10,43.8,30.955533981323242,0.6075112223625183,16,0.0,0.0,1602562560,,,,0,0.0,3,-53.71,39.8,0.0,20000.0,,,C,1103505274053902
Raw,1713958355415,940637344000000,18,0.0,-1397052936071309027,-0.4631977081298828,32.94175985502079,50.92428628438774,19.401843701364456,20,21,0.0,49359,52355347193796,14,39.7,-22.909217834472656,0.6029466986656189,16,0.0,0.0,1604249980,,,,0,0.0,3,-53.71,35.7,0.0,20000.0,,,C,1103505274053902
Raw,1713958355415,940637344000000,18,0.0,-1397052936071309027,-0.4631977081298828,32.94175985502079,50.92428628438774,19.401843701364456,20,34,0.0,23567,300773330968281,31,32.4,350.0562744140625,0.8061904907226562,16,0.0,0.0,1575420030,,,,0,0.0,6,-54.65,28.099999999999998,0.0,20000.0,,,C,1103505274053902
Agc,1713958355415,940637344000000,18,0.0,-1397052936071309027,-0.4631977081298828,32.94175985502079,50.92428628438774,19.401843701364456,20,-51.53,1575420000,1
Agc,1713958355415,940637344000000,18,0.0,-1397052936071309027,-0.4631977081298828,32.94175985502079,50.92428628438774,19.401843701364456,20,-53.71,1602000000,3
Agc,1713958355415,940637344000000,18,0.0,-1397052936071309027,-0.4631977081298828,32.94175985502079,50.92428628438774,19.401843701364456,20,-59.4,1561098000,5
Agc,1713958355415,940637344000000,18,0.0,-1397052936071309027,-0.4631977081298828,32.94175985502079,50.92428628438774,19.401843701364456,20,-54.65,1575420000,6
Agc,1713958355415,940637344000000,18,0.0,-1397052936071309027,-0.4631977081298828,32.94175985502079,50.92428628438774,19.401843701364456,20,-54.65,1575420000,5
Fix,GPS,33.8182639500,35.4907955500,188.7091064453125,0.0,3.7900925,,1713958356000,1.0081352,,1103505859054214,2.5,0,,,
Fix,FLP,33.8182639000,35.4907958000,209.08879065960278,0.1156232,3.943,220.83801,1713958355794,1.0081352,45.0,1103505859054214,6.0305715,0,,,
Fix,NLP,32.7867353000,35.0155816000,,,800.0,,1713958354066,,,1103504131000000,,0,,,
Status,1713958356000,18,0,1,5,1575420030,41.50,39.547237,14.015289,1,1,1,36.5
Status,1713958356000,18,1,1,10,1575420030,41.10,195.48857,23.98961,1,0,1,36.1
Status,1713958356000,18,2,1,13,1575420030,42.00,65.20973,1.7394788,0,1,1,37.0
Status,1713958356000,18,3,1,15,1575420030,41.30,93.27423,17.965208,1,1,1,36.3
Status,1713958356000,18,4,1,18,1575420030,42.30,357.1045,67.05225,1,1,1,37.3
Status,1713958356000,18,5,1,23,1575420030,42.10,173.7478,55.597397,1,1,1,37.1
Status,1713958356000,18,6,1,25,1575420030,41.30,159.98125,12.338493,1,1,1,36.3
Status,1713958356000,18,7,1,26,1575420030,42.00,278.09686,53.65998,1,1,1,37.0
Status,1713958356000,18,8,1,28,1575420030,41.10,219.21063,3.9415045,0,1,1,36.1
Status,1713958356000,18,9,1,29,1575420030,41.60,86.89479,43.556572,1,1,1,36.6
Status,1713958356000,18,10,1,31,1575420030,41.80,245.79663,11.337911,1,1,1,36.8
Status,1713958356000,18,11,3,22,1600312450,23.80,281.0999,19.163857,0,1,1,18.8
Status,1713958356000,18,12,3,12,1601437440,32.10,324.36966,19.99683,0,1,1,27.1
Status,1713958356000,18,13,3,5,1602562560,41.40,61.341396,28.050823,0,1,1,36.4
Status,1713958356000,18,14,3,20,1603124990,21.10,47.48601,27.530544,0,1,1,16.1
Status,1713958356000,18,15,3,21,1604249980,35.00,335.28818,48.217316,0,1,1,30.0
Status,1713958356000,18,16,5,14,1561097980,37.50,0.0,0.0,0,0,0,32.5
Status,1713958356000,18,17,6,34,1575420030,29.30,42.553886,38.22446,0,1,1,24.3
Raw,1713958356415,940638344000000,18,0.0,-1397052936071308976,-0.4416217803955078,27.511068765306845,48.5706301162932,16.04253525300428,20,5,0.0,16399,300774334563645,8,46.5,649.7708129882812,4.023367404937744,16,0.0,0.0,1575420030,,,,0,0.0,1,-51.86,41.5,0.0,0.0,,,C,1103506271048954
Raw,1713958356415,940638344000000,18,0.0,-1397052936071308976,-0.4416217803955078,27.511068765306845,48.5706301162932,16.04253525300428,20,10,0.0,16399,300774337221889,8,46.1,-639.8275756835938,4.589748382568359,16,0.0,0.0,1575420030,,,,0,0.0,1,-51.86,41.1,0.0,0.0,,,C,1103506271048954
Raw,1713958356415,940638344000000,18,0.0,-1397052936071308976,-0.4416217803955078,27.511068765306845,48.5706301162932,16.04253525300428,20,13,0.0,16399,300774331258621,7,47.0,-181.44129943847656,3.456491470336914,16,0.0,0.0,1575420030,,,,0,0.0,1,-51.86,42.0,0.0,0.0,,,C,1103506271048954
Raw,1713958356415,940638344000000,18,0.0,-1397052936071308976,-0.4416217803955078,27.511068765306845,48.5706301162932,16.04253525300428,20,15,0.0,16399,300774336555637,8,46.3,-294.6695556640625,4.02036714553833,16,0.0,0.0,1575420030,,,,0,0.0,1,-51.86,41.3,0.0,0.0,,,C,1103506271048954
Raw,1713958356415,940638344000000,18,0.0,-1397052936071308976,-0.4416217803955078,27.511068765306845,48.5706301162932,16.04253525300428,20,18,0.0,16399,300774345907346,7,47.3,144.5090789794922,2.8946104049682617,16,0.0,0.0,1575420030,,,,0,0.0,1,-51.86,42.3,0.0,0.0,,,C,1103506271048954
Raw,1713958356415,940638344000000,18,0.0,-1397052936071308976,-0.4416217803955078,27.511068765306845,48.5706301162932,16.04253525300428,20,23,0.0,16399,300774344943820,7,47.1,-409.7941589355469,4.608753681182861,16,0.0,0.0,1575420030,,,,0,0.0,1,-51.86,42.1,0.0,0.0,,,C,1103506271048954
Raw,1713958356415,940638344000000,18,0.0,-1397052936071308976,-0.4416217803955078,27.511068765306845,48.5706301162932,16.04253525300428,20,25,0.0,16399,300774333321302,8,46.3,727.8361206054688,3.453986167907715,16,0.0,0.0,1575420030,,,,0,0.0,1,-51.86,41.3,0.0,0.0,,,C,1103506271048954
Raw,1713958356415,940638344000000,18,0.0,-1397052936071308976,-0.4416217803955078,27.511068765306845,48.5706301162932,16.04253525300428,20,26,0.0,16399,300774344678171,7,47.0,-38.448570251464844,4.037872791290283,16,0.0,0.0,1575420030,,,,0,0.0,1,-51.86,42.0,0.0,0.0,,,C,1103506271048954
Raw,1713958356415,940638344000000,18,0.0,-1397052936071308976,-0.4416217803955078,27.511068765306845,48.5706301162932,16.04253525300428,20,28,0.0,16399,300774330562530,8,46.1,488.565673828125,2.3167243003845215,16,0.0,0.0,1575420030,,,,0,0.0,1,-51.86,41.1,0.0,0.0,,,C,1103506271048954
Raw,1713958356415,940638344000000,18,0.0,-1397052936071308976,-0.4416217803955078,27.511068765306845,48.5706301162932,16.04253525300428,20,29,0.0,16399,300774342357261,8,46.6,315.34515380859375,0.25049999356269836,16,0.0,0.0,1575420030,,,,0,0.0,1,-51.86,41.6,0.0,0.0,,,C,1103506271048954
Raw,1713958356415,940638344000000,18,0.0,-1397052936071308976,-0.4416217803955078,27.511068765306845,48.5706301162932,16.04253525300428,20,31,0.0,16399,300774332367750,8,46.8,458.1886901855469,2.8846051692962646,16,0.0,0.0,1575420030,,,,0,0.0,1,-51.86,41.8,0.0,0.0,,,C,1103506271048954
Raw,1713958356415,940638344000000,18,0.0,-1397052936071308976,-0.4416217803955078,27.511068765306845,48.5706301162932,16.04253525300428,20,22,0.0,49359,52356340024515,61,27.8,-355.8591003417969,1.686500072479248,16,0.0,0.0,1600312450,,,,0,0.0,3,-53.8,23.8,0.0,20000.0,,,C,1103506271048954
Raw,1713958356415,940638344000000,18,0.0,-1397052936071308976,-0.4416217803955078,27.511068765306845,48.5706301162932,16.04253525300428,20,12,0.0,49359,52356339840458,19,36.1,-506.1327819824219,0.07029100507497787,16,0.0,0.0,1601437440,,,,0,0.0,3,-53.8,32.1,0.0,20000.0,,,C,1103506271048954
Raw,1713958356415,940638344000000,18,0.0,-1397052936071308976,-0.4416217803955078,27.511068765306845,48.5706301162932,16.04253525300428,20,5,0.0,49359,52356342322478,8,45.4,30.68307113647461,0.6063327193260193,16,0.0,0.0,1602562560,,,,0,0.0,3,-53.8,41.4,0.0,20000.0,,,C,1103506271048954
Raw,1713958356415,940638344000000,18,0.0,-1397052936071308976,-0.4416217803955078,27.511068765306845,48.5706301162932,16.04253525300428,20,21,0.0,49359,52356347193894,14,39.0,-23.667848587036133,0.04232500493526459,16,0.0,0.0,1604249980,,,,0,0.0,3,-53.8,35.0,0.0,20000.0,,,C,1103506271048954
Raw,1713958356415,940638344000000,18,0.0,-1397052936071308976,-0.4416217803955078,27.511068765306845,48.5706301162932,16.04253525300428,20,14,0.0,1,345970,12,41.8,78.88021850585938,50.19350051879883,16,0.0,0.0,1561097980,,,,0,0.0,5,-59.4,37.5,0.0,20000.0,,,I,1103506271048954
Raw,1713958356415,940638344000000,18,0.0,-1397052936071308976,-0.4416217803955078,27.511068765306845,48.5706301162932,16.04253525300428,20,34,0.0,23567,300774330967119,27,33.6,349.252197265625,0.8046301007270813,16,0.0,0.0,1575420030,,,,0,0.0,6,-54.85,29.3,0.0,20000.0,,,C,1103506271048954
Agc,1713958356415,940638344000000,18,0.0,-1397052936071308976,-0.4416217803955078,27.511068765306845,48.5706301162932,16.04253525300428,20,-51.86,1575420000,1
Agc,1713958356415,940638344000000,18,0.0,-1397052936071308976,-0.4416217803955078,27.511068765306845,48.5706301162932,16.04253525300428,20,-53.8,1602000000,3
Agc,1713958356415,940638344000000,18,0.0,-1397052936071308976,-0.4416217803955078,27.511068765306845,48.5706301162932,16.04253525300428,20,-59.4,1561098000,5
Agc,1713958356415,940638344000000,18,0.0,-1397052936071308976,-0.4416217803955078,27.511068765306845,48.5706301162932,16.04253525300428,20,-54.85,1575420000,6
Agc,1713958356415,940638344000000,18,0.0,-1397052936071308976,-0.4416217803955078,27.511068765306845,48.5706301162932,16.04253525300428,20,-54.85,1575420000,5
Fix,GPS,33.8182611400,35.4907951900,189.2034912109375,0.0,3.7900925,,1713958357000,0.1457447,,1103506856049422,2.5,0,,,
Fix,FLP,33.8182616000,35.4907951000,208.628671033597,0.12494073,3.852,216.72359,1713958356791,0.1457447,45.0,1103506856049422,6.1793814,0,,,
Status,1713958357000,18,0,1,5,1575420030,44.20,39.547237,14.015289,1,1,1,39.2
Status,1713958357000,18,1,1,10,1575420030,43.40,195.48857,23.98961,1,0,1,38.4
Status,1713958357000,18,2,1,13,1575420030,43.70,65.20973,1.7394788,0,1,1,38.7
Status,1713958357000,18,3,1,15,1575420030,43.70,93.27423,17.965208,1,1,1,38.7
Status,1713958357000,18,4,1,18,1575420030,43.70,357.1045,67.05225,1,1,1,38.7
Status,1713958357000,18,5,1,23,1575420030,43.30,173.7478,55.597397,1,1,1,38.3
Status,1713958357000,18,6,1,25,1575420030,43.20,159.98125,12.338493,1,1,1,38.2
Status,1713958357000,18,7,1,26,1575420030,43.90,278.09686,53.65998,1,1,1,38.9
Status,1713958357000,18,8,1,28,1575420030,43.20,219.21063,3.9415045,0,1,1,38.2
Status,1713958357000,18,9,1,29,1575420030,43.20,86.89479,43.556572,1,1,1,38.2
Status,1713958357000,18,10,1,31,1575420030,43.50,245.79663,11.337911,1,1,1,38.5
Status,1713958357000,18,11,3,22,1600312450,28.30,281.0999,19.163857,0,1,1,23.3
Status,1713958357000,18,12,3,12,1601437440,33.90,324.36966,19.99683,0,1,1,28.9
Status,1713958357000,18,13,3,5,1602562560,40.00,61.341396,28.050823,0,1,1,35.0
Status,1713958357000,18,14,3,20,1603124990,21.10,47.48601,27.530544,0,1,1,16.1
Status,1713958357000,18,15,3,21,1604249980,37.30,335.28818,48.217316,0,1,1,32.3
Status,1713958357000,18,16,5,14,1561097980,37.50,0.0,0.0,0,0,0,32.5
Status,1713958357000,18,17,6,34,1575420030,31.70,42.553886,38.22446,0,1,1,26.7
Fix,GPS,33.8182662900,35.4907984200,188.4495849609375,0.2,3.7900925,126.0,1713958358000,1.8306845,97.86193,1103507859156089,2.5,0,,,
Raw,1713958357415,940639344000000,18,0.0,-1397052936071308923,-0.7809181213378906,30.88507946813479,46.97535178914906,20.137047118777414,20,5,0.0,16399,300775334561515,6,49.2,647.9868774414062,5.734601974487305,16,0.0,0.0,1575420030,,,,0,0.0,1,-52.47,44.2,0.0,0.0,,,C,1103507274155360
Raw,1713958357415,940639344000000,18,0.0,-1397052936071308923,-0.7809181213378906,30.88507946813479,46.97535178914906,20.137047118777414,20,10,0.0,16399,300775337224016,6,48.4,-641.3899536132812,5.730615615844727,16,0.0,0.0,1575420030,,,,0,0.0,1,-52.47,43.4,0.0,0.0,,,C,1103507274155360
Raw,1713958357415,940639344000000,18,0.0,-1397052936071308923,-0.7809181213378906,30.88507946813479,46.97535178914906,20.137047118777414,20,13,0.0,16399,300775331259235,6,48.7,-181.099853515625,2.3143298625946045,16,0.0,0.0,1575420030,,,,0,0.0,1,-52.47,43.7,0.0,0.0,,,C,1103507274155360
Raw,1713958357415,940639344000000,18,0.0,-1397052936071308923,-0.7809181213378906,30.88507946813479,46.97535178914906,20.137047118777414,20,15,0.0,16399,300775336556635,6,48.7,-294.74298095703125,3.448591947555542,16,0.0,0.0,1575420030,,,,0,0.0,1,-52.47,43.7,0.0,0.0,,,C,1103507274155360
Raw,1713958357415,940639344000000,18,0.0,-1397052936071308923,-0.7809181213378906,30.88507946813479,46.97535178914906,20.137047118777414,20,18,0.0,16399,300775345906863,6,48.7,143.87718200683594,4.035973072052002,16,0.0,0.0,1575420030,,,,0,0.0,1,-52.47,43.7,0.0,0.0,,,C,1103507274155360
Raw,1713958357415,940639344000000,18,0.0,-1397052936071308923,-0.7809181213378906,30.88507946813479,46.97535178914906,20.137047118777414,20,23,0.0,16399,300775344945187,6,48.3,-411.2195129394531,6.3209967613220215,16,0.0,0.0,1575420030,,,,0,0.0,1,-52.47,43.3,0.0,0.0,,,C,1103507274155360
Raw,1713958357415,940639344000000,18,0.0,-1397052936071308923,-0.7809181213378906,30.88507946813479,46.97535178914906,20.137047118777414,20,25,0.0,16399,300775333318874,6,48.2,725.7445678710938,3.453091859817505,16,0.0,0.0,1575420030,,,,0,0.0,1,-52.47,43.2,0.0,0.0,,,C,1103507274155360
Raw,1713958357415,940639344000000,18,0.0,-1397052936071308923,-0.7809181213378906,30.88507946813479,46.97535178914906,20.137047118777414,20,26,0.0,16399,300775344678299,6,48.9,-39.20802688598633,5.750115394592285,16,0.0,0.0,1575420030,,,,0,0.0,1,-52.47,43.9,0.0,0.0,,,C,1103507274155360
Raw,1713958357415,940639344000000,18,0.0,-1397052936071308923,-0.7809181213378906,30.88507946813479,46.97535178914906,20.137047118777414,20,28,0.0,16399,300775330560904,6,48.2,488.46722412109375,4.599353790283203,16,0.0,0.0,1575420030,,,,0,0.0,1,-52.47,43.2,0.0,0.0,,,C,1103507274155360
Raw,1713958357415,940639344000000,18,0.0,-1397052936071308923,-0.7809181213378906,30.88507946813479,46.97535178914906,20.137047118777414,20,29,0.0,16399,300775342356216,6,48.2,314.8541564941406,2.8987107276916504,16,0.0,0.0,1575420030,,,,0,0.0,1,-52.47,43.2,0.0,0.0,,,C,1103507274155360
Raw,1713958357415,940639344000000,18,0.0,-1397052936071308923,-0.7809181213378906,30.88507946813479,46.97535178914906,20.137047118777414,20,31,0.0,16399,300775332366237,6,48.5,457.9417724609375,4.596353530883789,16,0.0,0.0,1575420030,,,,0,0.0,1,-52.47,43.5,0.0,0.0,,,C,1103507274155360
Raw,1713958357415,940639344000000,18,0.0,-1397052936071308923,-0.7809181213378906,30.88507946813479,46.97535178914906,20.137047118777414,20,22,0.0,49359,52357340025801,31,32.3,-355.6155700683594,0.6934999823570251,16,0.0,0.0,1600312450,,,,0,0.0,3,-53.91,28.299999999999997,0.0,20000.0,,,C,1103507274155360
Raw,1713958357415,940639344000000,18,0.0,-1397052936071308923,-0.7809181213378906,30.88507946813479,46.97535178914906,20.137047118777414,20,12,0.0,49359,52357339842161,17,37.9,-506.5577697753906,0.06053777411580086,16,0.0,0.0,1601437440,,,,0,0.0,3,-53.91,33.9,0.0,20000.0,,,C,1103507274155360
Raw,1713958357415,940639344000000,18,0.0,-1397052936071308923,-0.7809181213378906,30.88507946813479,46.97535178914906,20.137047118777414,20,5,0.0,49359,52357342322402,9,44.0,30.522228240966797,1.168143391609192,16,0.0,0.0,1602562560,,,,0,0.0,3,-53.91,40.0,0.0,20000.0,,,C,1103507274155360
Raw,1713958357415,940639344000000,18,0.0,-1397052936071308923,-0.7809181213378906,30.88507946813479,46.97535178914906,20.137047118777414,20,21,0.0,49359,52357347193942,12,41.3,-24.13166618347168,0.04036283120512962,16,0.0,0.0,1604249980,,,,0,0.0,3,-53.91,37.3,0.0,20000.0,,,C,1103507274155360
Raw,1713958357415,940639344000000,18,0.0,-1397052936071308923,-0.7809181213378906,30.88507946813479,46.97535178914906,20.137047118777414,20,34,0.0,23567,300775330965965,21,36.0,348.7961120605469,2.341057777404785,16,0.0,0.0,1575420030,,,,0,0.0,6,-55.23,31.7,0.0,20000.0,,,C,1103507274155360
Agc,1713958357415,940639344000000,18,0.0,-1397052936071308923,-0.7809181213378906,30.88507946813479,46.97535178914906,20.137047118777414,20,-52.47,1575420000,1
Agc,1713958357415,940639344000000,18,0.0,-1397052936071308923,-0.7809181213378906,30.88507946813479,46.97535178914906,20.137047118777414,20,-53.91,1602000000,3
Agc,1713958357415,940639344000000,18,0.0,-1397052936071308923,-0.7809181213378906,30.88507946813479,46.97535178914906,20.137047118777414,20,-59.33,1561098000,5
Agc,1713958357415,940639344000000,18,0.0,-1397052936071308923,-0.7809181213378906,30.88507946813479,46.97535178914906,20.137047118777414,20,-55.23,1575420000,6
Agc,1713958357415,940639344000000,18,0.0,-1397052936071308923,-0.7809181213378906,30.88507946813479,46.97535178914906,20.137047118777414,20,-55.23,1575420000,5
Fix,FLP,33.8182648000,35.4907977000,189.13980741142484,0.11683505,3.856,147.8923,1713958357794,1.8306845,97.86193,1103507859156089,2.3721128,0,,,
Status,1713958358000,19,0,1,5,1575420030,46.20,39.547237,14.015289,1,1,1,41.2
Status,1713958358000,19,1,1,10,1575420030,45.60,195.48857,23.98961,1,0,1,40.6
Status,1713958358000,19,2,1,13,1575420030,46.80,65.20973,1.7394788,0,1,1,41.8
Status,1713958358000,19,3,1,15,1575420030,46.50,93.27423,17.965208,1,1,1,41.5
Status,1713958358000,19,4,1,18,1575420030,45.60,357.1045,67.05225,1,1,1,40.6
Status,1713958358000,19,5,1,23,1575420030,45.90,173.7478,55.597397,1,1,1,40.9
Status,1713958358000,19,6,1,25,1575420030,45.50,159.98125,12.338493,1,1,1,40.5
Status,1713958358000,19,7,1,26,1575420030,46.90,278.09686,53.65998,1,1,1,41.9
Status,1713958358000,19,8,1,27,1575420030,44.90,0.0,0.0,0,1,1,39.9
Status,1713958358000,19,9,1,28,1575420030,45.80,219.21063,3.9415045,0,1,1,40.8
Status,1713958358000,19,10,1,29,1575420030,46.00,86.89479,43.556572,1,1,1,41.0
Status,1713958358000,19,11,1,31,1575420030,46.20,245.79663,11.337911,1,1,1,41.2
Status,1713958358000,19,12,3,22,1600312450,28.30,281.0999,19.163857,0,1,1,23.3
Status,1713958358000,19,13,3,12,1601437440,25.70,324.36966,19.99683,0,1,1,20.7
Status,1713958358000,19,14,3,5,1602562560,41.60,61.341396,28.050823,0,1,1,36.6
Status,1713958358000,19,15,3,20,1603124990,21.10,47.48601,27.530544,0,1,1,16.1
Status,1713958358000,19,16,3,21,1604249980,33.30,335.28818,48.217316,0,1,1,28.3
Status,1713958358000,19,17,5,14,1561097980,37.50,0.0,0.0,0,0,0,32.5
Status,1713958358000,19,18,6,34,1575420030,28.30,42.553886,38.22446,0,1,1,23.3
Raw,1713958358415,940640344000000,18,0.0,-1397052936071308887,-0.8095149993896484,30.346920539159328,42.9897581234443,19.669292772673444,20,5,0.0,16399,300776334559347,5,51.2,649.7957763671875,0.16249999403953552,16,0.0,0.0,1575420030,,,,0,0.0,1,-52.62,46.2,0.0,0.0,,,C,1103508278720671
Raw,1713958358415,940640344000000,18,0.0,-1397052936071308887,-0.8095149993896484,30.346920539159328,42.9897581234443,19.669292772673444,20,10,0.0,16399,300776337226167,5,50.6,-639.8244018554688,0.17800000309944153,16,0.0,0.0,1575420030,,,,0,0.0,1,-52.62,45.6,0.0,0.0,,,C,1103508278720671
Raw,1713958358415,940640344000000,18,0.0,-1397052936071308887,-0.8095149993896484,30.346920539159328,42.9897581234443,19.669292772673444,20,13,0.0,16399,300776331259851,5,51.8,-181.12374877929688,0.029702171683311462,16,0.0,0.0,1575420030,,,,0,0.0,1,-52.62,46.8,0.0,0.0,,,C,1103508278720671
Raw,1713958358415,940640344000000,18,0.0,-1397052936071308887,-0.8095149993896484,30.346920539159328,42.9897581234443,19.669292772673444,20,15,0.0,16399,300776336557629,5,51.5,-294.3628234863281,0.02220217138528824,16,0.0,0.0,1575420030,,,,0,0.0,1,-52.62,46.5,0.0,0.0,,,C,1103508278720671
Raw,1713958358415,940640344000000,18,0.0,-1397052936071308887,-0.8095149993896484,30.346920539159328,42.9897581234443,19.669292772673444,20,18,0.0,16399,300776345906395,5,50.6,144.64486694335938,0.03900664299726486,16,0.0,0.0,1575420030,,,,0,0.0,1,-52.62,45.6,0.0,0.0,,,C,1103508278720671
Raw,1713958358415,940640344000000,18,0.0,-1397052936071308887,-0.8095149993896484,30.346920539159328,42.9897581234443,19.669292772673444,20,23,0.0,16399,300776344946567,5,50.9,-409.6451721191406,0.19749999046325684,16,0.0,0.0,1575420030,,,,0,0.0,1,-52.62,45.9,0.0,0.0,,,C,1103508278720671
Raw,1713958358415,940640344000000,18,0.0,-1397052936071308887,-0.8095149993896484,30.346920539159328,42.9897581234443,19.669292772673444,20,25,0.0,16399,300776333316455,5,50.5,727.7971801757812,0.18400000035762787,16,0.0,0.0,1575420030,,,,0,0.0,1,-52.62,45.5,0.0,0.0,,,C,1103508278720671
Raw,1713958358415,940640344000000,18,0.0,-1397052936071308887,-0.8095149993896484,30.346920539159328,42.9897581234443,19.669292772673444,20,26,0.0,16399,300776344678453,5,51.9,-38.286643981933594,0.040202170610427856,16,0.0,0.0,1575420030,,,,0,0.0,1,-52.62,46.9,0.0,0.0,,,C,1103508278720671
Raw,1713958358415,940640344000000,18,0.0,-1397052936071308887,-0.8095149993896484,30.346920539159328,42.9897581234443,19.669292772673444,20,27,0.0,1,175969,6,49.9,-564.7821044921875,0.7430000901222229,16,0.0,0.0,1575420030,,,,0,0.0,1,-52.62,44.9,0.0,0.0,,,C,1103508278720671
Raw,1713958358415,940640344000000,18,0.0,-1397052936071308887,-0.8095149993896484,30.346920539159328,42.9897581234443,19.669292772673444,20,28,0.0,16399,300776330559294,5,50.8,488.5372314453125,0.03150664269924164,16,0.0,0.0,1575420030,,,,0,0.0,1,-52.62,45.8,0.0,0.0,,,C,1103508278720671
Raw,1713958358415,940640344000000,18,0.0,-1397052936071308887,-0.8095149993896484,30.346920539159328,42.9897581234443,19.669292772673444,20,29,0.0,16399,300776342355182,5,51.0,315.4192810058594,0.04320216923952103,16,0.0,0.0,1575420030,,,,0,0.0,1,-52.62,46.0,0.0,0.0,,,C,1103508278720671
Raw,1713958358415,940640344000000,18,0.0,-1397052936071308887,-0.8095149993896484,30.346920539159328,42.9897581234443,19.669292772673444,20,31,0.0,16399,300776332364713,5,51.2,458.2517395019531,0.028202172368764877,16,0.0,0.0,1575420030,,,,0,0.0,1,-52.62,46.2,0.0,0.0,,,C,1103508278720671
Raw,1713958358415,940640344000000,18,0.0,-1397052936071308887,-0.8095149993896484,30.346920539159328,42.9897581234443,19.669292772673444,20,12,0.0,49359,52358339843773,46,29.7,-506.44720458984375,0.875,16,0.0,0.0,1601437440,,,,0,0.0,3,-53.76,25.7,0.0,20000.0,,,C,1103508278720671
Raw,1713958358415,940640344000000,18,0.0,-1397052936071308887,-0.8095149993896484,30.346920539159328,42.9897581234443,19.669292772673444,20,5,0.0,49359,52358342322293,8,45.6,31.020830154418945,0.04512064531445503,16,0.0,0.0,1602562560,,,,0,0.0,3,-53.76,41.6,0.0,20000.0,,,C,1103508278720671
Raw,1713958358415,940640344000000,18,0.0,-1397052936071308887,-0.8095149993896484,30.346920539159328,42.9897581234443,19.669292772673444,20,21,0.0,49359,52358347194039,17,37.3,-24.07265281677246,0.6091322302818298,16,0.0,0.0,1604249980,,,,0,0.0,3,-53.76,33.3,0.0,20000.0,,,C,1103508278720671
Raw,1713958358415,940640344000000,18,0.0,-1397052936071308887,-0.8095149993896484,30.346920539159328,42.9897581234443,19.669292772673444,20,34,0.0,23567,300776330964802,31,32.6,349.2394714355469,1.5706745386123657,16,0.0,0.0,1575420030,,,,0,0.0,6,-55.35,28.3,0.0,20000.0,,,C,1103508278720671
Agc,1713958358415,940640344000000,18,0.0,-1397052936071308887,-0.8095149993896484,30.346920539159328,42.9897581234443,19.669292772673444,20,-52.62,1575420000,1
Agc,1713958358415,940640344000000,18,0.0,-1397052936071308887,-0.8095149993896484,30.346920539159328,42.9897581234443,19.669292772673444,20,-53.76,1602000000,3
Agc,1713958358415,940640344000000,18,0.0,-1397052936071308887,-0.8095149993896484,30.346920539159328,42.9897581234443,19.669292772673444,20,-60.05,1561098000,5
Agc,1713958358415,940640344000000,18,0.0,-1397052936071308887,-0.8095149993896484,30.346920539159328,42.9897581234443,19.669292772673444,20,-55.35,1575420000,6
Agc,1713958358415,940640344000000,18,0.0,-1397052936071308887,-0.8095149993896484,30.346920539159328,42.9897581234443,19.669292772673444,20,-55.35,1575420000,5
Fix,GPS,33.8182688800,35.4907963500,188.759033203125,0.0,3.7900925,,1713958359000,0.070789665,,1103508863721453,2.5,0,,,
Fix,FLP,33.8182675000,35.4907968000,190.33634033419622,0.10035438,3.878,146.62122,1713958358798,0.070789665,45.0,1103508863721453,2.4428527,0,,,
Fix,NLP,32.7867353000,35.0155816000,,,800.0,,1713958359094,,,1103509160000000,,0,,,
Fix,FLP,33.8182677000,35.4907968000,190.33634033419622,0.097855695,4.869,,1713958359094,1.5,,1103509160000000,2.4428527,0,,,
Status,1713958359000,19,0,1,5,1575420030,48.40,39.547237,14.015289,1,1,1,43.4
Status,1713958359000,19,1,1,10,1575420030,47.90,195.48857,23.98961,1,0,1,42.9
Status,1713958359000,19,2,1,13,1575420030,49.10,65.20973,1.7394788,0,1,1,44.1
Status,1713958359000,19,3,1,15,1575420030,48.30,93.27423,17.965208,1,1,1,43.3
Status,1713958359000,19,4,1,18,1575420030,47.90,357.1045,67.05225,1,1,1,42.9
Status,1713958359000,19,5,1,23,1575420030,48.50,173.7478,55.597397,1,1,1,43.5
Status,1713958359000,19,6,1,25,1575420030,48.30,159.98125,12.338493,1,1,1,43.3
Status,1713958359000,19,7,1,26,1575420030,48.60,278.09686,53.65998,1,1,1,43.6
Status,1713958359000,19,8,1,27,1575420030,48.80,0.0,0.0,0,1,1,43.8
Status,1713958359000,19,9,1,28,1575420030,48.30,219.21063,3.9415045,0,1,1,43.3
Status,1713958359000,19,10,1,29,1575420030,48.30,86.89479,43.556572,1,1,1,43.3
Status,1713958359000,19,11,1,31,1575420030,49.00,245.79663,11.337911,1,1,1,44.0
Status,1713958359000,19,12,3,22,1600312450,19.90,281.0999,19.163857,0,1,1,14.9
Status,1713958359000,19,13,3,12,1601437440,27.90,324.36966,19.99683,0,1,1,22.9
Status,1713958359000,19,14,3,5,1602562560,36.60,61.341396,28.050823,0,1,1,31.6
Status,1713958359000,19,15,3,20,1603124990,21.10,47.48601,27.530544,0,1,1,16.1
Status,1713958359000,19,16,3,21,1604249980,30.20,335.28818,48.217316,0,1,1,25.2
Status,1713958359000,19,17,5,14,1561097980,31.40,0.0,0.0,0,0,0,26.4
Status,1713958359000,19,18,6,34,1575420030,23.60,42.553886,38.22446,0,1,1,18.6
Raw,1713958359415,940641344000000,18,0.0,-1397052936071308850,-0.765228271484375,19.05011959024705,44.500905499415566,9.703569333728078,20,5,0.0,16399,300777334557183,4,53.4,650.0186157226562,0.024593230336904526,16,0.0,0.0,1575420030,,,,0,0.0,1,-55.82,48.4,0.0,0.0,,,C,1103509275492182
Raw,1713958359415,940641344000000,18,0.0,-1397052936071308850,-0.765228271484375,19.05011959024705,44.500905499415566,9.703569333728078,20,10,0.0,16399,300777337228306,4,52.9,-639.4973754882812,0.020302554592490196,16,0.0,0.0,1575420030,,,,0,0.0,1,-55.82,47.9,0.0,0.0,,,C,1103509275492182
Raw,1713958359415,940641344000000,18,0.0,-1397052936071308850,-0.765228271484375,19.05011959024705,44.500905499415566,9.703569333728078,20,13,0.0,16399,300777331260458,4,54.1,-180.85899353027344,0.028902936726808548,16,0.0,0.0,1575420030,,,,0,0.0,1,-55.82,49.1,0.0,0.0,,,C,1103509275492182
Raw,1713958359415,940641344000000,18,0.0,-1397052936071308850,-0.765228271484375,19.05011959024705,44.500905499415566,9.703569333728078,20,15,0.0,16399,300777336558609,4,53.3,-294.1039733886719,0.021593231707811356,16,0.0,0.0,1575420030,,,,0,0.0,1,-55.82,48.3,0.0,0.0,,,C,1103509275492182
Raw,1713958359415,940641344000000,18,0.0,-1397052936071308850,-0.765228271484375,19.05011959024705,44.500905499415566,9.703569333728078,20,18,0.0,16399,300777345905918,4,52.9,144.87005615234375,0.03830255568027496,16,0.0,0.0,1575420030,,,,0,0.0,1,-55.82,47.9,0.0,0.0,,,C,1103509275492182
Raw,1713958359415,940641344000000,18,0.0,-1397052936071308850,-0.765228271484375,19.05011959024705,44.500905499415566,9.703569333728078,20,23,0.0,16399,300777344947939,4,53.5,-409.3008117675781,0.039593230932950974,16,0.0,0.0,1575420030,,,,0,0.0,1,-55.82,48.5,0.0,0.0,,,C,1103509275492182
Raw,1713958359415,940641344000000,18,0.0,-1397052936071308850,-0.765228271484375,19.05011959024705,44.500905499415566,9.703569333728078,20,25,0.0,16399,300777333314037,4,53.3,727.9478149414062,0.02609322965145111,16,0.0,0.0,1575420030,,,,0,0.0,1,-55.82,48.3,0.0,0.0,,,C,1103509275492182
Raw,1713958359415,940641344000000,18,0.0,-1397052936071308850,-0.765228271484375,19.05011959024705,44.500905499415566,9.703569333728078,20,26,0.0,16399,300777344678575,4,53.6,-37.991905212402344,0.039593230932950974,16,0.0,0.0,1575420030,,,,0,0.0,1,-55.82,48.6,0.0,0.0,,,C,1103509275492182
Raw,1713958359415,940641344000000,18,0.0,-1397052936071308850,-0.765228271484375,19.05011959024705,44.500905499415566,9.703569333728078,20,27,0.0,35,13177858,4,53.8,-563.6593627929688,0.4440000057220459,16,0.0,0.0,1575420030,,,,0,0.0,1,-55.82,48.8,0.0,0.0,,,C,1103509275492182
Raw,1713958359415,940641344000000,18,0.0,-1397052936071308850,-0.765228271484375,19.05011959024705,44.500905499415566,9.703569333728078,20,28,0.0,16399,300777330557665,4,53.3,488.68182373046875,0.030593231320381165,16,0.0,0.0,1575420030,,,,0,0.0,1,-55.82,48.3,0.0,0.0,,,C,1103509275492182
Raw,1713958359415,940641344000000,18,0.0,-1397052936071308850,-0.765228271484375,19.05011959024705,44.500905499415566,9.703569333728078,20,29,0.0,16399,300777342354126,4,53.3,315.6496276855469,0.042593229562044144,16,0.0,0.0,1575420030,,,,0,0.0,1,-55.82,48.3,0.0,0.0,,,C,1103509275492182
Raw,1713958359415,940641344000000,18,0.0,-1397052936071308850,-0.765228271484375,19.05011959024705,44.500905499415566,9.703569333728078,20,31,0.0,16399,300777332363192,4,54.0,458.443603515625,0.027402937412261963,16,0.0,0.0,1575420030,,,,0,0.0,1,-55.82,49.0,0.0,0.0,,,C,1103509275492182
Raw,1713958359415,940641344000000,18,0.0,-1397052936071308850,-0.765228271484375,19.05011959024705,44.500905499415566,9.703569333728078,20,22,0.0,49359,52359340028066,106,23.9,-356.3087158203125,2.0465002059936523,16,0.0,0.0,1600312450,,,,0,0.0,3,-54.85,19.9,0.0,20000.0,,,C,1103509275492182
Raw,1713958359415,940641344000000,18,0.0,-1397052936071308850,-0.765228271484375,19.05011959024705,44.500905499415566,9.703569333728078,20,12,0.0,49359,52359339845589,35,31.9,-505.95111083984375,0.7549999952316284,16,0.0,0.0,1601437440,,,,0,0.0,3,-54.85,27.9,0.0,20000.0,,,C,1103509275492182
Raw,1713958359415,940641344000000,18,0.0,-1397052936071308850,-0.765228271484375,19.05011959024705,44.500905499415566,9.703569333728078,20,5,0.0,49359,52359342322177,13,40.6,31.430774688720703,1.7323859930038452,16,0.0,0.0,1602562560,,,,0,0.0,3,-54.85,36.6,0.0,20000.0,,,C,1103509275492182
Raw,1713958359415,940641344000000,18,0.0,-1397052936071308850,-0.765228271484375,19.05011959024705,44.500905499415566,9.703569333728078,20,21,0.0,49359,52359347194153,24,34.2,-23.994609832763672,0.5929999947547913,16,0.0,0.0,1604249980,,,,0,0.0,3,-54.85,30.200000000000003,0.0,20000.0,,,C,1103509275492182
Raw,1713958359415,940641344000000,18,0.0,-1397052936071308850,-0.765228271484375,19.05011959024705,44.500905499415566,9.703569333728078,20,14,0.0,35,16345458,21,35.7,53.6044807434082,4.702943325042725,16,0.0,0.0,1561097980,,,,0,0.0,5,-61.5,31.400000000000002,0.0,20000.0,,,I,1103509275492182
Raw,1713958359415,940641344000000,18,0.0,-1397052936071308850,-0.765228271484375,19.05011959024705,44.500905499415566,9.703569333728078,20,34,0.0,23567,300777330963632,61,27.9,349.52191162109375,1.0084999799728394,16,0.0,0.0,1575420030,,,,0,0.0,6,-57.71,23.599999999999998,0.0,20000.0,,,C,1103509275492182
Agc,1713958359415,940641344000000,18,0.0,-1397052936071308850,-0.765228271484375,19.05011959024705,44.500905499415566,9.703569333728078,20,-55.82,1575420000,1
Agc,1713958359415,940641344000000,18,0.0,-1397052936071308850,-0.765228271484375,19.05011959024705,44.500905499415566,9.703569333728078,20,-54.85,1602000000,3
Agc,1713958359415,940641344000000,18,0.0,-1397052936071308850,-0.765228271484375,19.05011959024705,44.500905499415566,9.703569333728078,20,-61.5,1561098000,5
Agc,1713958359415,940641344000000,18,0.0,-1397052936071308850,-0.765228271484375,19.05011959024705,44.500905499415566,9.703569333728078,20,-57.71,1575420000,6
Agc,1713958359415,940641344000000,18,0.0,-1397052936071308850,-0.765228271484375,19.05011959024705,44.500905499415566,9.703569333728078,20,-57.71,1575420000,5
Fix,GPS,33.8182679100,35.4907946800,188.763671875,0.0,3.7900925,,1713958360000,0.07065074,,1103509860493067,2.5,0,,,
Fix,FLP,33.8182677000,35.4907954000,190.57270309632298,0.08826876,4.85,,1713958359795,0.07065074,,1103509860493067,2.5552878,0,,,
Status,1713958360000,19,0,1,5,1575420030,48.30,39.547237,14.015289,1,1,1,43.3
Status,1713958360000,19,1,1,10,1575420030,47.10,195.48857,23.98961,1,0,1,42.1
Status,1713958360000,19,2,1,13,1575420030,47.60,65.20973,1.7394788,0,1,1,42.6
Status,1713958360000,19,3,1,15,1575420030,47.30,93.27423,17.965208,1,1,1,42.3
Status,1713958360000,19,4,1,18,1575420030,47.60,357.1045,67.05225,1,1,1,42.6
Status,1713958360000,19,5,1,23,1575420030,48.00,173.7478,55.597397,1,1,1,43.0
Status,1713958360000,19,6,1,25,1575420030,46.90,159.98125,12.338493,1,1,1,41.9
Status,1713958360000,19,7,1,26,1575420030,47.80,278.09686,53.65998,1,1,1,42.8
Status,1713958360000,19,8,1,27,1575420030,48.50,0.0,0.0,0,1,1,43.5
Status,1713958360000,19,9,1,28,1575420030,47.40,219.21063,3.9415045,0,1,1,42.4
Status,1713958360000,19,10,1,29,1575420030,47.40,86.89479,43.556572,1,1,1,42.4
Status,1713958360000,19,11,1,31,1575420030,47.60,245.79663,11.337911,1,1,1,42.6
Status,1713958360000,19,12,3,22,1600312450,25.30,281.0999,19.163857,0,1,1,20.3
Status,1713958360000,19,13,3,12,1601437440,24.10,324.36966,19.99683,0,1,1,19.1
Status,1713958360000,19,14,3,5,1602562560,35.90,61.341396,28.050823,0,1,1,30.9
Status,1713958360000,19,15,3,20,1603124990,21.10,47.48601,27.530544,0,1,1,16.1
Status,1713958360000,19,16,3,21,1604249980,33.60,335.28818,48.217316,0,1,1,28.6
Status,1713958360000,19,17,5,14,1561097980,29.20,0.0,0.0,0,0,0,24.2
Status,1713958360000,19,18,6,34,1575420030,25.70,42.553886,38.22446,0,1,1,20.7
Raw,1713958360415,940642344000000,18,0.0,-1397052936071308810,-0.23406982421875,17.13978053885512,45.04496843465006,9.487718744695414,20,5,0.0,16399,300778334555020,4,53.3,649.77392578125,0.024593230336904526,16,0.0,0.0,1575420030,,,,0,0.0,1,-54.93,48.3,0.0,0.0,,,C,1103510274157025
Raw,1713958360415,940642344000000,18,0.0,-1397052936071308810,-0.23406982421875,17.13978053885512,45.04496843465006,9.487718744695414,20,10,0.0,16399,300778337230443,4,52.1,-639.749267578125,0.020302554592490196,16,0.0,0.0,1575420030,,,,0,0.0,1,-54.93,47.1,0.0,0.0,,,C,1103510274157025
Raw,1713958360415,940642344000000,18,0.0,-1397052936071308810,-0.23406982421875,17.13978053885512,45.04496843465006,9.487718744695414,20,13,0.0,16399,300778331261065,4,52.6,-181.0709686279297,0.029302554205060005,16,0.0,0.0,1575420030,,,,0,0.0,1,-54.93,47.6,0.0,0.0,,,C,1103510274157025
Raw,1713958360415,940642344000000,18,0.0,-1397052936071308810,-0.23406982421875,17.13978053885512,45.04496843465006,9.487718744695414,20,15,0.0,16399,300778336559593,4,52.3,-294.31304931640625,0.02180255390703678,16,0.0,0.0,1575420030,,,,0,0.0,1,-54.93,47.3,0.0,0.0,,,C,1103510274157025
Raw,1713958360415,940642344000000,18,0.0,-1397052936071308810,-0.23406982421875,17.13978053885512,45.04496843465006,9.487718744695414,20,18,0.0,16399,300778345905433,4,52.6,144.62640380859375,0.03830255568027496,16,0.0,0.0,1575420030,,,,0,0.0,1,-54.93,47.6,0.0,0.0,,,C,1103510274157025
Raw,1713958360415,940642344000000,18,0.0,-1397052936071308810,-0.23406982421875,17.13978053885512,45.04496843465006,9.487718744695414,20,23,0.0,16399,300778344949304,4,53.0,-409.5086669921875,0.039593230932950974,16,0.0,0.0,1575420030,,,,0,0.0,1,-54.93,48.0,0.0,0.0,,,C,1103510274157025
Raw,1713958360415,940642344000000,18,0.0,-1397052936071308810,-0.23406982421875,17.13978053885512,45.04496843465006,9.487718744695414,20,25,0.0,16399,300778333311612,5,51.9,727.6465454101562,0.026702169328927994,16,0.0,0.0,1575420030,,,,0,0.0,1,-54.93,46.9,0.0,0.0,,,C,1103510274157025
Raw,1713958360415,940642344000000,18,0.0,-1397052936071308810,-0.23406982421875,17.13978053885512,45.04496843465006,9.487718744695414,20,26,0.0,16399,300778344678699,4,52.8,-38.174564361572266,0.03980255499482155,16,0.0,0.0,1575420030,,,,0,0.0,1,-54.93,47.8,0.0,0.0,,,C,1103510274157025
Raw,1713958360415,940642344000000,18,0.0,-1397052936071308810,-0.23406982421875,17.13978053885512,45.04496843465006,9.487718744695414,20,27,0.0,35,13179739,4,53.5,-563.9308471679688,0.02609322965145111,16,0.0,0.0,1575420030,,,,0,0.0,1,-54.93,48.5,0.0,0.0,,,C,1103510274157025
Raw,1713958360415,940642344000000,18,0.0,-1397052936071308810,-0.23406982421875,17.13978053885512,45.04496843465006,9.487718744695414,20,28,0.0,16399,300778330556036,4,52.4,488.3604431152344,0.03080255538225174,16,0.0,0.0,1575420030,,,,0,0.0,1,-54.93,47.4,0.0,0.0,,,C,1103510274157025
Raw,1713958360415,940642344000000,18,0.0,-1397052936071308810,-0.23406982421875,17.13978053885512,45.04496843465006,9.487718744695414,20,29,0.0,16399,300778342353077,4,52.4,315.39990234375,0.04280255362391472,16,0.0,0.0,1575420030,,,,0,0.0,1,-54.93,47.4,0.0,0.0,,,C,1103510274157025
Raw,1713958360415,940642344000000,18,0.0,-1397052936071308810,-0.23406982421875,17.13978053885512,45.04496843465006,9.487718744695414,20,31,0.0,16399,300778332361662,4,52.6,458.169677734375,0.02780255489051342,16,0.0,0.0,1575420030,,,,0,0.0,1,-54.93,47.6,0.0,0.0,,,C,1103510274157025
Raw,1713958360415,940642344000000,18,0.0,-1397052936071308810,-0.23406982421875,17.13978053885512,45.04496843465006,9.487718744695414,20,22,0.0,49359,52360340029509,46,29.3,-356.7957763671875,0.8734999895095825,16,0.0,0.0,1600312450,,,,0,0.0,3,-54.99,25.3,0.0,20000.0,,,C,1103510274157025
Raw,1713958360415,940642344000000,18,0.0,-1397052936071308810,-0.23406982421875,17.13978053885512,45.04496843465006,9.487718744695414,20,12,0.0,49359,52360339847205,53,28.1,-507.1772766113281,0.9449999928474426,16,0.0,0.0,1601437440,,,,0,0.0,3,-54.99,24.1,0.0,20000.0,,,C,1103510274157025
Raw,1713958360415,940642344000000,18,0.0,-1397052936071308810,-0.23406982421875,17.13978053885512,45.04496843465006,9.487718744695414,20,5,0.0,49359,52360342322052,14,39.9,32.08781051635742,2.8558950424194336,16,0.0,0.0,1602562560,,,,0,0.0,3,-54.99,35.9,0.0,20000.0,,,C,1103510274157025
Raw,1713958360415,940642344000000,18,0.0,-1397052936071308810,-0.23406982421875,17.13978053885512,45.04496843465006,9.487718744695414,20,21,0.0,49359,52360347194228,17,37.6,-23.83669662475586,2.290997266769409,16,0.0,0.0,1604249980,,,,0,0.0,3,-54.99,33.6,0.0,20000.0,,,C,1103510274157025
Raw,1713958360415,940642344000000,18,0.0,-1397052936071308810,-0.23406982421875,17.13978053885512,45.04496843465006,9.487718744695414,20,14,0.0,35,16345266,27,33.5,54.020713806152344,0.6195000410079956,16,0.0,0.0,1561097980,,,,0,0.0,5,-60.28,29.2,0.0,20000.0,,,I,1103510274157025
Raw,1713958360415,940642344000000,18,0.0,-1397052936071308810,-0.23406982421875,17.13978053885512,45.04496843465006,9.487718744695414,20,34,0.0,23567,300778330962473,46,30.0,349.71051025390625,0.8372274041175842,16,0.0,0.0,1575420030,,,,0,0.0,6,-57.02,25.7,0.0,20000.0,,,C,1103510274157025
Agc,1713958360415,940642344000000,18,0.0,-1397052936071308810,-0.23406982421875,17.13978053885512,45.04496843465006,9.487718744695414,20,-54.93,1575420000,1
Agc,1713958360415,940642344000000,18,0.0,-1397052936071308810,-0.23406982421875,17.13978053885512,45.04496843465006,9.487718744695414,20,-54.99,1602000000,3
Agc,1713958360415,940642344000000,18,0.0,-1397052936071308810,-0.23406982421875,17.13978053885512,45.04496843465006,9.487718744695414,20,-60.28,1561098000,5
Agc,1713958360415,940642344000000,18,0.0,-1397052936071308810,-0.23406982421875,17.13978053885512,45.04496843465006,9.487718744695414,20,-57.02,1575420000,6
Agc,1713958360415,940642344000000,18,0.0,-1397052936071308810,-0.23406982421875,17.13978053885512,45.04496843465006,9.487718744695414,20,-57.02,1575420000,5
Fix,GPS,33.8182673800,35.4907955000,188.6290283203125,0.0,3.7900925,,1713958361000,0.07065074,,1103510859158066,2.5,0,,,
Fix,FLP,33.8182673000,35.4907956000,192.71610832187648,0.084753364,4.869,,1713958360793,0.07065074,,1103510859158066,2.3619845,0,,,
Status,1713958361000,20,0,1,5,1575420030,42.60,39.547237,14.015289,1,1,1,37.6
Status,1713958361000,20,1,1,10,1575420030,42.10,195.48857,23.98961,1,0,1,37.1
Status,1713958361000,20,2,1,13,1575420030,42.70,65.20973,1.7394788,0,1,1,37.7
Status,1713958361000,20,3,1,15,1575420030,42.60,93.27423,17.965208,1,1,1,37.6
Status,1713958361000,20,4,1,16,1575420030,42.00,0.0,0.0,0,0,1,37.0
Status,1713958361000,20,5,1,18,1575420030,42.70,357.1045,67.05225,1,1,1,37.7
Status,1713958361000,20,6,1,23,1575420030,42.60,173.7478,55.597397,1,1,1,37.6
Status,1713958361000,20,7,1,25,1575420030,42.60,159.98125,12.338493,1,1,1,37.6
Status,1713958361000,20,8,1,26,1575420030,42.60,278.09686,53.65998,1,1,1,37.6
Status,1713958361000,20,9,1,27,1575420030,43.30,0.0,0.0,0,1,1,38.3
Status,1713958361000,20,10,1,28,1575420030,42.40,219.21063,3.9415045,0,1,1,37.4
Status,1713958361000,20,11,1,29,1575420030,42.50,86.89479,43.556572,1,1,1,37.5
Status,1713958361000,20,12,1,31,1575420030,42.40,245.79663,11.337911,1,1,1,37.4
Status,1713958361000,20,13,3,22,1600312450,29.80,281.0999,19.163857,0,1,1,24.8
Status,1713958361000,20,14,3,12,1601437440,25.60,324.36966,19.99683,0,1,1,20.6
Status,1713958361000,20,15,3,5,1602562560,34.60,61.341396,28.050823,0,1,1,29.6
Status,1713958361000,20,16,3,20,1603124990,17.00,47.48601,27.530544,0,1,1,12.0
Status,1713958361000,20,17,3,21,1604249980,33.90,335.28818,48.217316,0,1,1,28.9
Status,1713958361000,20,18,5,14,1561097980,34.60,0.0,0.0,0,0,0,29.6
Status,1713958361000,20,19,6,34,1575420030,25.70,42.553886,38.22446,0,1,1,20.7
Raw,1713958361415,940643344000000,18,0.0,-1397052936071308769,-0.31548118591308594,16.375939594581723,44.074769682225835,9.487680571314158,20,5,0.0,16399,300779334552830,7,47.6,646.660400390625,8.589920997619629,16,0.0,0.0,1575420030,,,,0,0.0,1,-52.42,42.6,0.0,0.0,,,C,1103511280576035
Raw,1713958361415,940643344000000,18,0.0,-1397052936071308769,-0.31548118591308594,16.375939594581723,44.074769682225835,9.487680571314158,20,10,0.0,16399,300779337232570,7,47.1,-640.7896118164062,2.305729389190674,16,0.0,0.0,1575420030,,,,0,0.0,1,-52.42,42.1,0.0,0.0,,,C,1103511280576035
Raw,1713958361415,940643344000000,18,0.0,-1397052936071308769,-0.31548118591308594,16.375939594581723,44.074769682225835,9.487680571314158,20,13,0.0,16399,300779331261658,7,47.7,-184.02154541015625,5.740015506744385,16,0.0,0.0,1575420030,,,,0,0.0,1,-52.42,42.7,0.0,0.0,,,C,1103511280576035
Raw,1713958361415,940643344000000,18,0.0,-1397052936071308769,-0.31548118591308594,16.375939594581723,44.074769682225835,9.487680571314158,20,15,0.0,16399,300779336560568,7,47.6,-296.4299621582031,0.21950000524520874,16,0.0,0.0,1575420030,,,,0,0.0,1,-52.42,42.6,0.0,0.0,,,C,1103511280576035
Raw,1713958361415,940643344000000,18,0.0,-1397052936071308769,-0.31548118591308594,16.375939594581723,44.074769682225835,9.487680571314158,20,16,0.0,1,286092,7,47.0,-490.39630126953125,0.3140000104904175,16,0.0,0.0,1575420030,,,,0,0.0,1,-52.42,42.0,0.0,0.0,,,C,1103511280576035
Raw,1713958361415,940643344000000,18,0.0,-1397052936071308769,-0.31548118591308594,16.375939594581723,44.074769682225835,9.487680571314158,20,18,0.0,16399,300779345904949,7,47.7,143.14840698242188,0.23600000143051147,16,0.0,0.0,1575420030,,,,0,0.0,1,-52.42,42.7,0.0,0.0,,,C,1103511280576035
Raw,1713958361415,940643344000000,18,0.0,-1397052936071308769,-0.31548118591308594,16.375939594581723,44.074769682225835,9.487680571314158,20,23,0.0,16399,300779344950662,7,47.6,-410.1549072265625,4.608753681182861,16,0.0,0.0,1575420030,,,,0,0.0,1,-52.42,42.6,0.0,0.0,,,C,1103511280576035
Raw,1713958361415,940643344000000,18,0.0,-1397052936071308769,-0.31548118591308594,16.375939594581723,44.074769682225835,9.487680571314158,20,25,0.0,16399,300779333309165,7,47.6,725.2758178710938,0.2240000069141388,16,0.0,0.0,1575420030,,,,0,0.0,1,-52.42,42.6,0.0,0.0,,,C,1103511280576035
Raw,1713958361415,940643344000000,18,0.0,-1397052936071308769,-0.31548118591308594,16.375939594581723,44.074769682225835,9.487680571314158,20,26,0.0,16399,300779344678809,7,47.6,-39.57156753540039,0.23750001192092896,16,0.0,0.0,1575420030,,,,0,0.0,1,-52.42,42.6,0.0,0.0,,,C,1103511280576035
Raw,1713958361415,940643344000000,18,0.0,-1397052936071308769,-0.31548118591308594,16.375939594581723,44.074769682225835,9.487680571314158,20,27,0.0,35,13181591,6,48.3,-566.8685302734375,7.449258804321289,16,0.0,0.0,1575420030,,,,0,0.0,1,-52.42,43.3,0.0,0.0,,,C,1103511280576035
Raw,1713958361415,940643344000000,18,0.0,-1397052936071308769,-0.31548118591308594,16.375939594581723,44.074769682225835,9.487680571314158,20,28,0.0,16399,300779330554394,7,47.4,484.2795104980469,5.741515636444092,16,0.0,0.0,1575420030,,,,0,0.0,1,-52.42,42.4,0.0,0.0,,,C,1103511280576035
Raw,1713958361415,940643344000000,18,0.0,-1397052936071308769,-0.31548118591308594,16.375939594581723,44.074769682225835,9.487680571314158,20,29,0.0,16399,300779342352002,7,47.5,313.3470764160156,0.24050000309944153,16,0.0,0.0,1575420030,,,,0,0.0,1,-52.42,42.5,0.0,0.0,,,C,1103511280576035
Raw,1713958361415,940643344000000,18,0.0,-1397052936071308769,-0.31548118591308594,16.375939594581723,44.074769682225835,9.487680571314158,20,31,0.0,16399,300779332360118,7,47.4,454.9234619140625,5.1676344871521,16,0.0,0.0,1575420030,,,,0,0.0,1,-52.42,42.4,0.0,0.0,,,C,1103511280576035
Raw,1713958361415,940643344000000,18,0.0,-1397052936071308769,-0.31548118591308594,16.375939594581723,44.074769682225835,9.487680571314158,20,22,0.0,49359,52361340030568,27,33.8,-357.0018615722656,0.643500030040741,16,0.0,0.0,1600312450,,,,0,0.0,3,-53.67,29.799999999999997,0.0,20000.0,,,C,1103511280576035
Raw,1713958361415,940643344000000,18,0.0,-1397052936071308769,-0.31548118591308594,16.375939594581723,44.074769682225835,9.487680571314158,20,12,0.0,49359,52361339848962,46,29.6,-508.47833251953125,0.875,16,0.0,0.0,1601437440,,,,0,0.0,3,-53.67,25.6,0.0,20000.0,,,C,1103511280576035
Raw,1713958361415,940643344000000,18,0.0,-1397052936071308769,-0.31548118591308594,16.375939594581723,44.074769682225835,9.487680571314158,20,5,0.0,49359,52361342321976,16,38.6,32.78432083129883,0.6158732771873474,16,0.0,0.0,1602562560,,,,0,0.0,3,-53.67,34.6,0.0,20000.0,,,C,1103511280576035
Raw,1713958361415,940643344000000,18,0.0,-1397052936071308769,-0.31548118591308594,16.375939594581723,44.074769682225835,9.487680571314158,20,20,0.0,49359,52361341866970,139,21.0,380.7329406738281,6.788000106811523,16,0.0,0.0,1603124990,,,,0,0.0,3,-53.67,17.0,0.0,20000.0,,,C,1103511280576035
Raw,1713958361415,940643344000000,18,0.0,-1397052936071308769,-0.31548118591308594,16.375939594581723,44.074769682225835,9.487680571314158,20,21,0.0,49359,52361347194242,17,37.9,-24.428375244140625,0.048510532826185226,16,0.0,0.0,1604249980,,,,0,0.0,3,-53.67,33.9,0.0,20000.0,,,C,1103511280576035
Raw,1713958361415,940643344000000,18,0.0,-1397052936071308769,-0.31548118591308594,16.375939594581723,44.074769682225835,9.487680571314158,20,14,0.0,35,16345072,16,38.9,54.66422653198242,1.7623927593231201,16,0.0,0.0,1561097980,,,,0,0.0,5,-59.72,34.6,0.0,20000.0,,,I,1103511280576035
Raw,1713958361415,940643344000000,18,0.0,-1397052936071308769,-0.31548118591308594,16.375939594581723,44.074769682225835,9.487680571314158,20,34,0.0,23567,300779330961302,46,30.0,349.99957275390625,0.07274328172206879,16,0.0,0.0,1575420030,,,,0,0.0,6,-55.23,25.7,0.0,20000.0,,,C,1103511280576035
Agc,1713958361415,940643344000000,18,0.0,-1397052936071308769,-0.31548118591308594,16.375939594581723,44.074769682225835,9.487680571314158,20,-52.42,1575420000,1
Agc,1713958361415,940643344000000,18,0.0,-1397052936071308769,-0.31548118591308594,16.375939594581723,44.074769682225835,9.487680571314158,20,-53.67,1602000000,3
Agc,1713958361415,940643344000000,18,0.0,-1397052936071308769,-0.31548118591308594,16.375939594581723,44.074769682225835,9.487680571314158,20,-59.72,1561098000,5
Agc,1713958361415,940643344000000,18,0.0,-1397052936071308769,-0.31548118591308594,16.375939594581723,44.074769682225835,9.487680571314158,20,-55.23,1575420000,6
Agc,1713958361415,940643344000000,18,0.0,-1397052936071308769,-0.31548118591308594,16.375939594581723,44.074769682225835,9.487680571314158,20,-55.23,1575420000,5
Fix,GPS,33.8182614700,35.4908006300,188.905517578125,0.68,3.7900925,139.4,1713958362000,1.0416588,68.179054,1103511865576556,2.5,0,,,
Fix,FLP,33.8182620000,35.4908004000,193.6800227051553,0.557412,4.869,138.89381,1713958361799,1.0416588,68.179054,1103511865576556,2.4311755,0,,,
Status,1713958362000,20,0,1,5,1575420030,41.10,39.547237,14.015289,1,1,1,36.1
Status,1713958362000,20,1,1,10,1575420030,40.90,195.48857,23.98961,1,0,1,35.9
Status,1713958362000,20,2,1,13,1575420030,40.60,65.20973,1.7394788,0,1,1,35.6
Status,1713958362000,20,3,1,15,1575420030,41.20,93.27423,17.965208,1,1,1,36.2
Status,1713958362000,20,4,1,16,1575420030,43.90,0.0,0.0,0,0,1,38.9
Status,1713958362000,20,5,1,18,1575420030,40.60,357.1045,67.05225,1,1,1,35.6
Status,1713958362000,20,6,1,23,1575420030,40.20,173.7478,55.597397,1,1,1,35.2
Status,1713958362000,20,7,1,25,1575420030,40.70,159.98125,12.338493,1,1,1,35.7
Status,1713958362000,20,8,1,26,1575420030,41.00,278.09686,53.65998,1,1,1,36.0
Status,1713958362000,20,9,1,27,1575420030,40.90,0.0,0.0,0,1,1,35.9
Status,1713958362000,20,10,1,28,1575420030,40.20,219.21063,3.9415045,0,1,1,35.2
Status,1713958362000,20,11,1,29,1575420030,41.20,86.89479,43.556572,1,1,1,36.2
Status,1713958362000,20,12,1,31,1575420030,40.50,245.79663,11.337911,1,1,1,35.5
Status,1713958362000,20,13,3,22,1600312450,23.50,281.0999,19.163857,0,1,1,18.5
Status,1713958362000,20,14,3,12,1601437440,22.20,324.36966,19.99683,0,1,1,17.2
Status,1713958362000,20,15,3,5,1602562560,39.60,61.341396,28.050823,0,1,1,34.6
Status,1713958362000,20,16,3,20,1603124990,17.00,47.48601,27.530544,0,1,1,12.0
Status,1713958362000,20,17,3,21,1604249980,35.70,335.28818,48.217316,0,1,1,30.7
Status,1713958362000,20,18,5,14,1561097980,35.90,0.0,0.0,0,0,0,30.9
Status,1713958362000,20,19,6,34,1575420030,31.30,42.553886,38.22446,0,1,1,26.3
Raw,1713958362415,940644344000000,18,0.0,-1397052936071308724,-0.6716022491455078,21.590789401670918,38.45835509031259,11.712499987112505,20,5,0.0,16399,300780334550634,8,46.1,643.525634765625,0.23249998688697815,16,0.0,0.0,1575420030,,,,0,0.0,1,-52.15,41.1,0.0,0.0,,,C,1103512273955149
Raw,1713958362415,940644344000000,18,0.0,-1397052936071308724,-0.6716022491455078,21.590789401670918,38.45835509031259,11.712499987112505,20,10,0.0,16399,300780337234666,9,45.9,-645.9518432617188,0.24799999594688416,16,0.0,0.0,1575420030,,,,0,0.0,1,-52.15,40.9,0.0,0.0,,,C,1103512273955149
Raw,1713958362415,940644344000000,18,0.0,-1397052936071308724,-0.6716022491455078,21.590789401670918,38.45835509031259,11.712499987112505,20,13,0.0,16399,300780331262210,9,45.6,-187.65811157226562,0.25699999928474426,16,0.0,0.0,1575420030,,,,0,0.0,1,-52.15,40.6,0.0,0.0,,,C,1103512273955149
Raw,1713958362415,940644344000000,18,0.0,-1397052936071308724,-0.6716022491455078,21.590789401670918,38.45835509031259,11.712499987112505,20,15,0.0,16399,300780336561510,8,46.2,-300.2168273925781,0.22949999570846558,16,0.0,0.0,1575420030,,,,0,0.0,1,-52.15,41.2,0.0,0.0,,,C,1103512273955149
Raw,1713958362415,940644344000000,18,0.0,-1397052936071308724,-0.6716022491455078,21.590789401670918,38.45835509031259,11.712499987112505,20,16,0.0,35,19287792,6,48.9,-482.993896484375,0.8400000333786011,16,0.0,0.0,1575420030,,,,0,0.0,1,-52.15,43.9,0.0,0.0,,,C,1103512273955149
Raw,1713958362415,940644344000000,18,0.0,-1397052936071308724,-0.6716022491455078,21.590789401670918,38.45835509031259,11.712499987112505,20,18,0.0,16399,300780345904445,9,45.6,138.14369201660156,0.26600000262260437,16,0.0,0.0,1575420030,,,,0,0.0,1,-52.15,40.6,0.0,0.0,,,C,1103512273955149
Raw,1713958362415,940644344000000,18,0.0,-1397052936071308724,-0.6716022491455078,21.590789401670918,38.45835509031259,11.712499987112505,20,23,0.0,16399,300780344952003,9,45.2,-415.715576171875,0.26750001311302185,16,0.0,0.0,1575420030,,,,0,0.0,1,-52.15,40.2,0.0,0.0,,,C,1103512273955149
Raw,1713958362415,940644344000000,18,0.0,-1397052936071308724,-0.6716022491455078,21.590789401670918,38.45835509031259,11.712499987112505,20,25,0.0,16399,300780333306705,9,45.7,721.2736206054688,10.305167198181152,16,0.0,0.0,1575420030,,,,0,0.0,1,-52.15,40.7,0.0,0.0,,,C,1103512273955149
Raw,1713958362415,940644344000000,18,0.0,-1397052936071308724,-0.6716022491455078,21.590789401670918,38.45835509031259,11.712499987112505,20,26,0.0,16399,300780344678930,8,46.0,-43.87220764160156,0.2475000023841858,16,0.0,0.0,1575420030,,,,0,0.0,1,-52.15,41.0,0.0,0.0,,,C,1103512273955149
Raw,1713958362415,940644344000000,18,0.0,-1397052936071308724,-0.6716022491455078,21.590789401670918,38.45835509031259,11.712499987112505,20,27,0.0,35,13183461,9,45.9,-571.9429931640625,6.309000492095947,16,0.0,0.0,1575420030,,,,0,0.0,1,-52.15,40.9,0.0,0.0,,,C,1103512273955149
Raw,1713958362415,940644344000000,18,0.0,-1397052936071308724,-0.6716022491455078,21.590789401670918,38.45835509031259,11.712499987112505,20,28,0.0,16399,300780330552732,9,45.2,481.3002624511719,0.25850000977516174,16,0.0,0.0,1575420030,,,,0,0.0,1,-52.15,40.2,0.0,0.0,,,C,1103512273955149
Raw,1713958362415,940644344000000,18,0.0,-1397052936071308724,-0.6716022491455078,21.590789401670918,38.45835509031259,11.712499987112505,20,29,0.0,16399,300780342350936,8,46.2,309.9217834472656,0.25049999356269836,16,0.0,0.0,1575420030,,,,0,0.0,1,-52.15,41.2,0.0,0.0,,,C,1103512273955149
Raw,1713958362415,940644344000000,18,0.0,-1397052936071308724,-0.6716022491455078,21.590789401670918,38.45835509031259,11.712499987112505,20,31,0.0,16399,300780332358560,9,45.5,451.02252197265625,8.594024658203125,16,0.0,0.0,1575420030,,,,0,0.0,1,-52.15,40.5,0.0,0.0,,,C,1103512273955149
