# 
# Header Description:
# 
# Version: v3.0.6.4 Platform: 12 Manufacturer: Xiaomi Model: 2207117BPG
# 
# Raw,utcTimeMillis,TimeNanos,LeapSecond,TimeUncertaintyNanos,FullBiasNanos,BiasNanos,BiasUncertaintyNanos,DriftNanosPerSecond,DriftUncertaintyNanosPerSecond,HardwareClockDiscontinuityCount,Svid,TimeOffsetNanos,State,ReceivedSvTimeNanos,ReceivedSvTimeUncertaintyNanos,Cn0DbHz,PseudorangeRateMetersPerSecond,PseudorangeRateUncertaintyMetersPerSecond,AccumulatedDeltaRangeState,AccumulatedDeltaRangeMeters,AccumulatedDeltaRangeUncertaintyMeters,CarrierFrequencyHz,CarrierCycles,CarrierPhase,CarrierPhaseUncertainty,MultipathIndicator,SnrInDb,ConstellationType,AgcDb,BasebandCn0DbHz,FullInterSignalBiasNanos,FullInterSignalBiasUncertaintyNanos,SatelliteInterSignalBiasNanos,SatelliteInterSignalBiasUncertaintyNanos,CodeType,ChipsetElapsedRealtimeNanos
# 
# UncalAccel,utcTimeMillis,elapsedRealtimeNanos,UncalAccelXMps2,UncalAccelYMps2,UncalAccelZMps2,BiasXMps2,BiasYMps2,BiasZMps2
# 
# Accel,utcTimeMillis,elapsedRealtimeNanos,AccelXMps2,AccelYMps2,AccelZMps2
# 
# UncalGyro,utcTimeMillis,elapsedRealtimeNanos,UncalGyroXRadPerSec,UncalGyroYRadPerSec,UncalGyroZRadPerSec,DriftXRadPerSec,DriftYRadPerSec,DriftZRadPerSec
# 
# Gyro,utcTimeMillis,elapsedRealtimeNanos,GyroXRadPerSec,GyroYRadPerSec,GyroZRadPerSec
# 
# UncalMag,utcTimeMillis,elapsedRealtimeNanos,UncalMagXMicroT,UncalMagYMicroT,UncalMagZMicroT,BiasXMicroT,BiasYMicroT,BiasZMicroT
# 
# Mag,utcTimeMillis,elapsedRealtimeNanos,MagXMicroT,MagYMicroT,MagZMicroT
# 
# OrientationDeg,utcTimeMillis,elapsedRealtimeNanos,yawDeg,rollDeg,pitchDeg
# 
# Fix,Provider,LatitudeDegrees,LongitudeDegrees,AltitudeMeters,SpeedMps,AccuracyMeters,BearingDegrees,UnixTimeMillis,SpeedAccuracyMps,BearingAccuracyDegrees,elapsedRealtimeNanos,VerticalAccuracyMeters,MockLocation,NumberOfUsedSignals,VerticalSpeedAccuracyMps,SolutionType
# 
# Nav,Svid,Type,Status,MessageId,Sub-messageId,Data(Bytes)
# 
# Status,UnixTimeMillis,SignalCount,SignalIndex,ConstellationType,Svid,CarrierFrequencyHz,Cn0DbHz,AzimuthDegrees,ElevationDegrees,UsedInFix,HasAlmanacData,HasEphemerisData,BasebandCn0DbHz
# 
# Agc,utcTimeMillis,TimeNanos,LeapSecond,TimeUncertaintyNanos,FullBiasNanos,BiasNanos,BiasUncertaintyNanos,DriftNanosPerSecond,DriftUncertaintyNanosPerSecond,HardwareClockDiscontinuityCount,AgcDb,CarrierFrequencyHz,ConstellationType
# 
Status,,49,0,1,10,1575420030,31.20,337.0,81.0,1,0,0,31.2
Status,,49,1,1,27,1575420030,0.00,308.0,68.0,0,0,0,0.0
Status,,49,2,1,23,1575420030,33.60,38.0,48.0,1,0,0,33.6
Status,,49,3,2,126,1575420030,0.00,134.0,41.0,0,0,0,0.0
Status,,49,4,1,32,1575420030,34.00,153.0,36.0,1,0,0,34.0
Status,,49,5,1,16,1575420030,33.90,236.0,35.0,1,0,0,33.9
Status,,49,6,1,8,1575420030,0.00,316.0,31.0,0,0,0,0.0
Status,,49,7,1,18,1575420030,0.00,78.0,24.0,0,0,0,0.0
Status,,49,8,1,26,1575420030,28.50,203.0,15.0,1,0,0,28.5
Status,,49,9,1,1,1575420030,31.50,193.0,13.0,1,0,0,31.5
Status,,49,10,1,21,1575420030,33.90,290.0,8.0,1,0,0,33.9
Status,,49,11,1,15,1575420030,34.00,35.0,2.0,1,0,0,34.0
Status,,49,12,3,1,1602000000,0.00,120.0,72.0,0,0,0,0.0
Status,,49,13,3,24,1602000000,0.00,8.0,55.0,0,0,0,0.0
Status,,49,14,3,23,1602000000,0.00,89.0,32.0,0,0,0,0.0
Status,,49,15,3,2,1602000000,0.00,186.0,31.0,0,0,0,0.0
Status,,49,16,3,8,1602000000,0.00,34.0,29.0,0,0,0,0.0
Status,,49,17,3,17,1602000000,0.00,316.0,17.0,0,0,0,0.0
Status,,49,18,3,15,1602000000,0.00,298.0,12.0,0,0,0,0.0
Status,,49,19,3,14,1602000000,0.00,248.0,10.0,0,0,0,0.0
Status,,49,20,6,14,1575420030,0.00,276.0,79.0,0,0,0,0.0
Status,,49,21,6,26,1575420030,0.00,18.0,60.0,0,0,0,0.0
Status,,49,22,6,7,1575420030,0.00,99.0,43.0,0,0,0,0.0
Status,,49,23,6,33,1575420030,0.00,302.0,37.0,0,0,0,0.0
Status,,49,24,6,13,1575420030,0.00,77.0,24.0,0,0,0,0.0
Status,,49,25,6,31,1575420030,0.00,297.0,24.0,0,0,0,0.0
Status,,49,26,6,21,1575420030,0.00,189.0,12.0,0,0,0,0.0
Status,,49,27,5,48,1561097980,0.00,114.0,74.0,0,0,0,0.0
Status,,49,28,5,29,1561097980,0.00,75.0,71.0,0,0,0,0.0
Status,,49,29,5,19,1561097980,0.00,186.0,60.0,0,0,0,0.0
Status,,49,30,5,20,1561097980,0.00,60.0,59.0,0,0,0,0.0
Status,,49,31,5,5,1561097980,0.00,141.0,45.0,0,0,0,0.0
Status,,49,32,5,56,1561097980,0.00,49.0,41.0,0,0,0,0.0
Status,,49,33,5,60,1561097980,0.00,118.0,30.0,0,0,0,0.0
Status,,49,34,5,2,1561097980,0.00,114.0,27.0,0,0,0,0.0
Status,,49,35,5,13,1561097980,0.00,45.0,26.0,0,0,0,0.0
Status,,49,36,5,30,1561097980,0.00,116.0,20.0,0,0,0,0.0
Status,,49,37,5,8,1561097980,0.00,47.0,14.0,0,0,0,0.0
Status,,49,38,5,22,1561097980,0.00,208.0,10.0,0,0,0,0.0
Status,,49,39,5,39,1561097980,0.00,89.0,9.0,0,0,0,0.0
Status,,49,40,5,32,1561097980,0.00,38.0,8.0,0,0,0,0.0
Status,,49,41,5,6,1561097980,0.00,102.0,6.0,0,0,0,0.0
Status,,49,42,5,16,1561097980,0.00,95.0,6.0,0,0,0,0.0
Status,,49,43,5,3,1561097980,0.00,97.0,5.0,0,0,0,0.0
Status,,49,44,5,38,1561097980,0.00,54.0,5.0,0,0,0,0.0
Status,,49,45,5,9,1561097980,0.00,112.0,4.0,0,0,0,0.0
Status,,49,46,5,61,1561097980,0.00,98.0,4.0,0,0,0,0.0
Status,,49,47,5,26,1561097980,0.00,274.0,2.0,0,0,0,0.0
Status,,49,48,5,45,1561097980,0.00,225.0,1.0,0,0,0,0.0
Fix,GPS,33.8183266667,35.4908033333,203.70000000000002,0.0,5.9,58.51,1716207199000,5.0,179.9,484378411000000,22.5,0,,,
Fix,FLP,33.8183236000,35.4908054000,30.899999618530273,0.30656445,16.06,304.52866,1716207198964,5.0,179.9,484378411000000,3.26068,0,,,
Raw,1716207199000,34374000000,18,999070.4344203349,-1400242382626999808,0.0,73.93346679770741,-3134.3558412273483,0.0,0,16,0.0,47,130416924967433,58,33.92499923706055,-488.7496466725431,0.14999,16,0.0,0.0,1575420030,,,,0,16.148240317871576,1,6.0,33.92499923706055,0.0,0.0,0.0,66.7128,C,
Raw,1716207199000,34374000000,18,999070.4344203349,-1400242382626999808,0.0,73.93346679770741,-3134.3558412273483,0.0,0,10,0.0,47,130416932366860,74,31.150999069213867,-872.7652981766971,0.14999,16,0.0,0.0,1575420030,,,,0,12.922725521128186,1,6.0,31.150999069213867,0.0,0.0,0.0,66.7128,C,
Raw,1716207199000,34374000000,18,999070.4344203349,-1400242382626999808,0.0,73.93346679770741,-3134.3558412273483,0.0,0,1,0.0,47,130416918559510,74,31.50200080871582,-311.3331318457504,0.14999,16,0.0,0.0,1575420030,,,,0,13.340564299529753,1,6.0,31.50200080871582,0.0,0.0,0.0,66.7128,C,
Raw,1716207199000,34374000000,18,999070.4344203349,-1400242382626999808,0.0,73.93346679770741,-3134.3558412273483,0.0,0,21,0.0,47,130416918815422,58,33.875,-1360.623175550079,0.14999,16,0.0,0.0,1575420030,,,,0,16.086506656168673,1,6.0,33.875,0.0,0.0,0.0,66.7128,C,
Raw,1716207199000,34374000000,18,999070.4344203349,-1400242382626999808,0.0,73.93346679770741,-3134.3558412273483,0.0,0,32,0.0,47,130416925418047,58,33.99399948120117,-1457.1836486377156,0.14999,16,0.0,0.0,1575420030,,,,0,16.221746169572626,1,6.0,33.99399948120117,0.0,0.0,0.0,66.7128,C,
Raw,1716207199000,34374000000,18,999070.4344203349,-1400242382626999808,0.0,73.93346679770741,-3134.3558412273483,0.0,0,23,0.0,47,130416929160748,58,33.61899948120117,-508.4685962241926,0.14999,16,0.0,0.0,1575420030,,,,0,15.796740174176767,1,6.0,33.61899948120117,0.0,0.0,0.0,66.7128,C,
Raw,1716207199000,34374000000,18,999070.4344203349,-1400242382626999808,0.0,73.93346679770741,-3134.3558412273483,0.0,0,26,0.0,47,130416919473951,235,28.45599937438965,-376.2023679826981,0.14999,16,0.0,0.0,1575420030,,,,0,9.621030966961897,1,6.0,28.45599937438965,0.0,0.0,0.0,66.7128,C,
Raw,1716207199000,34374000000,18,999070.4344203349,-1400242382626999808,0.0,73.93346679770741,-3134.3558412273483,0.0,0,15,0.0,47,130416916774905,58,34.03300094604492,-320.0044093977825,0.14999,16,0.0,0.0,1575420030,,,,0,16.27040674299261,1,6.0,34.03300094604492,0.0,0.0,0.0,66.7128,C,
Status,1716207199000,49,0,1,10,1575420030,33.60,337.0,81.0,1,0,0,33.6
Status,1716207199000,49,1,1,27,1575420030,0.00,308.0,68.0,0,0,0,0.0
Status,1716207199000,49,2,1,23,1575420030,34.20,38.0,48.0,1,0,0,34.2
Status,1716207199000,49,3,2,126,1575420030,0.00,134.0,41.0,0,0,0,0.0
Status,1716207199000,49,4,1,32,1575420030,35.20,153.0,36.0,1,0,0,35.2
Status,1716207199000,49,5,1,16,1575420030,34.70,236.0,35.0,1,0,0,34.7
Status,1716207199000,49,6,1,8,1575420030,0.00,316.0,31.0,0,0,0,0.0
Status,1716207199000,49,7,1,18,1575420030,37.40,78.0,24.0,1,0,0,37.4
Status,1716207199000,49,8,1,26,1575420030,28.00,203.0,15.0,1,0,0,28.0
Status,1716207199000,49,9,1,1,1575420030,33.00,193.0,13.0,1,0,0,33.0
Status,1716207199000,49,10,1,21,1575420030,35.00,290.0,8.0,1,0,0,35.0
Status,1716207199000,49,11,1,15,1575420030,34.90,35.0,2.0,0,0,0,34.9
Status,1716207199000,49,12,3,1,1602000000,0.00,120.0,72.0,0,0,0,0.0
Status,1716207199000,49,13,3,24,1602000000,0.00,8.0,55.0,0,0,0,0.0
Status,1716207199000,49,14,3,23,1602000000,0.00,89.0,32.0,0,0,0,0.0
Status,1716207199000,49,15,3,2,1602000000,0.00,186.0,31.0,0,0,0,0.0
Status,1716207199000,49,16,3,8,1602000000,0.00,34.0,29.0,0,0,0,0.0
Status,1716207199000,49,17,3,17,1602000000,0.00,316.0,17.0,0,0,0,0.0
Status,1716207199000,49,18,3,15,1602000000,0.00,298.0,12.0,0,0,0,0.0
Status,1716207199000,49,19,3,14,1602000000,0.00,248.0,10.0,0,0,0,0.0
Status,1716207199000,49,20,6,14,1575420030,0.00,276.0,79.0,0,0,0,0.0
Status,1716207199000,49,21,6,26,1575420030,0.00,18.0,60.0,0,0,0,0.0
Status,1716207199000,49,22,6,7,1575420030,0.00,99.0,43.0,0,0,0,0.0
Status,1716207199000,49,23,6,33,1575420030,0.00,302.0,37.0,0,0,0,0.0
Status,1716207199000,49,24,6,13,1575420030,0.00,77.0,24.0,0,0,0,0.0
Status,1716207199000,49,25,6,31,1575420030,0.00,297.0,24.0,0,0,0,0.0
Status,1716207199000,49,26,6,21,1575420030,0.00,189.0,12.0,0,0,0,0.0
Status,1716207199000,49,27,5,48,1561097980,0.00,114.0,74.0,0,0,0,0.0
Status,1716207199000,49,28,5,29,1561097980,0.00,75.0,71.0,0,0,0,0.0
Status,1716207199000,49,29,5,19,1561097980,0.00,186.0,60.0,0,0,0,0.0
Status,1716207199000,49,30,5,20,1561097980,0.00,60.0,59.0,0,0,0,0.0
Status,1716207199000,49,31,5,5,1561097980,0.00,141.0,45.0,0,0,0,0.0
Status,1716207199000,49,32,5,56,1561097980,0.00,49.0,41.0,0,0,0,0.0
Status,1716207199000,49,33,5,60,1561097980,0.00,118.0,30.0,0,0,0,0.0
Status,1716207199000,49,34,5,2,1561097980,0.00,114.0,27.0,0,0,0,0.0
Status,1716207199000,49,35,5,13,1561097980,0.00,45.0,26.0,0,0,0,0.0
Status,1716207199000,49,36,5,30,1561097980,0.00,116.0,20.0,0,0,0,0.0
Status,1716207199000,49,37,5,8,1561097980,0.00,47.0,14.0,0,0,0,0.0
Status,1716207199000,49,38,5,22,1561097980,0.00,208.0,10.0,0,0,0,0.0
Status,1716207199000,49,39,5,39,1561097980,0.00,89.0,9.0,0,0,0,0.0
Status,1716207199000,49,40,5,32,1561097980,0.00,38.0,8.0,0,0,0,0.0
Status,1716207199000,49,41,5,6,1561097980,0.00,102.0,6.0,0,0,0,0.0
Status,1716207199000,49,42,5,16,1561097980,0.00,95.0,6.0,0,0,0,0.0
Status,1716207199000,49,43,5,3,1561097980,0.00,97.0,5.0,0,0,0,0.0
Status,1716207199000,49,44,5,38,1561097980,0.00,54.0,5.0,0,0,0,0.0
Status,1716207199000,49,45,5,9,1561097980,0.00,112.0,4.0,0,0,0,0.0
Status,1716207199000,49,46,5,61,1561097980,0.00,98.0,4.0,0,0,0,0.0
Status,1716207199000,49,47,5,26,1561097980,0.00,274.0,2.0,0,0,0,0.0
Status,1716207199000,49,48,5,45,1561097980,0.00,225.0,1.0,0,0,0,0.0
Fix,GPS,33.8182666667,35.4907433333,203.70000000000002,0.0,4.8,58.51,1716207200000,3.2,179.9,484379411000000,21.2,0,,,
Raw,1716207200000,35374000000,18,706551.557494485,-1400242382626999808,0.0,59.26625484905083,-3146.691944865504,0.0,0,16,0.0,47,130417924969060,58,34.65299987792969,-492.6177279478163,0.14999,16,0.0,0.0,1575420030,,,,0,16.96938072199927,1,6.0,34.65299987792969,0.0,0.0,0.0,66.7128,C,
Raw,1716207200000,35374000000,18,706551.557494485,-1400242382626999808,0.0,59.26625484905083,-3146.691944865504,0.0,0,10,0.0,47,130417932369822,58,33.56700134277344,-877.2616366143855,0.14999,16,0.0,0.0,1575420030,,,,0,15.732447581315036,1,6.0,33.56700134277344,0.0,0.0,0.0,66.7128,C,
Raw,1716207200000,35374000000,18,706551.557494485,-1400242382626999808,0.0,59.26625484905083,-3146.691944865504,0.0,0,1,0.0,47,130417918560568,58,32.99599838256836,-315.78900500291934,0.14999,16,0.0,0.0,1575420030,,,,0,15.07583809048398,1,6.0,32.99599838256836,0.0,0.0,0.0,66.7128,C,
Raw,1716207200000,35374000000,18,706551.557494485,-1400242382626999808,0.0,59.26625484905083,-3146.691944865504,0.0,0,21,0.0,47,130417918819963,58,34.994998931884766,-1364.301660028797,0.14999,16,0.0,0.0,1575420030,,,,0,17.352563381058623,1,6.0,34.994998931884766,0.0,0.0,0.0,66.7128,C,
Raw,1716207200000,35374000000,18,706551.557494485,-1400242382626999808,0.0,59.26625484905083,-3146.691944865504,0.0,0,18,0.0,47,130417922745809,51,37.387001037597656,-544.8718780390354,0.14999,16,0.0,0.0,1575420030,,,,0,19.98419309911696,1,6.0,37.387001037597656,0.0,0.0,0.0,66.7128,C,
Raw,1716207200000,35374000000,18,706551.557494485,-1400242382626999808,0.0,59.26625484905083,-3146.691944865504,0.0,0,32,0.0,47,130417925422919,58,35.24800109863281,-1461.0852264310765,0.14999,16,0.0,0.0,1575420030,,,,0,17.6266554567007,1,6.0,35.24800109863281,0.0,0.0,0.0,66.7128,C,
Raw,1716207200000,35374000000,18,706551.557494485,-1400242382626999808,0.0,59.26625484905083,-3146.691944865504,0.0,0,23,0.0,47,130417929162461,58,34.23899841308594,-511.77262586825367,0.14999,16,0.0,0.0,1575420030,,,,0,16.497893078519397,1,6.0,34.23899841308594,0.0,0.0,0.0,66.7128,C,
Raw,1716207200000,35374000000,18,706551.557494485,-1400242382626999808,0.0,59.26625484905083,-3146.691944865504,0.0,0,26,0.0,47,130417919475205,235,27.986000061035156,-380.71454874031417,0.14999,16,0.0,0.0,1575420030,,,,0,9.02735407737225,1,6.0,27.986000061035156,0.0,0.0,0.0,66.7128,C,
Raw,1716207200000,35374000000,18,706551.557494485,-1400242382626999808,0.0,59.26625484905083,-3146.691944865504,0.0,0,15,0.0,47,130417916775979,58,34.94200134277344,-323.6925572270723,0.14999,16,0.0,0.0,1575420030,,,,0,17.28806390419287,1,6.0,34.94200134277344,0.0,0.0,0.0,66.7128,C,
Fix,FLP,33.8182746000,35.4907507000,30.899999618530273,0.12058905,20.746,262.08365,1716207199964,3.2,179.9,484379411000000,3.27068,0,,,
Status,1716207200000,49,0,1,10,1575420030,34.60,337.0,81.0,1,0,0,34.6
Status,1716207200000,49,1,1,27,1575420030,0.00,308.0,68.0,0,0,0,0.0
Status,1716207200000,49,2,1,23,1575420030,34.20,38.0,48.0,1,0,0,34.2
Status,1716207200000,49,3,2,126,1575420030,0.00,134.0,41.0,0,0,0,0.0
Status,1716207200000,49,4,1,32,1575420030,35.50,153.0,36.0,1,0,0,35.5
Status,1716207200000,49,5,1,16,1575420030,32.90,236.0,35.0,1,0,0,32.9
Status,1716207200000,49,6,1,8,1575420030,0.00,316.0,31.0,0,0,0,0.0
Status,1716207200000,49,7,1,18,1575420030,37.90,78.0,24.0,1,0,0,37.9
Status,1716207200000,49,8,1,26,1575420030,28.50,203.0,15.0,1,0,0,28.5
Status,1716207200000,49,9,1,1,1575420030,32.10,193.0,13.0,1,0,0,32.1
Status,1716207200000,49,10,1,21,1575420030,34.10,290.0,8.0,1,0,0,34.1
Status,1716207200000,49,11,1,15,1575420030,33.50,35.0,2.0,0,0,0,33.5
Status,1716207200000,49,12,3,1,1602000000,0.00,120.0,72.0,0,0,0,0.0
Status,1716207200000,49,13,3,24,1602000000,0.00,8.0,55.0,0,0,0,0.0
Status,1716207200000,49,14,3,23,1602000000,0.00,89.0,32.0,0,0,0,0.0
Status,1716207200000,49,15,3,2,1602000000,0.00,186.0,31.0,0,0,0,0.0
Status,1716207200000,49,16,3,8,1602000000,0.00,34.0,29.0,0,0,0,0.0
Status,1716207200000,49,17,3,17,1602000000,0.00,316.0,17.0,0,0,0,0.0
Status,1716207200000,49,18,3,15,1602000000,0.00,298.0,12.0,0,0,0,0.0
Status,1716207200000,49,19,3,14,1602000000,0.00,248.0,10.0,0,0,0,0.0
Status,1716207200000,49,20,6,14,1575420030,0.00,276.0,79.0,0,0,0,0.0
Status,1716207200000,49,21,6,26,1575420030,0.00,18.0,60.0,0,0,0,0.0
Status,1716207200000,49,22,6,7,1575420030,0.00,99.0,43.0,0,0,0,0.0
Status,1716207200000,49,23,6,33,1575420030,0.00,302.0,37.0,0,0,0,0.0
Status,1716207200000,49,24,6,13,1575420030,0.00,77.0,24.0,0,0,0,0.0
Status,1716207200000,49,25,6,31,1575420030,0.00,297.0,24.0,0,0,0,0.0
Status,1716207200000,49,26,6,21,1575420030,0.00,189.0,12.0,0,0,0,0.0
Status,1716207200000,49,27,5,48,1561097980,0.00,114.0,74.0,0,0,0,0.0
Status,1716207200000,49,28,5,29,1561097980,0.00,75.0,71.0,0,0,0,0.0
Status,1716207200000,49,29,5,19,1561097980,0.00,186.0,60.0,0,0,0,0.0
Status,1716207200000,49,30,5,20,1561097980,0.00,60.0,59.0,0,0,0,0.0
Status,1716207200000,49,31,5,5,1561097980,0.00,141.0,45.0,0,0,0,0.0
Status,1716207200000,49,32,5,56,1561097980,0.00,49.0,41.0,0,0,0,0.0
Status,1716207200000,49,33,5,60,1561097980,0.00,118.0,30.0,0,0,0,0.0
Status,1716207200000,49,34,5,2,1561097980,0.00,114.0,27.0,0,0,0,0.0
Status,1716207200000,49,35,5,13,1561097980,0.00,45.0,26.0,0,0,0,0.0
Status,1716207200000,49,36,5,30,1561097980,0.00,116.0,20.0,0,0,0,0.0
Status,1716207200000,49,37,5,8,1561097980,0.00,47.0,14.0,0,0,0,0.0
Status,1716207200000,49,38,5,22,1561097980,0.00,208.0,10.0,0,0,0,0.0
Status,1716207200000,49,39,5,39,1561097980,0.00,89.0,9.0,0,0,0,0.0
Status,1716207200000,49,40,5,32,1561097980,0.00,38.0,8.0,0,0,0,0.0
Status,1716207200000,49,41,5,6,1561097980,0.00,102.0,6.0,0,0,0,0.0
Status,1716207200000,49,42,5,16,1561097980,0.00,95.0,6.0,0,0,0,0.0
Status,1716207200000,49,43,5,3,1561097980,0.00,97.0,5.0,0,0,0,0.0
Status,1716207200000,49,44,5,38,1561097980,0.00,54.0,5.0,0,0,0,0.0
Status,1716207200000,49,45,5,9,1561097980,0.00,112.0,4.0,0,0,0,0.0
Status,1716207200000,49,46,5,61,1561097980,0.00,98.0,4.0,0,0,0,0.0
Status,1716207200000,49,47,5,26,1561097980,0.00,274.0,2.0,0,0,0,0.0
Status,1716207200000,49,48,5,45,1561097980,0.00,225.0,1.0,0,0,0,0.0
Fix,GPS,33.8182666667,35.4907433333,203.70000000000002,0.3659675,4.2,227.19,1716207201000,2.4,179.9,484380411000000,21.8,0,,,
Raw,1716207201000,36374000000,18,706276.0543996074,-1400242382626999808,0.0,55.997430038727536,-3153.3346932887844,0.0,0,16,0.0,47,130418924970698,58,32.90700149536133,-494.6750459928676,0.14999,16,0.0,0.0,1575420030,,,,0,14.977849577500333,1,6.0,32.90700149536133,0.0,0.0,0.0,66.7128,C,
Raw,1716207201000,36374000000,18,706276.0543996074,-1400242382626999808,0.0,55.997430038727536,-3153.3346932887844,0.0,0,10,0.0,47,130418932372745,58,34.5880012512207,-878.5768743773058,0.14999,16,0.0,0.0,1575420030,,,,0,16.89067309286412,1,6.0,34.5880012512207,0.0,0.0,0.0,66.7128,C,
Raw,1716207201000,36374000000,18,706276.0543996074,-1400242382626999808,0.0,55.997430038727536,-3153.3346932887844,0.0,0,1,0.0,47,130418918561625,74,32.104000091552734,-317.34224923208626,0.14999,16,0.0,0.0,1575420030,,,,0,14.042341591404092,1,6.0,32.104000091552734,0.0,0.0,0.0,66.7128,C,
Raw,1716207201000,36374000000,18,706276.0543996074,-1400242382626999808,0.0,55.997430038727536,-3153.3346932887844,0.0,0,21,0.0,47,130418918824520,58,34.09299850463867,-1366.2967702545423,0.14999,16,0.0,0.0,1575420030,,,,0,16.330851591224082,1,6.0,34.09299850463867,0.0,0.0,0.0,66.7128,C,
Raw,1716207201000,36374000000,18,706276.0543996074,-1400242382626999808,0.0,55.997430038727536,-3153.3346932887844,0.0,0,18,0.0,47,130418922747628,51,37.92599868774414,-546.3392206566291,0.14999,16,0.0,0.0,1575420030,,,,0,20.572903628990602,1,6.0,37.92599868774414,0.0,0.0,0.0,66.7128,C,
Raw,1716207201000,36374000000,18,706276.0543996074,-1400242382626999808,0.0,55.997430038727536,-3153.3346932887844,0.0,0,32,0.0,47,130418925427793,51,35.45899963378906,-1462.8740612888473,0.14999,16,0.0,0.0,1575420030,,,,0,17.862115321706852,1,6.0,35.45899963378906,0.0,0.0,0.0,66.7128,C,
Raw,1716207201000,36374000000,18,706276.0543996074,-1400242382626999808,0.0,55.997430038727536,-3153.3346932887844,0.0,0,23,0.0,47,130418929164178,58,34.220001220703125,-513.7888746733748,0.14999,16,0.0,0.0,1575420030,,,,0,16.47422578965806,1,6.0,34.220001220703125,0.0,0.0,0.0,66.7128,C,
Raw,1716207201000,36374000000,18,706276.0543996074,-1400242382626999808,0.0,55.997430038727536,-3153.3346932887844,0.0,0,26,0.0,47,130418919476479,235,28.511999130249023,-383.64742209726927,0.14999,16,0.0,0.0,1575420030,,,,0,9.69893184463238,1,6.0,28.511999130249023,0.0,0.0,0.0,66.7128,C,
Raw,1716207201000,36374000000,18,706276.0543996074,-1400242382626999808,0.0,55.997430038727536,-3153.3346932887844,0.0,0,15,0.0,47,130418916777058,58,33.472999572753906,-325.32199325882453,0.14999,16,0.0,0.0,1575420030,,,,0,15.628579202897592,1,6.0,33.472999572753906,0.0,0.0,0.0,66.7128,C,
Fix,FLP,33.8182679000,35.4907442000,30.899999618530273,0.35458693,16.61,227.68146,1716207200964,2.4,179.9,484380411000000,3.28068,0,,,
Fix,NLP,33.8182977000,35.4911309000,30.899999618530273,,20.0,,1716207201706,,,484381153000000,2.831172,0,,,
Fix,FLP,33.8182664000,35.4907423000,30.899999618530273,0.35312504,17.096,227.58809,1716207201706,1.5,45.0,484381153000000,2.831172,0,,,
Status,1716207201000,49,0,1,10,1575420030,35.80,337.0,81.0,1,0,0,35.8
Status,1716207201000,49,1,1,27,1575420030,0.00,308.0,68.0,0,0,0,0.0
Status,1716207201000,49,2,1,23,1575420030,33.60,38.0,48.0,1,0,0,33.6
Status,1716207201000,49,3,2,126,1575420030,0.00,134.0,41.0,0,0,0,0.0
Status,1716207201000,49,4,1,32,1575420030,35.70,153.0,36.0,1,0,0,35.7
Status,1716207201000,49,5,1,16,1575420030,33.30,236.0,35.0,1,0,0,33.3
Status,1716207201000,49,6,1,8,1575420030,34.70,316.0,31.0,1,0,0,34.7
Status,1716207201000,49,7,1,18,1575420030,38.00,78.0,24.0,1,0,0,38.0
Status,1716207201000,49,8,1,26,1575420030,30.70,203.0,15.0,1,0,0,30.7
Status,1716207201000,49,9,1,1,1575420030,34.80,193.0,13.0,1,0,0,34.8
Status,1716207201000,49,10,1,21,1575420030,35.40,290.0,8.0,1,0,0,35.4
Status,1716207201000,49,11,1,15,1575420030,34.10,35.0,2.0,0,0,0,34.1
Status,1716207201000,49,12,3,1,1602000000,0.00,120.0,72.0,0,0,0,0.0
Status,1716207201000,49,13,3,24,1602000000,0.00,8.0,55.0,0,0,0,0.0
Status,1716207201000,49,14,3,23,1602000000,0.00,89.0,32.0,0,0,0,0.0
Status,1716207201000,49,15,3,2,1602000000,0.00,186.0,31.0,0,0,0,0.0
Status,1716207201000,49,16,3,8,1602000000,0.00,34.0,29.0,0,0,0,0.0
Status,1716207201000,49,17,3,17,1602000000,0.00,316.0,17.0,0,0,0,0.0
Status,1716207201000,49,18,3,15,1602000000,0.00,298.0,12.0,0,0,0,0.0
Status,1716207201000,49,19,3,14,1602000000,0.00,248.0,10.0,0,0,0,0.0
Status,1716207201000,49,20,6,14,1575420030,0.00,276.0,79.0,0,0,0,0.0
Status,1716207201000,49,21,6,26,1575420030,0.00,18.0,60.0,0,0,0,0.0
Status,1716207201000,49,22,6,7,1575420030,0.00,99.0,43.0,0,0,0,0.0
Status,1716207201000,49,23,6,33,1575420030,0.00,302.0,37.0,0,0,0,0.0
Status,1716207201000,49,24,6,13,1575420030,0.00,77.0,24.0,0,0,0,0.0
Status,1716207201000,49,25,6,31,1575420030,0.00,297.0,24.0,0,0,0,0.0
Status,1716207201000,49,26,6,21,1575420030,0.00,189.0,12.0,0,0,0,0.0
Status,1716207201000,49,27,5,48,1561097980,0.00,114.0,74.0,0,0,0,0.0
Status,1716207201000,49,28,5,29,1561097980,0.00,75.0,71.0,0,0,0,0.0
Status,1716207201000,49,29,5,19,1561097980,0.00,186.0,60.0,0,0,0,0.0
Status,1716207201000,49,30,5,20,1561097980,0.00,60.0,59.0,0,0,0,0.0
Status,1716207201000,49,31,5,5,1561097980,0.00,141.0,45.0,0,0,0,0.0
Status,1716207201000,49,32,5,56,1561097980,0.00,49.0,41.0,0,0,0,0.0
Status,1716207201000,49,33,5,60,1561097980,0.00,118.0,30.0,0,0,0,0.0
Status,1716207201000,49,34,5,2,1561097980,0.00,114.0,27.0,0,0,0,0.0
Status,1716207201000,49,35,5,13,1561097980,0.00,45.0,26.0,0,0,0,0.0
Status,1716207201000,49,36,5,30,1561097980,0.00,116.0,20.0,0,0,0,0.0
Status,1716207201000,49,37,5,8,1561097980,0.00,47.0,14.0,0,0,0,0.0
Status,1716207201000,49,38,5,22,1561097980,0.00,208.0,10.0,0,0,0,0.0
Status,1716207201000,49,39,5,39,1561097980,0.00,89.0,9.0,0,0,0,0.0
Status,1716207201000,49,40,5,32,1561097980,0.00,38.0,8.0,0,0,0,0.0
Status,1716207201000,49,41,5,6,1561097980,0.00,102.0,6.0,0,0,0,0.0
Status,1716207201000,49,42,5,16,1561097980,0.00,95.0,6.0,0,0,0,0.0
Status,1716207201000,49,43,5,3,1561097980,0.00,97.0,5.0,0,0,0,0.0
Status,1716207201000,49,44,5,38,1561097980,0.00,54.0,5.0,0,0,0,0.0
Status,1716207201000,49,45,5,9,1561097980,0.00,112.0,4.0,0,0,0,0.0
Status,1716207201000,49,46,5,61,1561097980,0.00,98.0,4.0,0,0,0,0.0
Status,1716207201000,49,47,5,26,1561097980,0.00,274.0,2.0,0,0,0,0.0
Status,1716207201000,49,48,5,45,1561097980,0.00,225.0,1.0,0,0,0,0.0
Fix,GPS,33.8182366667,35.4907083333,203.9,0.23265444,3.9,228.7,1716207202000,1.9,179.9,484381411000000,22.7,0,,,
Raw,1716207202000,37374000000,18,705998.1538127954,-1400242382626999808,0.0,55.654785768574655,-3151.6229795583276,0.0,0,16,0.0,47,130419924972327,58,33.334999084472656,-493.709500728764,0.14999,16,0.0,0.0,1575420030,,,,0,15.470409922336978,1,6.0,33.334999084472656,0.0,0.0,0.0,66.7128,C,
Raw,1716207202000,37374000000,18,705998.1538127954,-1400242382626999808,0.0,55.654785768574655,-3151.6229795583276,0.0,0,10,0.0,47,130419932375665,51,35.79600143432617,-877.8033417474003,0.14999,16,0.0,0.0,1575420030,,,,0,18.237673030181586,1,6.0,35.79600143432617,0.0,0.0,0.0,66.7128,C,
Raw,1716207202000,37374000000,18,705998.1538127954,-1400242382626999808,0.0,55.654785768574655,-3151.6229795583276,0.0,0,1,0.0,47,130419918562678,58,34.79899978637695,-316.85234523314614,0.14999,16,0.0,0.0,1575420030,,,,0,17.124688122644326,1,6.0,34.79899978637695,0.0,0.0,0.0,66.7128,C,
Raw,1716207202000,37374000000,18,705998.1538127954,-1400242382626999808,0.0,55.654785768574655,-3151.6229795583276,0.0,0,21,0.0,47,130419918829074,51,35.44300079345703,-1365.4236307802814,0.14999,16,0.0,0.0,1575420030,,,,0,17.852009573460347,1,6.0,35.44300079345703,0.0,0.0,0.0,66.7128,C,
Raw,1716207202000,37374000000,18,705998.1538127954,-1400242382626999808,0.0,55.654785768574655,-3151.6229795583276,0.0,0,18,0.0,47,130419922749448,51,38.03200149536133,-546.0043019341673,0.14999,16,0.0,0.0,1575420030,,,,0,20.683085524686113,1,6.0,38.03200149536133,0.0,0.0,0.0,66.7128,C,
Raw,1716207202000,37374000000,18,705998.1538127954,-1400242382626999808,0.0,55.654785768574655,-3151.6229795583276,0.0,0,32,0.0,47,130419925432662,51,35.68299865722656,-1462.3607887065532,0.14999,16,0.0,0.0,1575420030,,,,0,18.111011710792006,1,6.0,35.68299865722656,0.0,0.0,0.0,66.7128,C,
Raw,1716207202000,37374000000,18,705998.1538127954,-1400242382626999808,0.0,55.654785768574655,-3151.6229795583276,0.0,0,8,0.0,47,130419925497113,58,34.70800018310547,-1473.4307142875355,0.14999,16,0.0,0.0,1575420030,,,,0,17.025166974381506,1,6.0,34.70800018310547,0.0,0.0,0.0,66.7128,C,
Raw,1716207202000,37374000000,18,705998.1538127954,-1400242382626999808,0.0,55.654785768574655,-3151.6229795583276,0.0,0,23,0.0,47,130419929165886,58,33.56700134277344,-513.5619253101863,0.14999,16,0.0,0.0,1575420030,,,,0,15.732447581315036,1,6.0,33.56700134277344,0.0,0.0,0.0,66.7128,C,
Raw,1716207202000,37374000000,18,705998.1538127954,-1400242382626999808,0.0,55.654785768574655,-3151.6229795583276,0.0,0,26,0.0,47,130419919477756,74,30.69700050354004,-383.00141781986173,0.14999,16,0.0,0.0,1575420030,,,,0,12.389455856912884,1,6.0,30.69700050354004,0.0,0.0,0.0,66.7128,C,
Raw,1716207202000,37374000000,18,705998.1538127954,-1400242382626999808,0.0,55.654785768574655,-3151.6229795583276,0.0,0,15,0.0,47,130419916778140,58,34.08300018310547,-324.5407020734119,0.14999,16,0.0,0.0,1575420030,,,,0,16.31879622546087,1,6.0,34.08300018310547,0.0,0.0,0.0,66.7128,C,
Fix,FLP,33.8182420000,35.4907143000,30.899999618530273,0.27012384,7.568,228.0679,1716207201964,1.9,179.9,484381411000000,2.833752,0,,,
Status,1716207202000,49,0,1,10,1575420030,35.80,337.0,81.0,1,0,0,35.8
Status,1716207202000,49,1,1,27,1575420030,35.30,308.0,68.0,1,0,0,35.3
Status,1716207202000,49,2,1,23,1575420030,33.50,38.0,48.0,1,0,0,33.5
Status,1716207202000,49,3,2,126,1575420030,0.00,134.0,41.0,0,0,0,0.0
Status,1716207202000,49,4,1,32,1575420030,33.90,153.0,36.0,1,0,0,33.9
Status,1716207202000,49,5,1,16,1575420030,34.10,236.0,35.0,1,0,0,34.1
Status,1716207202000,49,6,1,8,1575420030,35.50,316.0,31.0,1,0,0,35.5
Status,1716207202000,49,7,1,18,1575420030,36.30,78.0,24.0,1,0,0,36.3
Status,1716207202000,49,8,1,26,1575420030,34.60,203.0,15.0,1,0,0,34.6
Status,1716207202000,49,9,1,1,1575420030,34.00,193.0,13.0,1,0,0,34.0
Status,1716207202000,49,10,1,21,1575420030,35.40,290.0,8.0,1,0,0,35.4
Status,1716207202000,49,11,1,15,1575420030,32.10,35.0,2.0,0,0,0,32.1
Status,1716207202000,49,12,3,1,1602000000,0.00,120.0,72.0,0,0,0,0.0
Status,1716207202000,49,13,3,24,1602000000,0.00,8.0,55.0,0,0,0,0.0
Status,1716207202000,49,14,3,23,1602000000,0.00,89.0,32.0,0,0,0,0.0
Status,1716207202000,49,15,3,2,1602000000,0.00,186.0,31.0,0,0,0,0.0
Status,1716207202000,49,16,3,8,1602000000,0.00,34.0,29.0,0,0,0,0.0
Status,1716207202000,49,17,3,17,1602000000,0.00,316.0,17.0,0,0,0,0.0
Status,1716207202000,49,18,3,15,1602000000,0.00,298.0,12.0,0,0,0,0.0
Status,1716207202000,49,19,3,14,1602000000,0.00,248.0,10.0,0,0,0,0.0
Status,1716207202000,49,20,6,14,1575420030,0.00,276.0,79.0,0,0,0,0.0
Status,1716207202000,49,21,6,26,1575420030,0.00,18.0,60.0,0,0,0,0.0
Status,1716207202000,49,22,6,7,1575420030,0.00,99.0,43.0,0,0,0,0.0
Status,1716207202000,49,23,6,33,1575420030,0.00,302.0,37.0,0,0,0,0.0
Status,1716207202000,49,24,6,13,1575420030,0.00,77.0,24.0,0,0,0,0.0
Status,1716207202000,49,25,6,31,1575420030,0.00,297.0,24.0,0,0,0,0.0
Status,1716207202000,49,26,6,21,1575420030,0.00,189.0,12.0,0,0,0,0.0
Status,1716207202000,49,27,5,48,1561097980,0.00,114.0,74.0,0,0,0,0.0
Status,1716207202000,49,28,5,29,1561097980,0.00,75.0,71.0,0,0,0,0.0
Status,1716207202000,49,29,5,19,1561097980,0.00,186.0,60.0,0,0,0,0.0
Status,1716207202000,49,30,5,20,1561097980,0.00,60.0,59.0,0,0,0,0.0
Status,1716207202000,49,31,5,5,1561097980,0.00,141.0,45.0,0,0,0,0.0
Status,1716207202000,49,32,5,56,1561097980,0.00,49.0,41.0,0,0,0,0.0
Status,1716207202000,49,33,5,60,1561097980,0.00,118.0,30.0,0,0,0,0.0
Status,1716207202000,49,34,5,2,1561097980,0.00,114.0,27.0,0,0,0,0.0
Status,1716207202000,49,35,5,13,1561097980,0.00,45.0,26.0,0,0,0,0.0
Status,1716207202000,49,36,5,30,1561097980,0.00,116.0,20.0,0,0,0,0.0
Status,1716207202000,49,37,5,8,1561097980,0.00,47.0,14.0,0,0,0,0.0
Status,1716207202000,49,38,5,22,1561097980,0.00,208.0,10.0,0,0,0,0.0
Status,1716207202000,49,39,5,39,1561097980,0.00,89.0,9.0,0,0,0,0.0
Status,1716207202000,49,40,5,32,1561097980,0.00,38.0,8.0,0,0,0,0.0
Status,1716207202000,49,41,5,6,1561097980,0.00,102.0,6.0,0,0,0,0.0
Status,1716207202000,49,42,5,16,1561097980,0.00,95.0,6.0,0,0,0,0.0
Status,1716207202000,49,43,5,3,1561097980,0.00,97.0,5.0,0,0,0,0.0
Status,1716207202000,49,44,5,38,1561097980,0.00,54.0,5.0,0,0,0,0.0
Status,1716207202000,49,45,5,9,1561097980,0.00,112.0,4.0,0,0,0,0.0
Status,1716207202000,49,46,5,61,1561097980,0.00,98.0,4.0,0,0,0,0.0
Status,1716207202000,49,47,5,26,1561097980,0.00,274.0,2.0,0,0,0,0.0
Status,1716207202000,49,48,5,45,1561097980,0.00,225.0,1.0,0,0,0,0.0
Raw,1716207203000,38374000000,18,705595.8963617424,-1400242382626999808,0.0,55.57154871074618,-3157.084976925024,0.0,0,16,0.0,47,130420924973976,58,34.141998291015625,-495.7886542294342,0.14999,16,0.0,0.0,1575420030,,,,0,16.390878710837374,1,6.0,34.141998291015625,0.0,0.0,0.0,66.7128,C,
Raw,1716207203000,38374000000,18,705595.8963617424,-1400242382626999808,0.0,55.57154871074618,-3157.084976925024,0.0,0,10,0.0,47,130420932378587,51,35.755001068115234,-879.7064643090488,0.14999,16,0.0,0.0,1575420030,,,,0,18.06179973983887,1,6.0,35.755001068115234,0.0,0.0,0.0,66.7128,C,
Raw,1716207203000,38374000000,18,705595.8963617424,-1400242382626999808,0.0,55.57154871074618,-3157.084976925024,0.0,0,1,0.0,47,130420918563735,58,34.00400161743164,-318.4814560559849,0.14999,16,0.0,0.0,1575420030,,,,0,16.23393689387281,1,6.0,34.00400161743164,0.0,0.0,0.0,66.7128,C,
Raw,1716207203000,38374000000,18,705595.8963617424,-1400242382626999808,0.0,55.57154871074618,-3157.084976925024,0.0,0,21,0.0,47,130420918833635,58,35.433998107910156,-1367.4381606240029,0.14999,16,0.0,0.0,1575420030,,,,0,17.647385513409503,1,6.0,35.433998107910156,0.0,0.0,0.0,66.7128,C,
Raw,1716207203000,38374000000,18,705595.8963617424,-1400242382626999808,0.0,55.57154871074618,-3157.084976925024,0.0,0,8,0.0,47,130420925502080,51,35.49300003051758,-1475.139454835759,0.14999,16,0.0,0.0,1575420030,,,,0,17.902421146413367,1,6.0,35.49300003051758,0.0,0.0,0.0,66.7128,C,
Raw,1716207203000,38374000000,18,705595.8963617424,-1400242382626999808,0.0,55.57154871074618,-3157.084976925024,0.0,0,18,0.0,47,130420922751280,51,36.319000244140625,-547.5113200392047,0.14999,16,0.0,0.0,1575420030,,,,0,18.817570957626867,1,6.0,36.319000244140625,0.0,0.0,0.0,66.7128,C,
Raw,1716207203000,38374000000,18,705595.8963617424,-1400242382626999808,0.0,55.57154871074618,-3157.084976925024,0.0,0,32,0.0,47,130420925437534,58,33.8650016784668,-1464.0522467239464,0.14999,16,0.0,0.0,1575420030,,,,0,16.074107097120635,1,6.0,33.8650016784668,0.0,0.0,0.0,66.7128,C,
Raw,1716207203000,38374000000,18,705595.8963617424,-1400242382626999808,0.0,55.57154871074618,-3157.084976925024,0.0,0,27,0.0,47,130420932413417,58,35.30799865722656,-1132.3880292345566,0.14999,16,0.0,0.0,1575420030,,,,0,17.6989952293486,1,6.0,35.30799865722656,0.0,0.0,0.0,66.7128,C,
Raw,1716207203000,38374000000,18,705595.8963617424,-1400242382626999808,0.0,55.57154871074618,-3157.084976925024,0.0,0,23,0.0,47,130420929167608,58,33.525001525878906,-515.1818373666154,0.14999,16,0.0,0.0,1575420030,,,,0,15.693642350852029,1,6.0,33.525001525878906,0.0,0.0,0.0,66.7128,C,
Raw,1716207203000,38374000000,18,705595.8963617424,-1400242382626999808,0.0,55.57154871074618,-3157.084976925024,0.0,0,26,0.0,47,130420919479028,58,34.606998443603516,-384.88958077149044,0.14999,16,0.0,0.0,1575420030,,,,0,16.91323385785464,1,6.0,34.606998443603516,0.0,0.0,0.0,66.7128,C,
Raw,1716207203000,38374000000,18,705595.8963617424,-1400242382626999808,0.0,55.57154871074618,-3157.084976925024,0.0,0,15,0.0,47,130420916779227,74,32.05400085449219,-326.2484205364789,0.14999,16,0.0,0.0,1575420030,,,,0,13.9951782738712,1,6.0,32.05400085449219,0.0,0.0,0.0,66.7128,C,
Fix,GPS,33.8182350000,35.4907116667,203.8,0.24191944,3.5,229.27,1716207203000,1.5,179.9,484382411000000,23.6,0,,,
Fix,FLP,33.8182358000,35.4907118000,30.899999618530273,0.24283996,6.956,228.9302,1716207202964,1.5,179.9,484382411000000,2.843752,0,,,
Status,1716207203000,49,0,1,10,1575420030,38.30,337.0,81.0,1,0,0,38.3
Status,1716207203000,49,1,1,27,1575420030,37.50,308.0,68.0,1,0,0,37.5
Status,1716207203000,49,2,1,23,1575420030,33.50,38.0,48.0,1,0,0,33.5
Status,1716207203000,49,3,2,126,1575420030,0.00,134.0,41.0,0,0,0,0.0
Status,1716207203000,49,4,1,32,1575420030,0.00,153.0,36.0,0,0,0,0.0
Status,1716207203000,49,5,1,16,1575420030,35.60,236.0,35.0,1,0,0,35.6
Status,1716207203000,49,6,1,8,1575420030,36.70,316.0,31.0,1,0,0,36.7
Status,1716207203000,49,7,1,18,1575420030,37.30,78.0,24.0,1,0,0,37.3
Status,1716207203000,49,8,1,26,1575420030,38.30,203.0,15.0,1,0,0,38.3
Status,1716207203000,49,9,1,1,1575420030,36.10,193.0,13.0,1,0,0,36.1
Status,1716207203000,49,10,1,21,1575420030,35.50,290.0,8.0,1,0,0,35.5
Status,1716207203000,49,11,1,15,1575420030,0.00,35.0,2.0,0,0,0,0.0
Status,1716207203000,49,12,3,1,1602000000,0.00,120.0,72.0,0,0,0,0.0
Status,1716207203000,49,13,3,24,1602000000,0.00,8.0,55.0,0,0,0,0.0
Status,1716207203000,49,14,3,23,1602000000,0.00,89.0,32.0,0,0,0,0.0
Status,1716207203000,49,15,3,2,1602000000,0.00,186.0,31.0,0,0,0,0.0
Status,1716207203000,49,16,3,8,1602000000,0.00,34.0,29.0,0,0,0,0.0
Status,1716207203000,49,17,3,17,1602000000,0.00,316.0,17.0,0,0,0,0.0
Status,1716207203000,49,18,3,15,1602000000,0.00,298.0,12.0,0,0,0,0.0
Status,1716207203000,49,19,3,14,1602000000,0.00,248.0,10.0,0,0,0,0.0
Status,1716207203000,49,20,6,14,1575420030,0.00,276.0,79.0,0,0,0,0.0
Status,1716207203000,49,21,6,26,1575420030,0.00,18.0,60.0,0,0,0,0.0
Status,1716207203000,49,22,6,7,1575420030,0.00,99.0,43.0,0,0,0,0.0
Status,1716207203000,49,23,6,33,1575420030,0.00,302.0,37.0,0,0,0,0.0
Status,1716207203000,49,24,6,13,1575420030,0.00,77.0,24.0,0,0,0,0.0
Status,1716207203000,49,25,6,31,1575420030,0.00,297.0,24.0,0,0,0,0.0
Status,1716207203000,49,26,6,21,1575420030,0.00,189.0,12.0,0,0,0,0.0
Status,1716207203000,49,27,5,48,1561097980,0.00,114.0,74.0,0,0,0,0.0
Status,1716207203000,49,28,5,29,1561097980,0.00,75.0,71.0,0,0,0,0.0
Status,1716207203000,49,29,5,19,1561097980,0.00,186.0,60.0,0,0,0,0.0
Status,1716207203000,49,30,5,20,1561097980,0.00,60.0,59.0,0,0,0,0.0
Status,1716207203000,49,31,5,5,1561097980,0.00,141.0,45.0,0,0,0,0.0
Status,1716207203000,49,32,5,56,1561097980,0.00,49.0,41.0,0,0,0,0.0
Status,1716207203000,49,33,5,60,1561097980,0.00,118.0,30.0,0,0,0,0.0
Status,1716207203000,49,34,5,2,1561097980,0.00,114.0,27.0,0,0,0,0.0
Status,1716207203000,49,35,5,13,1561097980,0.00,45.0,26.0,0,0,0,0.0
Status,1716207203000,49,36,5,30,1561097980,0.00,116.0,20.0,0,0,0,0.0
Status,1716207203000,49,37,5,8,1561097980,0.00,47.0,14.0,0,0,0,0.0
Status,1716207203000,49,38,5,22,1561097980,0.00,208.0,10.0,0,0,0,0.0
Status,1716207203000,49,39,5,39,1561097980,0.00,89.0,9.0,0,0,0,0.0
Status,1716207203000,49,40,5,32,1561097980,0.00,38.0,8.0,0,0,0,0.0
Status,1716207203000,49,41,5,6,1561097980,0.00,102.0,6.0,0,0,0,0.0
Status,1716207203000,49,42,5,16,1561097980,0.00,95.0,6.0,0,0,0,0.0
Status,1716207203000,49,43,5,3,1561097980,0.00,97.0,5.0,0,0,0,0.0
Status,1716207203000,49,44,5,38,1561097980,0.00,54.0,5.0,0,0,0,0.0
Status,1716207203000,49,45,5,9,1561097980,0.00,112.0,4.0,0,0,0,0.0
Status,1716207203000,49,46,5,61,1561097980,0.00,98.0,4.0,0,0,0,0.0
Status,1716207203000,49,47,5,26,1561097980,0.00,274.0,2.0,0,0,0,0.0
Status,1716207203000,49,48,5,45,1561097980,0.00,225.0,1.0,0,0,0,0.0
Fix,GPS,33.8182300000,35.4907150000,203.9,0.49413332,3.4,289.55,1716207204000,1.5,126.8,484383411000000,24.0,0,,,
Raw,1716207204000,39374000000,18,705407.6932449047,-1400242382626999808,0.0,56.63537086181559,-3166.730736431052,0.0,0,16,0.0,47,130421924975644,51,35.60900115966797,-498.33801336057127,0.14999,16,0.0,0.0,1575420030,,,,0,18.03213816415631,1,6.0,35.60900115966797,0.0,0.0,0.0,66.7128,C,
Raw,1716207204000,39374000000,18,705407.6932449047,-1400242382626999808,0.0,56.63537086181559,-3166.730736431052,0.0,0,10,0.0,47,130421932381513,51,38.319000244140625,-882.1858570653728,0.14999,16,0.0,0.0,1575420030,,,,0,20.998449490779958,1,6.0,38.319000244140625,0.0,0.0,0.0,66.7128,C,
Raw,1716207204000,39374000000,18,705407.6932449047,-1400242382626999808,0.0,56.63537086181559,-3166.730736431052,0.0,0,1,0.0,47,130421918564790,51,36.09700012207031,-320.614872986789,0.14999,16,0.0,0.0,1575420030,,,,0,18.5697791717655,1,6.0,36.09700012207031,0.0,0.0,0.0,66.7128,C,
Raw,1716207204000,39374000000,18,705407.6932449047,-1400242382626999808,0.0,56.63537086181559,-3166.730736431052,0.0,0,21,0.0,47,130421918838202,51,35.505001068115234,-1370.1937951231146,0.14999,16,0.0,0.0,1575420030,,,,0,19.420453792084157,1,6.0,35.505001068115234,0.0,0.0,0.0,66.7128,C,
Raw,1716207204000,39374000000,18,705407.6932449047,-1400242382626999808,0.0,56.63537086181559,-3166.730736431052,0.0,0,27,0.0,47,130421932417103,51,37.48699951171875,-1135.1388320583824,0.14999,16,0.0,0.0,1575420030,,,,0,20.09424204175627,1,6.0,37.48699951171875,0.0,0.0,0.0,66.7128,C,
Raw,1716207204000,39374000000,18,705407.6932449047,-1400242382626999808,0.0,56.63537086181559,-3166.730736431052,0.0,0,8,0.0,47,130421925507008,51,36.667999267578125,-1477.9813161553577,0.14999,16,0.0,0.0,1575420030,,,,0,19.19816495724386,1,6.0,36.667999267578125,0.0,0.0,0.0,66.7128,C,
Raw,1716207204000,39374000000,18,705407.6932449047,-1400242382626999808,0.0,56.63537086181559,-3166.730736431052,0.0,0,18,0.0,47,130421922753114,51,37.32699966430664,-550.0632808416497,0.14999,16,0.0,0.0,1575420030,,,,0,19.920676255647972,1,6.0,37.32699966430664,0.0,0.0,0.0,66.7128,C,
Raw,1716207204000,39374000000,18,705407.6932449047,-1400242382626999808,0.0,56.63537086181559,-3166.730736431052,0.0,0,23,0.0,47,130421929169337,58,33.54800033569336,-518.6370891554418,0.14999,16,0.0,0.0,1575420030,,,,0,16.221746169572626,1,6.0,33.54800033569336,0.0,0.0,0.0,66.7128,C,
Raw,1716207204000,39374000000,18,705407.6932449047,-1400242382626999808,0.0,56.63537086181559,-3166.730736431052,0.0,0,26,0.0,47,130421919480122,51,38.33100128173828,-387.72995542177034,0.14999,16,0.0,0.0,1575420030,,,,0,21.01251571189144,1,6.0,38.33100128173828,0.0,0.0,0.0,66.7128,C,
Fix,FLP,33.8182307000,35.4907142000,30.899999618530273,0.481819,6.52,288.58398,1716207203964,1.5,126.8,484383411000000,2.853752,0,,,
Status,1716207204000,49,0,1,10,1575420030,38.30,337.0,81.0,1,0,0,38.3
Status,1716207204000,49,1,1,27,1575420030,35.80,308.0,68.0,1,0,0,35.8
Status,1716207204000,49,2,1,23,1575420030,33.50,38.0,48.0,1,0,0,33.5
Status,1716207204000,49,3,2,126,1575420030,0.00,134.0,41.0,0,0,0,0.0
Status,1716207204000,49,4,1,32,1575420030,0.00,153.0,36.0,0,0,0,0.0
Status,1716207204000,49,5,1,16,1575420030,33.00,236.0,35.0,1,0,0,33.0
Status,1716207204000,49,6,1,8,1575420030,34.70,316.0,31.0,1,0,0,34.7
Status,1716207204000,49,7,1,18,1575420030,34.20,78.0,24.0,1,0,0,34.2
Status,1716207204000,49,8,1,26,1575420030,36.40,203.0,15.0,1,0,0,36.4
Status,1716207204000,49,9,1,1,1575420030,36.20,193.0,13.0,1,0,0,36.2
Status,1716207204000,49,10,1,21,1575420030,35.50,290.0,8.0,1,0,0,35.5
Status,1716207204000,49,11,1,15,1575420030,0.00,35.0,2.0,0,0,0,0.0
Status,1716207204000,49,12,3,1,1602000000,0.00,120.0,72.0,0,0,0,0.0
Status,1716207204000,49,13,3,24,1602000000,0.00,8.0,55.0,0,0,0,0.0
Status,1716207204000,49,14,3,23,1602000000,0.00,89.0,32.0,0,0,0,0.0
Status,1716207204000,49,15,3,2,1602000000,0.00,186.0,31.0,0,0,0,0.0
Status,1716207204000,49,16,3,8,1602000000,0.00,34.0,29.0,0,0,0,0.0
Status,1716207204000,49,17,3,17,1602000000,0.00,316.0,17.0,0,0,0,0.0
Status,1716207204000,49,18,3,15,1602000000,0.00,298.0,12.0,0,0,0,0.0
Status,1716207204000,49,19,3,14,1602000000,0.00,248.0,10.0,0,0,0,0.0
Status,1716207204000,49,20,6,14,1575420030,0.00,276.0,79.0,0,0,0,0.0
Status,1716207204000,49,21,6,26,1575420030,0.00,18.0,60.0,0,0,0,0.0
Status,1716207204000,49,22,6,7,1575420030,0.00,99.0,43.0,0,0,0,0.0
Status,1716207204000,49,23,6,33,1575420030,0.00,302.0,37.0,0,0,0,0.0
Status,1716207204000,49,24,6,13,1575420030,0.00,77.0,24.0,0,0,0,0.0
Status,1716207204000,49,25,6,31,1575420030,0.00,297.0,24.0,0,0,0,0.0
Status,1716207204000,49,26,6,21,1575420030,0.00,189.0,12.0,0,0,0,0.0
Status,1716207204000,49,27,5,48,1561097980,0.00,114.0,74.0,0,0,0,0.0
Status,1716207204000,49,28,5,29,1561097980,0.00,75.0,71.0,0,0,0,0.0
Status,1716207204000,49,29,5,19,1561097980,0.00,186.0,60.0,0,0,0,0.0
Status,1716207204000,49,30,5,20,1561097980,0.00,60.0,59.0,0,0,0,0.0
Status,1716207204000,49,31,5,5,1561097980,0.00,141.0,45.0,0,0,0,0.0
Status,1716207204000,49,32,5,56,1561097980,0.00,49.0,41.0,0,0,0,0.0
Status,1716207204000,49,33,5,60,1561097980,0.00,118.0,30.0,0,0,0,0.0
Status,1716207204000,49,34,5,2,1561097980,0.00,114.0,27.0,0,0,0,0.0
Status,1716207204000,49,35,5,13,1561097980,0.00,45.0,26.0,0,0,0,0.0
Status,1716207204000,49,36,5,30,1561097980,0.00,116.0,20.0,0,0,0,0.0
Status,1716207204000,49,37,5,8,1561097980,0.00,47.0,14.0,0,0,0,0.0
Status,1716207204000,49,38,5,22,1561097980,0.00,208.0,10.0,0,0,0,0.0
Status,1716207204000,49,39,5,39,1561097980,0.00,89.0,9.0,0,0,0,0.0
Status,1716207204000,49,40,5,32,1561097980,0.00,38.0,8.0,0,0,0,0.0
Status,1716207204000,49,41,5,6,1561097980,0.00,102.0,6.0,0,0,0,0.0
Status,1716207204000,49,42,5,16,1561097980,0.00,95.0,6.0,0,0,0,0.0
Status,1716207204000,49,43,5,3,1561097980,0.00,97.0,5.0,0,0,0,0.0
Status,1716207204000,49,44,5,38,1561097980,0.00,54.0,5.0,0,0,0,0.0
Status,1716207204000,49,45,5,9,1561097980,0.00,112.0,4.0,0,0,0,0.0
Status,1716207204000,49,46,5,61,1561097980,0.00,98.0,4.0,0,0,0,0.0
Status,1716207204000,49,47,5,26,1561097980,0.00,274.0,2.0,0,0,0,0.0
Status,1716207204000,49,48,5,45,1561097980,0.00,225.0,1.0,0,0,0,0.0
Fix,GPS,33.8182383333,35.4907216667,203.8,0.16316694,3.2,302.37,1716207205000,1.5,179.9,484384411000000,23.9,0,,,
Raw,1716207205000,40374000000,18,705171.8008863318,-1400242382626999808,0.0,57.2986969834388,-3184.532151443328,0.0,0,16,0.0,47,130422924977323,58,32.96200180053711,-503.70972127649856,0.14999,16,0.0,0.0,1575420030,,,,0,15.047953990651873,1,6.0,32.96200180053711,0.0,0.0,0.0,66.7128,C,
Raw,1716207205000,40374000000,18,705171.8008863318,-1400242382626999808,0.0,57.2986969834388,-3184.532151443328,0.0,0,10,0.0,47,130422932384465,51,38.270999908447266,-887.6084834054668,0.14999,16,0.0,0.0,1575420030,,,,0,19.968357379802505,1,6.0,38.270999908447266,0.0,0.0,0.0,66.7128,C,
Raw,1716207205000,40374000000,18,705171.8008863318,-1400242382626999808,0.0,57.2986969834388,-3184.532151443328,0.0,0,1,0.0,47,130422918565861,51,36.220001220703125,-326.59430344516636,0.14999,16,0.0,0.0,1575420030,,,,0,18.708313043596824,1,6.0,36.220001220703125,0.0,0.0,0.0,66.7128,C,
Raw,1716207205000,40374000000,18,705171.8008863318,-1400242382626999808,0.0,57.2986969834388,-3184.532151443328,0.0,0,21,0.0,47,130422918842782,58,35.45899963378906,-1375.8034630468724,0.14999,16,0.0,0.0,1575420030,,,,0,16.901960800285135,1,6.0,35.45899963378906,0.0,0.0,0.0,66.7128,C,
Raw,1716207205000,40374000000,18,705171.8008863318,-1400242382626999808,0.0,57.2986969834388,-3184.532151443328,0.0,0,27,0.0,47,130422932420929,51,35.827999114990234,-1140.4210610646883,0.14999,16,0.0,0.0,1575420030,,,,0,18.276277047674334,1,6.0,35.827999114990234,0.0,0.0,0.0,66.7128,C,
Raw,1716207205000,40374000000,18,705171.8008863318,-1400242382626999808,0.0,57.2986969834388,-3184.532151443328,0.0,0,8,0.0,47,130422925511951,58,34.689998626708984,-1482.864746116912,0.14999,16,0.0,0.0,1575420030,,,,0,17.002895450286786,1,6.0,34.689998626708984,0.0,0.0,0.0,66.7128,C,
Raw,1716207205000,40374000000,18,705171.8008863318,-1400242382626999808,0.0,57.2986969834388,-3184.532151443328,0.0,0,18,0.0,47,130422922754965,58,34.152000427246094,-555.9537434329839,0.14999,16,0.0,0.0,1575420030,,,,0,16.402834514016256,1,6.0,34.152000427246094,0.0,0.0,0.0,66.7128,C,
Raw,1716207205000,40374000000,18,705171.8008863318,-1400242382626999808,0.0,57.2986969834388,-3184.532151443328,0.0,0,23,0.0,47,130422929171072,58,33.54199981689453,-523.5462106211608,0.14999,16,0.0,0.0,1575420030,,,,0,15.576175486548303,1,6.0,33.54199981689453,0.0,0.0,0.0,66.7128,C,
Raw,1716207205000,40374000000,18,705171.8008863318,-1400242382626999808,0.0,57.2986969834388,-3184.532151443328,0.0,0,26,0.0,47,130422919481534,51,36.42499923706055,-393.2669623825747,0.14999,16,0.0,0.0,1575420030,,,,0,18.934403102202538,1,6.0,36.42499923706055,0.0,0.0,0.0,66.7128,C,
Nav,10,257,1,-1,2,34,-63,11,23,10,-99,42,95,23,-65,-4,-3,10,3,106,-125,32,-44,30,-2,63,-9,-127,20,49,-106,-110,-117,5,-102,40,77,3,96,6,62,8,89,-97,-109
Nav,16,257,1,-1,2,34,-63,11,40,10,-99,42,96,16,-125,78,83,12,23,95,-79,63,57,-107,-77,2,-64,1,-6,8,33,-65,8,4,-120,40,91,3,-110,44,-107,8,89,-109,60
Nav,21,257,1,-1,2,34,-63,11,40,10,-99,42,96,16,-68,-14,67,12,85,-107,58,10,-92,122,-88,61,-118,-61,20,56,85,31,-31,3,39,40,94,3,97,84,21,8,89,-97,-84
Fix,FLP,33.8182373000,35.4907198000,30.899999618530273,0.17061254,6.234,300.88812,1716207204964,1.5,179.9,484384411000000,2.863752,0,,,
Status,1716207205000,49,0,1,10,1575420030,38.20,337.0,81.0,1,0,0,38.2
Status,1716207205000,49,1,1,27,1575420030,35.10,308.0,68.0,1,0,0,35.1
Status,1716207205000,49,2,1,23,1575420030,0.00,38.0,48.0,0,0,0,0.0
Status,1716207205000,49,3,2,126,1575420030,0.00,134.0,41.0,0,0,0,0.0
Status,1716207205000,49,4,1,32,1575420030,0.00,153.0,36.0,0,0,0,0.0
Status,1716207205000,49,5,1,16,1575420030,32.90,236.0,35.0,1,0,0,32.9
Status,1716207205000,49,6,1,8,1575420030,34.70,316.0,31.0,1,0,0,34.7
Status,1716207205000,49,7,1,18,1575420030,33.20,78.0,24.0,1,0,0,33.2
Status,1716207205000,49,8,1,26,1575420030,36.80,203.0,15.0,1,0,0,36.8
Status,1716207205000,49,9,1,1,1575420030,35.70,193.0,13.0,1,0,0,35.7
Status,1716207205000,49,10,1,21,1575420030,33.60,290.0,8.0,1,0,0,33.6
Status,1716207205000,49,11,1,15,1575420030,0.00,35.0,2.0,0,0,0,0.0
Status,1716207205000,49,12,3,1,1602000000,0.00,120.0,72.0,0,0,0,0.0
Status,1716207205000,49,13,3,24,1602000000,0.00,8.0,55.0,0,0,0,0.0
Status,1716207205000,49,14,3,23,1602000000,0.00,89.0,32.0,0,0,0,0.0
Status,1716207205000,49,15,3,2,1602000000,0.00,186.0,31.0,0,0,0,0.0
Status,1716207205000,49,16,3,8,1602000000,0.00,34.0,29.0,0,0,0,0.0
Status,1716207205000,49,17,3,17,1602000000,0.00,316.0,17.0,0,0,0,0.0
Status,1716207205000,49,18,3,15,1602000000,0.00,298.0,12.0,0,0,0,0.0
Status,1716207205000,49,19,3,14,1602000000,0.00,248.0,10.0,0,0,0,0.0
Status,1716207205000,49,20,6,14,1575420030,0.00,276.0,79.0,0,0,0,0.0
Status,1716207205000,49,21,6,26,1575420030,0.00,18.0,60.0,0,0,0,0.0
Status,1716207205000,49,22,6,7,1575420030,0.00,99.0,43.0,0,0,0,0.0
Status,1716207205000,49,23,6,33,1575420030,0.00,302.0,37.0,0,0,0,0.0
Status,1716207205000,49,24,6,13,1575420030,0.00,77.0,24.0,0,0,0,0.0
Status,1716207205000,49,25,6,31,1575420030,0.00,297.0,24.0,0,0,0,0.0
Status,1716207205000,49,26,6,21,1575420030,0.00,189.0,12.0,0,0,0,0.0
Status,1716207205000,49,27,5,48,1561097980,0.00,114.0,74.0,0,0,0,0.0
Status,1716207205000,49,28,5,29,1561097980,0.00,75.0,71.0,0,0,0,0.0
Status,1716207205000,49,29,5,19,1561097980,0.00,186.0,60.0,0,0,0,0.0
Status,1716207205000,49,30,5,20,1561097980,0.00,60.0,59.0,0,0,0,0.0
Status,1716207205000,49,31,5,5,1561097980,0.00,141.0,45.0,0,0,0,0.0
Status,1716207205000,49,32,5,56,1561097980,0.00,49.0,41.0,0,0,0,0.0
Status,1716207205000,49,33,5,60,1561097980,0.00,118.0,30.0,0,0,0,0.0
Status,1716207205000,49,34,5,2,1561097980,0.00,114.0,27.0,0,0,0,0.0
Status,1716207205000,49,35,5,13,1561097980,0.00,45.0,26.0,0,0,0,0.0
Status,1716207205000,49,36,5,30,1561097980,0.00,116.0,20.0,0,0,0,0.0
Status,1716207205000,49,37,5,8,1561097980,0.00,47.0,14.0,0,0,0,0.0
Status,1716207205000,49,38,5,22,1561097980,0.00,208.0,10.0,0,0,0,0.0
Status,1716207205000,49,39,5,39,1561097980,0.00,89.0,9.0,0,0,0,0.0
Status,1716207205000,49,40,5,32,1561097980,0.00,38.0,8.0,0,0,0,0.0
Status,1716207205000,49,41,5,6,1561097980,0.00,102.0,6.0,0,0,0,0.0
Status,1716207205000,49,42,5,16,1561097980,0.00,95.0,6.0,0,0,0,0.0
Status,1716207205000,49,43,5,3,1561097980,0.00,97.0,5.0,0,0,0,0.0
Status,1716207205000,49,44,5,38,1561097980,0.00,54.0,5.0,0,0,0,0.0
Status,1716207205000,49,45,5,9,1561097980,0.00,112.0,4.0,0,0,0,0.0
Status,1716207205000,49,46,5,61,1561097980,0.00,98.0,4.0,0,0,0,0.0
Status,1716207205000,49,47,5,26,1561097980,0.00,274.0,2.0,0,0,0,0.0
Status,1716207205000,49,48,5,45,1561097980,0.00,225.0,1.0,0,0,0,0.0
Fix,GPS,33.8182500000,35.4907200000,203.8,0.24912556,3.2,273.66,1716207206000,2.4,179.9,484385411000000,24.2,0,,,
Raw,1716207206000,41374000000,18,58.32825216260084,-1400242382626999808,0.0,58.32825216260084,-3214.053280132488,0.0,0,16,0.0,16431,130423924979016,58,32.88399887084961,-512.6853014547097,0.14999,16,0.0,0.0,1575420030,,,,0,14.949648612343832,1,6.0,32.88399887084961,0.0,0.0,0.0,66.7128,C,
Raw,1716207206000,41374000000,18,58.32825216260084,-1400242382626999808,0.0,58.32825216260084,-3214.053280132488,0.0,0,10,0.0,16431,130423932387445,51,38.159000396728516,-896.3579040135651,0.14999,16,0.0,0.0,1575420030,,,,0,18.523105821212738,1,6.0,38.159000396728516,0.0,0.0,0.0,66.7128,C,
Raw,1716207206000,41374000000,18,58.32825216260084,-1400242382626999808,0.0,58.32825216260084,-3214.053280132488,0.0,0,1,0.0,47,130423918566848,51,35.69900131225586,-335.66043107657185,0.14999,16,0.0,0.0,1575420030,,,,0,18.13061869347003,1,6.0,35.69900131225586,0.0,0.0,0.0,66.7128,C,
Raw,1716207206000,41374000000,18,58.32825216260084,-1400242382626999808,0.0,58.32825216260084,-3214.053280132488,0.0,0,21,0.0,16431,130423918847392,58,33.61899948120117,-1384.536437375632,0.14999,16,0.0,0.0,1575420030,,,,0,15.796740174176767,1,6.0,33.61899948120117,0.0,0.0,0.0,66.7128,C,
Raw,1716207206000,41374000000,18,58.32825216260084,-1400242382626999808,0.0,58.32825216260084,-3214.053280132488,0.0,0,27,0.0,47,130423932424779,58,35.066001892089844,-1149.280495202373,0.14999,16,0.0,0.0,1575420030,,,,0,17.42721237026196,1,6.0,35.066001892089844,0.0,0.0,0.0,66.7128,C,
Raw,1716207206000,41374000000,18,58.32825216260084,-1400242382626999808,0.0,58.32825216260084,-3214.053280132488,0.0,0,8,0.0,47,130423925516920,58,34.680999755859375,-1492.0457654116062,0.14999,16,0.0,0.0,1575420030,,,,0,16.991738236629278,1,6.0,34.680999755859375,0.0,0.0,0.0,66.7128,C,
Raw,1716207206000,41374000000,18,58.32825216260084,-1400242382626999808,0.0,58.32825216260084,-3214.053280132488,0.0,0,26,0.0,47,130423919482875,51,36.8129997253418,-402.1070698191159,0.14999,16,0.0,0.0,1575420030,,,,0,19.361164212809378,1,6.0,36.8129997253418,0.0,0.0,0.0,66.7128,C,
Raw,1716207206000,41374000000,18,58.32825216260084,-1400242382626999808,0.0,58.32825216260084,-3214.053280132488,0.0,0,18,0.0,47,130423922756683,58,33.237998962402344,-564.8941545901235,0.14999,16,0.0,0.0,1575420030,,,,0,15.363340589540854,1,6.0,33.237998962402344,0.0,0.0,0.0,66.7128,C,
Fix,FLP,33.8182481000,35.4907197000,30.899999618530273,0.23959848,6.105,273.35297,1716207205964,2.4,179.9,484385411000000,2.8737519,0,,,
