# 
# Header Description:
# 
# Version: v3.0.6.4 Platform: 14 Manufacturer: samsung Model: SM-S918B
# 
# Raw,utcTimeMillis,TimeNanos,LeapSecond,TimeUncertaintyNanos,FullBiasNanos,BiasNanos,BiasUncertaintyNanos,DriftNanosPerSecond,DriftUncertaintyNanosPerSecond,HardwareClockDiscontinuityCount,Svid,TimeOffsetNanos,State,ReceivedSvTimeNanos,ReceivedSvTimeUncertaintyNanos,Cn0DbHz,PseudorangeRateMetersPerSecond,PseudorangeRateUncertaintyMetersPerSecond,AccumulatedDeltaRangeState,AccumulatedDeltaRangeMeters,AccumulatedDeltaRangeUncertaintyMeters,CarrierFrequencyHz,CarrierCycles,CarrierPhase,CarrierPhaseUncertainty,MultipathIndicator,SnrInDb,ConstellationType,AgcDb,BasebandCn0DbHz,FullInterSignalBiasNanos,FullInterSignalBiasUncertaintyNanos,SatelliteInterSignalBiasNanos,SatelliteInterSignalBiasUncertaintyNanos,CodeType,ChipsetElapsedRealtimeNanos
# 
# UncalAccel,utcTimeMillis,elapsedRealtimeNanos,UncalAccelXMps2,UncalAccelYMps2,UncalAccelZMps2,BiasXMps2,BiasYMps2,BiasZMps2
# 
# Accel,utcTimeMillis,elapsedRealtimeNanos,AccelXMps2,AccelYMps2,AccelZMps2
# 
# UncalGyro,utcTimeMillis,elapsedRealtimeNanos,UncalGyroXRadPerSec,UncalGyroYRadPerSec,UncalGyroZRadPerSec,DriftXRadPerSec,DriftYRadPerSec,DriftZRadPerSec
# 
# Gyro,utcTimeMillis,elapsedRealtimeNanos,GyroXRadPerSec,GyroYRadPerSec,GyroZRadPerSec
# 
# UncalMag,utcTimeMillis,elapsedRealtimeNanos,UncalMagXMicroT,UncalMagYMicroT,UncalMagZMicroT,BiasXMicroT,BiasYMicroT,BiasZMicroT
# 
# Mag,utcTimeMillis,elapsedRealtimeNanos,MagXMicroT,MagYMicroT,MagZMicroT
# 
# OrientationDeg,utcTimeMillis,elapsedRealtimeNanos,yawDeg,rollDeg,pitchDeg
# 
# Fix,Provider,LatitudeDegrees,LongitudeDegrees,AltitudeMeters,SpeedMps,AccuracyMeters,BearingDegrees,UnixTimeMillis,SpeedAccuracyMps,BearingAccuracyDegrees,elapsedRealtimeNanos,VerticalAccuracyMeters,MockLocation,NumberOfUsedSignals,VerticalSpeedAccuracyMps,SolutionType
# 
# Nav,Svid,Type,Status,MessageId,Sub-messageId,Data(Bytes)
# 
# Status,UnixTimeMillis,SignalCount,SignalIndex,ConstellationType,Svid,CarrierFrequencyHz,Cn0DbHz,AzimuthDegrees,ElevationDegrees,UsedInFix,HasAlmanacData,HasEphemerisData,BasebandCn0DbHz
# 
# Agc,utcTimeMillis,TimeNanos,LeapSecond,TimeUncertaintyNanos,FullBiasNanos,BiasNanos,BiasUncertaintyNanos,DriftNanosPerSecond,DriftUncertaintyNanosPerSecond,HardwareClockDiscontinuityCount,AgcDb,CarrierFrequencyHz,ConstellationType
# 
Fix,FLP,30.0841590000,31.3516076000,51.00823721979724,0.076532535,7.141,,1715019878762,0.5676856,,12650324532858,5.489363,0,,,
Status,,28,0,1,1,1575420030,45.30,0.0,0.0,0,0,0,40.3
Status,,28,1,1,2,1575420030,45.30,179.51831,56.916965,1,0,1,40.3
Status,,28,2,1,3,1575420030,45.30,5.1632257,59.11508,1,0,1,40.3
Status,,28,3,1,4,1575420030,45.20,288.1119,65.27991,1,0,1,40.2
Status,,28,4,1,6,1575420030,45.70,323.94904,3.2263198,1,1,1,40.7
Status,,28,5,1,9,1575420030,45.50,254.01253,28.576563,1,0,1,40.5
Status,,28,6,1,16,1575420030,45.50,129.90749,0.517963,1,1,1,40.5
Status,,28,7,1,17,1575420030,45.30,276.97464,19.534582,1,1,1,40.3
Status,,28,8,1,19,1575420030,45.10,301.3628,12.330439,1,1,1,40.1
Status,,28,9,1,21,1575420030,45.70,167.73631,42.80251,1,1,1,40.7
Status,,28,10,1,26,1575420030,45.30,96.08256,8.199618,1,1,1,40.3
Status,,28,11,1,28,1575420030,45.30,40.077103,12.840792,1,1,1,40.3
Status,,28,12,1,31,1575420030,45.50,58.19274,37.33335,1,1,1,40.5
Status,,28,13,3,95,1599187460,38.40,0.0,0.0,0,0,0,33.4
Status,,28,14,3,6,1599750020,31.60,317.60678,43.84393,0,1,1,26.6
Status,,28,15,3,22,1600312450,35.20,331.12097,12.259118,0,1,1,30.2
Status,,28,16,3,16,1601437440,41.50,126.05081,21.248852,0,1,1,36.5
Status,,28,17,3,15,1602000000,41.90,69.66437,22.861506,0,1,1,36.9
Status,,28,18,3,5,1602562560,46.90,38.900696,27.143862,0,1,1,41.9
Status,,28,19,3,21,1604249980,40.00,292.28738,53.785194,0,1,1,35.0
Status,,28,20,3,7,1604812540,43.80,271.88803,13.605645,0,1,1,38.8
Status,,28,21,5,24,1561097980,31.00,0.0,0.0,0,0,0,26.0
Status,,28,22,5,22,1561097980,34.00,0.0,0.0,0,0,0,29.0
Status,,28,23,5,21,1561097980,41.40,0.0,0.0,0,0,0,36.4
Status,,28,24,6,4,1575420030,39.30,40.517635,37.01139,0,1,1,34.3
Status,,28,25,6,10,1575420030,38.70,155.06999,33.664112,0,1,1,33.7
Status,,28,26,6,31,1575420030,37.80,124.683685,4.4637623,0,1,1,32.8
Status,,28,27,6,36,1575420030,40.90,307.34735,60.388638,0,1,1,35.9
Raw,1715019878592,12023684000000,,0.0,-1399043072908145672,-0.7385520935058594,15000060.081481934,-7.616690226376673,10.072168322019868,1,1,0.0,1,336566,5,50.3,-318.7323913574219,0.20350000262260437,16,0.0,0.0,1575420030,,,,0,0.0,1,-53.66,45.3,0.0,0.0,,,C,12650148191556
Raw,1715019878592,12023684000000,,0.0,-1399043072908145672,-0.7385520935058594,15000060.081481934,-7.616690226376673,10.072168322019868,1,2,0.0,1,77572,5,50.3,352.6332092285156,0.21700000762939453,16,0.0,0.0,1575420030,,,,0,0.0,1,-53.66,45.3,0.0,0.0,,,C,12650148191556
Raw,1715019878592,12023684000000,,0.0,-1399043072908145672,-0.7385520935058594,15000060.081481934,-7.616690226376673,10.072168322019868,1,3,0.0,1,146936,5,50.3,-117.82032775878906,0.2199999988079071,16,0.0,0.0,1575420030,,,,0,0.0,1,-53.66,45.3,0.0,0.0,,,C,12650148191556
Raw,1715019878592,12023684000000,,0.0,-1399043072908145672,-0.7385520935058594,15000060.081481934,-7.616690226376673,10.072168322019868,1,4,0.0,1,439597,5,50.2,-79.99945831298828,0.20499999821186066,16,0.0,0.0,1575420030,,,,0,0.0,1,-53.66,45.2,0.0,0.0,,,C,12650148191556
Raw,1715019878592,12023684000000,,0.0,-1399043072908145672,-0.7385520935058594,15000060.081481934,-7.616690226376673,10.072168322019868,1,6,0.0,1,442611,5,50.7,-667.76904296875,0.2019999921321869,16,0.0,0.0,1575420030,,,,0,0.0,1,-53.66,45.7,0.0,0.0,,,C,12650148191556
Raw,1715019878592,12023684000000,,0.0,-1399043072908145672,-0.7385520935058594,15000060.081481934,-7.616690226376673,10.072168322019868,1,9,0.0,1,850114,5,50.5,-428.5223388671875,0.2094999998807907,16,0.0,0.0,1575420030,,,,0,0.0,1,-53.66,45.5,0.0,0.0,,,C,12650148191556
Raw,1715019878592,12023684000000,,0.0,-1399043072908145672,-0.7385520935058594,15000060.081481934,-7.616690226376673,10.072168322019868,1,16,0.0,1,343883,5,50.5,-431.8049011230469,0.19599999487400055,16,0.0,0.0,1575420030,,,,0,0.0,1,-53.66,45.5,0.0,0.0,,,C,12650148191556
Raw,1715019878592,12023684000000,,0.0,-1399043072908145672,-0.7385520935058594,15000060.081481934,-7.616690226376673,10.072168322019868,1,17,0.0,1,880812,5,50.3,121.58814239501953,0.20350000262260437,16,0.0,0.0,1575420030,,,,0,0.0,1,-53.66,45.3,0.0,0.0,,,C,12650148191556
Raw,1715019878592,12023684000000,,0.0,-1399043072908145672,-0.7385520935058594,15000060.081481934,-7.616690226376673,10.072168322019868,1,19,0.0,1,872125,5,50.1,-106.4407730102539,0.19599999487400055,16,0.0,0.0,1575420030,,,,0,0.0,1,-53.66,45.1,0.0,0.0,,,C,12650148191556
Raw,1715019878592,12023684000000,,0.0,-1399043072908145672,-0.7385520935058594,15000060.081481934,-7.616690226376673,10.072168322019868,1,21,0.0,1,852714,5,50.7,468.1604919433594,0.19749999046325684,16,0.0,0.0,1575420030,,,,0,0.0,1,-53.66,45.7,0.0,0.0,,,C,12650148191556
Raw,1715019878592,12023684000000,,0.0,-1399043072908145672,-0.7385520935058594,15000060.081481934,-7.616690226376673,10.072168322019868,1,26,0.0,1,20559,5,50.3,-299.9408874511719,0.210999995470047,16,0.0,0.0,1575420030,,,,0,0.0,1,-53.66,45.3,0.0,0.0,,,C,12650148191556
Raw,1715019878592,12023684000000,,0.0,-1399043072908145672,-0.7385520935058594,15000060.081481934,-7.616690226376673,10.072168322019868,1,28,0.0,1,490055,5,50.3,574.4585571289062,0.20499999821186066,16,0.0,0.0,1575420030,,,,0,0.0,1,-53.66,45.3,0.0,0.0,,,C,12650148191556
Raw,1715019878592,12023684000000,,0.0,-1399043072908145672,-0.7385520935058594,15000060.081481934,-7.616690226376673,10.072168322019868,1,31,0.0,1,720351,5,50.5,337.6761169433594,0.19900000095367432,16,0.0,0.0,1575420030,,,,0,0.0,1,-53.66,45.5,0.0,0.0,,,C,12650148191556
Raw,1715019878592,12023684000000,,0.0,-1399043072908145672,-0.7385520935058594,15000060.081481934,-7.616690226376673,10.072168322019868,1,6,0.0,1,508038,21,35.6,-137.72930908203125,0.9600000381469727,16,0.0,0.0,1599750020,,,,0,0.0,3,-53.12,31.6,3800.000732421875,20000.0,,,C,12650148191556
Raw,1715019878592,12023684000000,,0.0,-1399043072908145672,-0.7385520935058594,15000060.081481934,-7.616690226376673,10.072168322019868,1,24,0.0,1,414728,21,35.3,-943.2883911132812,50.14250183105469,16,0.0,0.0,1561097980,,,,0,0.0,5,-59.43,30.999999999999996,-1582.0,20000.0,,,I,12650148191556
Raw,1715019878592,12023684000000,,0.0,-1399043072908145672,-0.7385520935058594,15000060.081481934,-7.616690226376673,10.072168322019868,1,21,0.0,1,381909,8,45.7,-136.6745147705078,50.64649963378906,16,0.0,0.0,1561097980,,,,0,0.0,5,-59.43,41.400000000000006,-1582.0,20000.0,,,I,12650148191556
Raw,1715019878592,12023684000000,,0.0,-1399043072908145672,-0.7385520935058594,15000060.081481934,-7.616690226376673,10.072168322019868,1,4,0.0,1025,927222,10,43.6,347.3335266113281,1.287000060081482,16,0.0,0.0,1575420030,,,,0,0.0,6,-55.99,39.300000000000004,-1466.0,20000.0,,,C,12650148191556
Raw,1715019878592,12023684000000,,0.0,-1399043072908145672,-0.7385520935058594,15000060.081481934,-7.616690226376673,10.072168322019868,1,10,0.0,1025,672114,11,43.0,520.500732421875,1.224000096321106,16,0.0,0.0,1575420030,,,,0,0.0,6,-55.99,38.7,-1466.0,20000.0,,,C,12650148191556
Raw,1715019878592,12023684000000,,0.0,-1399043072908145672,-0.7385520935058594,15000060.081481934,-7.616690226376673,10.072168322019868,1,31,0.0,1025,545979,12,42.1,-418.436767578125,0.9739999771118164,16,0.0,0.0,1575420030,,,,0,0.0,6,-55.99,37.800000000000004,-1466.0,20000.0,,,C,12650148191556
Raw,1715019878592,12023684000000,,0.0,-1399043072908145672,-0.7385520935058594,15000060.081481934,-7.616690226376673,10.072168322019868,1,36,0.0,1025,642632,9,45.2,-185.49826049804688,1.3070001602172852,16,0.0,0.0,1575420030,,,,0,0.0,6,-55.99,40.900000000000006,-1466.0,20000.0,,,C,12650148191556
Agc,1715019878592,12023684000000,,0.0,-1399043072908145672,-0.7385520935058594,15000060.081481934,-7.616690226376673,10.072168322019868,1,-53.66,1575420000,1
Agc,1715019878592,12023684000000,,0.0,-1399043072908145672,-0.7385520935058594,15000060.081481934,-7.616690226376673,10.072168322019868,1,-53.12,1602000000,3
Agc,1715019878592,12023684000000,,0.0,-1399043072908145672,-0.7385520935058594,15000060.081481934,-7.616690226376673,10.072168322019868,1,-59.43,1561098000,5
Agc,1715019878592,12023684000000,,0.0,-1399043072908145672,-0.7385520935058594,15000060.081481934,-7.616690226376673,10.072168322019868,1,-55.99,1575420000,6
Agc,1715019878592,12023684000000,,0.0,-1399043072908145672,-0.7385520935058594,15000060.081481934,-7.616690226376673,10.072168322019868,1,-39.59,1176450000,1
Agc,1715019878592,12023684000000,,0.0,-1399043072908145672,-0.7385520935058594,15000060.081481934,-7.616690226376673,10.072168322019868,1,-39.59,1176450000,4
Agc,1715019878592,12023684000000,,0.0,-1399043072908145672,-0.7385520935058594,15000060.081481934,-7.616690226376673,10.072168322019868,1,-39.59,1176450000,6
Agc,1715019878592,12023684000000,,0.0,-1399043072908145672,-0.7385520935058594,15000060.081481934,-7.616690226376673,10.072168322019868,1,-39.59,1176450000,5
Agc,1715019878592,12023684000000,,0.0,-1399043072908145672,-0.7385520935058594,15000060.081481934,-7.616690226376673,10.072168322019868,1,-55.99,1575420000,5
Fix,GPS,30.4932252100,32.0857185500,360.56317138671875,34.02,77.05658,40.1,1715019879771,2.5651321,4.865908,12651327192181,202.74812,0,,,
Fix,FLP,30.4932252000,32.0857186000,51.557583396462235,34.02,77.057,40.0,1715019879765,2.5651321,4.865908,12651327192181,5.4846087,0,,,
Fix,NLP,32.1193101000,34.9032761000,,,600.0,,1715019877420,,,12648981000000,,0,,,
Status,1715019879771,29,0,1,1,1575420030,44.60,0.0,0.0,0,0,0,39.6
Status,1715019879771,29,1,1,2,1575420030,44.30,179.51831,56.916965,0,0,1,39.3
Status,1715019879771,29,2,1,3,1575420030,43.70,5.1632257,59.11508,0,0,1,38.7
Status,1715019879771,29,3,1,4,1575420030,43.90,288.1119,65.27991,0,0,1,38.9
Status,1715019879771,29,4,1,6,1575420030,45.10,323.94904,3.2263198,0,1,1,40.1
Status,1715019879771,29,5,1,9,1575420030,44.40,254.01253,28.576563,0,0,1,39.4
Status,1715019879771,29,6,1,16,1575420030,44.50,129.90749,0.517963,0,1,1,39.5
Status,1715019879771,29,7,1,17,1575420030,44.50,276.97464,19.534582,0,1,1,39.5
Status,1715019879771,29,8,1,19,1575420030,44.60,301.3628,12.330439,1,1,1,39.6
Status,1715019879771,29,9,1,21,1575420030,44.30,167.73631,42.80251,0,1,1,39.3
Status,1715019879771,29,10,1,26,1575420030,44.70,96.08256,8.199618,0,1,1,39.7
Status,1715019879771,29,11,1,28,1575420030,44.50,40.077103,12.840792,0,1,1,39.5
Status,1715019879771,29,12,1,31,1575420030,44.20,58.19274,37.33335,0,1,1,39.2
Status,1715019879771,29,13,3,95,1599187460,36.60,0.0,0.0,0,0,0,31.6
Status,1715019879771,29,14,3,6,1599750020,31.60,317.60678,43.84393,0,1,1,26.6
Status,1715019879771,29,15,3,22,1600312450,31.80,331.12097,12.259118,0,1,1,26.8
Status,1715019879771,29,16,3,16,1601437440,41.60,126.05081,21.248852,0,1,1,36.6
Status,1715019879771,29,17,3,15,1602000000,43.10,69.66437,22.861506,0,1,1,38.1
Status,1715019879771,29,18,3,5,1602562560,44.20,38.900696,27.143862,0,1,1,39.2
Status,1715019879771,29,19,3,21,1604249980,35.50,292.28738,53.785194,0,1,1,30.5
Status,1715019879771,29,20,3,7,1604812540,42.80,271.88803,13.605645,0,1,1,37.8
Status,1715019879771,29,21,5,36,1561097980,45.40,0.0,0.0,0,0,0,40.4
Status,1715019879771,29,22,5,24,1561097980,31.00,0.0,0.0,0,0,0,26.0
Status,1715019879771,29,23,5,22,1561097980,34.00,0.0,0.0,0,0,0,29.0
Status,1715019879771,29,24,5,21,1561097980,41.80,0.0,0.0,0,0,0,36.8
Status,1715019879771,29,25,6,4,1575420030,39.30,40.517635,37.01139,1,1,1,34.3
Status,1715019879771,29,26,6,10,1575420030,36.30,155.06999,33.664112,1,1,1,31.3
Status,1715019879771,29,27,6,31,1575420030,37.80,124.683685,4.4637623,1,1,1,32.8
Status,1715019879771,29,28,6,36,1575420030,38.10,307.34735,60.388638,1,1,1,33.1
Raw,1715019879592,12024684000000,,0.0,-1399043072908265155,-0.7326316833496094,15000329.971313477,-89.34627486682388,18.05599342846141,1,2,0.0,35,8076442,6,49.3,352.6878662109375,0.03479208052158356,16,0.0,0.0,1575420030,,,,0,0.0,1,-53.86,44.3,0.0,0.0,,,C,12651146342337
Raw,1715019879592,12024684000000,,0.0,-1399043072908265155,-0.7326316833496094,15000329.971313477,-89.34627486682388,18.05599342846141,1,3,0.0,35,10147351,6,48.7,-117.91407012939453,0.017305873334407806,16,0.0,0.0,1575420030,,,,0,0.0,1,-53.86,43.7,0.0,0.0,,,C,12651146342337
Raw,1715019879592,12024684000000,,0.0,-1399043072908265155,-0.7326316833496094,15000329.971313477,-89.34627486682388,18.05599342846141,1,4,0.0,35,10439920,6,48.9,-80.08171844482422,0.032305873930454254,16,0.0,0.0,1575420030,,,,0,0.0,1,-53.86,43.9,0.0,0.0,,,C,12651146342337
Raw,1715019879592,12024684000000,,0.0,-1399043072908265155,-0.7326316833496094,15000329.971313477,-89.34627486682388,18.05599342846141,1,6,0.0,35,14444884,5,50.1,-667.8943481445312,0.025506641715765,16,0.0,0.0,1575420030,,,,0,0.0,1,-53.86,45.1,0.0,0.0,,,C,12651146342337
Raw,1715019879592,12024684000000,,0.0,-1399043072908265155,-0.7326316833496094,15000329.971313477,-89.34627486682388,18.05599342846141,1,9,0.0,35,2851586,6,49.4,-428.4249267578125,0.043792080134153366,16,0.0,0.0,1575420030,,,,0,0.0,1,-53.86,44.4,0.0,0.0,,,C,12651146342337
Raw,1715019879592,12024684000000,,0.0,-1399043072908265155,-0.7326316833496094,15000329.971313477,-89.34627486682388,18.05599342846141,1,16,0.0,35,13345366,6,49.5,-431.9541015625,0.027292080223560333,16,0.0,0.0,1575420030,,,,0,0.0,1,-53.86,44.5,0.0,0.0,,,C,12651146342337
Raw,1715019879592,12024684000000,,0.0,-1399043072908265155,-0.7326316833496094,15000329.971313477,-89.34627486682388,18.05599342846141,1,17,0.0,35,19880439,6,49.5,121.7031021118164,0.04829208180308342,16,0.0,0.0,1575420030,,,,0,0.0,1,-53.86,44.5,0.0,0.0,,,C,12651146342337
Raw,1715019879592,12024684000000,,0.0,-1399043072908265155,-0.7326316833496094,15000329.971313477,-89.34627486682388,18.05599342846141,1,19,0.0,35,18872501,6,49.6,-106.40039825439453,0.01979207992553711,16,0.0,0.0,1575420030,,,,0,0.0,1,-53.86,44.6,0.0,0.0,,,C,12651146342337
Raw,1715019879592,12024684000000,,0.0,-1399043072908265155,-0.7326316833496094,15000329.971313477,-89.34627486682388,18.05599342846141,1,21,0.0,35,4851202,6,49.3,468.20916748046875,0.040792081505060196,16,0.0,0.0,1575420030,,,,0,0.0,1,-53.86,44.3,0.0,0.0,,,C,12651146342337
Raw,1715019879592,12024684000000,,0.0,-1399043072908265155,-0.7326316833496094,15000329.971313477,-89.34627486682388,18.05599342846141,1,26,0.0,35,17021614,6,49.7,-299.9489440917969,0.021292081102728844,16,0.0,0.0,1575420030,,,,0,0.0,1,-53.86,44.7,0.0,0.0,,,C,12651146342337
Raw,1715019879592,12024684000000,,0.0,-1399043072908265155,-0.7326316833496094,15000329.971313477,-89.34627486682388,18.05599342846141,1,28,0.0,35,17488186,6,49.5,574.6074829101562,0.021292081102728844,16,0.0,0.0,1575420030,,,,0,0.0,1,-53.86,44.5,0.0,0.0,,,C,12651146342337
Raw,1715019879592,12024684000000,,0.0,-1399043072908265155,-0.7326316833496094,15000329.971313477,-89.34627486682388,18.05599342846141,1,31,0.0,35,5719268,6,49.2,337.71685791015625,0.03929208219051361,16,0.0,0.0,1575420030,,,,0,0.0,1,-53.86,44.2,0.0,0.0,,,C,12651146342337
Raw,1715019879592,12024684000000,,0.0,-1399043072908265155,-0.7326316833496094,15000329.971313477,-89.34627486682388,18.05599342846141,1,22,0.0,35,19946207,21,35.8,-665.44677734375,0.5699999928474426,16,0.0,0.0,1600312450,,,,0,0.0,3,-53.07,31.799999999999997,3800.000732421875,20000.0,,,C,12651146342337
Raw,1715019879592,12024684000000,,0.0,-1399043072908265155,-0.7326316833496094,15000329.971313477,-89.34627486682388,18.05599342846141,1,16,0.0,35,3184268,8,45.6,-644.78955078125,0.2840000092983246,16,0.0,0.0,1601437440,,,,0,0.0,3,-53.07,41.6,3800.000732421875,20000.0,,,C,12651146342337
Raw,1715019879592,12024684000000,,0.0,-1399043072908265155,-0.7326316833496094,15000329.971313477,-89.34627486682388,18.05599342846141,1,15,0.0,35,4501725,6,47.1,-118.40118408203125,0.2524999976158142,16,0.0,0.0,1602000000,,,,0,0.0,3,-53.07,43.1,3800.000732421875,20000.0,,,C,12651146342337
Raw,1715019879592,12024684000000,,0.0,-1399043072908265155,-0.7326316833496094,15000329.971313477,-89.34627486682388,18.05599342846141,1,5,0.0,35,5771906,6,48.2,362.54296875,0.23100000619888306,16,0.0,0.0,1602562560,,,,0,0.0,3,-53.07,44.2,3800.000732421875,20000.0,,,C,12651146342337
Raw,1715019879592,12024684000000,,0.0,-1399043072908265155,-0.7326316833496094,15000329.971313477,-89.34627486682388,18.05599342846141,1,21,0.0,35,10281926,14,39.5,-70.5168685913086,0.41350001096725464,16,0.0,0.0,1604249980,,,,0,0.0,3,-53.07,35.5,3800.000732421875,20000.0,,,C,12651146342337
Raw,1715019879592,12024684000000,,0.0,-1399043072908265155,-0.7326316833496094,15000329.971313477,-89.34627486682388,18.05599342846141,1,7,0.0,35,19186832,7,46.8,-401.15240478515625,0.23999999463558197,16,0.0,0.0,1604812540,,,,0,0.0,3,-53.07,42.8,3800.000732421875,20000.0,,,C,12651146342337
Raw,1715019879592,12024684000000,,0.0,-1399043072908265155,-0.7326316833496094,15000329.971313477,-89.34627486682388,18.05599342846141,1,36,0.0,1,689710,5,49.7,64.96696472167969,50.37049865722656,16,0.0,0.0,1561097980,,,,0,0.0,5,-59.74,45.400000000000006,-1582.0,20000.0,,,I,12651146342337
Raw,1715019879592,12024684000000,,0.0,-1399043072908265155,-0.7326316833496094,15000329.971313477,-89.34627486682388,18.05599342846141,1,21,0.0,35,1382419,8,46.1,-149.60836791992188,0.5220000147819519,16,0.0,0.0,1561097980,,,,0,0.0,5,-59.74,41.800000000000004,-1582.0,20000.0,,,I,12651146342337
Raw,1715019879592,12024684000000,,0.0,-1399043072908265155,-0.7326316833496094,15000329.971313477,-89.34627486682388,18.05599342846141,1,10,0.0,3107,11670358,13,40.6,521.889892578125,0.41600000858306885,16,0.0,0.0,1575420030,,,,0,0.0,6,-56.09,36.300000000000004,1626239.125,1439.9134521484375,,,C,12651146342337
Raw,1715019879592,12024684000000,,0.0,-1399043072908265155,-0.7326316833496094,15000329.971313477,-89.34627486682388,18.05599342846141,1,36,0.0,3107,17643266,11,42.4,-185.91397094726562,0.009698336943984032,16,0.0,0.0,1575420030,,,,0,0.0,6,-56.09,38.1,1626239.125,1439.9134521484375,,,C,12651146342337
Agc,1715019879592,12024684000000,,0.0,-1399043072908265155,-0.7326316833496094,15000329.971313477,-89.34627486682388,18.05599342846141,1,-53.86,1575420000,1
Agc,1715019879592,12024684000000,,0.0,-1399043072908265155,-0.7326316833496094,15000329.971313477,-89.34627486682388,18.05599342846141,1,-53.07,1602000000,3
Agc,1715019879592,12024684000000,,0.0,-1399043072908265155,-0.7326316833496094,15000329.971313477,-89.34627486682388,18.05599342846141,1,-59.74,1561098000,5
Agc,1715019879592,12024684000000,,0.0,-1399043072908265155,-0.7326316833496094,15000329.971313477,-89.34627486682388,18.05599342846141,1,-56.09,1575420000,6
Agc,1715019879592,12024684000000,,0.0,-1399043072908265155,-0.7326316833496094,15000329.971313477,-89.34627486682388,18.05599342846141,1,-39.43,1176450000,1
Agc,1715019879592,12024684000000,,0.0,-1399043072908265155,-0.7326316833496094,15000329.971313477,-89.34627486682388,18.05599342846141,1,-39.43,1176450000,4
Agc,1715019879592,12024684000000,,0.0,-1399043072908265155,-0.7326316833496094,15000329.971313477,-89.34627486682388,18.05599342846141,1,-39.43,1176450000,6
Agc,1715019879592,12024684000000,,0.0,-1399043072908265155,-0.7326316833496094,15000329.971313477,-89.34627486682388,18.05599342846141,1,-39.43,1176450000,5
Agc,1715019879592,12024684000000,,0.0,-1399043072908265155,-0.7326316833496094,15000329.971313477,-89.34627486682388,18.05599342846141,1,-56.09,1575420000,5
Fix,GPS,30.0841471800,31.3516066500,179.30596923828125,0.0,8.744409,,1715019880771,0.465886,,12652325343690,11.137352,0,,,
Fix,FLP,30.0841472000,31.3516067000,51.294451726994495,0.0,8.744,,1715019880764,0.465886,,12652325343690,5.9074917,0,,,
Status,1715019880771,32,0,1,1,1575420030,44.80,0.0,0.0,0,0,0,39.8
Status,1715019880771,32,1,1,2,1575420030,44.60,179.51607,56.899605,1,0,1,39.6
Status,1715019880771,32,2,1,3,1575420030,45.30,5.192288,59.120907,1,0,1,40.3
Status,1715019880771,32,3,1,4,1575420030,44.50,288.15112,65.28405,1,0,1,39.5
Status,1715019880771,32,4,1,6,1575420030,43.80,323.94846,3.2389076,1,1,1,38.8
Status,1715019880771,32,5,1,9,1575420030,44.80,254.02684,28.586449,1,0,1,39.8
Status,1715019880771,32,6,1,16,1575420030,43.80,129.89532,0.52489036,1,1,1,38.8
Status,1715019880771,32,7,1,17,1575420030,44.00,276.95908,19.531042,1,1,1,39.0
Status,1715019880771,32,8,1,19,1575420030,45.50,301.34805,12.332279,1,1,1,40.5
Status,1715019880771,32,9,1,21,1575420030,44.70,167.73882,42.78647,1,1,1,39.7
Status,1715019880771,32,10,1,26,1575420030,44.50,96.06858,8.205105,1,1,1,39.5
Status,1715019880771,32,11,1,28,1575420030,45.10,40.070858,12.829324,1,1,1,40.1
Status,1715019880771,32,12,1,31,1575420030,45.00,58.176662,37.324512,1,1,1,40.0
Status,1715019880771,32,13,3,14,1598062460,29.40,25.336071,1.3508474,0,1,1,24.4
Status,1715019880771,32,14,3,95,1599187460,38.80,0.0,0.0,0,0,0,33.8
Status,1715019880771,32,15,3,6,1599750020,31.60,317.63214,43.846195,0,1,1,26.6
Status,1715019880771,32,16,3,22,1600312450,27.90,331.11383,12.272815,0,1,1,22.9
Status,1715019880771,32,17,3,16,1601437440,42.90,126.03736,21.262136,0,1,1,37.9
Status,1715019880771,32,18,3,15,1602000000,40.40,69.64515,22.863892,0,1,1,35.4
Status,1715019880771,32,19,3,5,1602562560,44.70,38.916805,27.134586,0,1,1,39.7
Status,1715019880771,32,20,3,21,1604249980,40.80,292.2544,53.789684,0,1,1,35.8
Status,1715019880771,32,21,3,7,1604812540,42.90,271.90457,13.613073,0,1,1,37.9
Status,1715019880771,32,22,5,45,1561097980,39.50,0.0,0.0,0,0,0,34.5
Status,1715019880771,32,23,5,39,1561097980,40.70,0.0,0.0,0,0,0,35.7
Status,1715019880771,32,24,5,36,1561097980,45.40,0.0,0.0,0,0,0,40.4
Status,1715019880771,32,25,5,24,1561097980,31.00,0.0,0.0,0,0,0,26.0
Status,1715019880771,32,26,5,22,1561097980,43.20,0.0,0.0,0,0,0,38.2
Status,1715019880771,32,27,5,21,1561097980,43.90,0.0,0.0,0,0,0,38.9
Status,1715019880771,32,28,6,4,1575420030,39.30,40.523903,37.001472,0,1,1,34.3
Status,1715019880771,32,29,6,10,1575420030,39.10,155.07664,33.651497,0,1,1,34.1
Status,1715019880771,32,30,6,31,1575420030,37.80,124.67412,4.4710326,0,1,1,32.8
Status,1715019880771,32,31,6,36,1575420030,40.20,307.32822,60.39806,0,1,1,35.2
Raw,1715019880592,12025684000000,,0.0,-1399043072908145632,-0.6842308044433594,15000072.479248047,-8.111624815213613,10.221069162559907,1,2,0.0,35,8075323,6,49.6,352.5431213378906,0.03479208052158356,16,0.0,0.0,1575420030,,,,0,0.0,1,-53.81,44.6,0.0,0.0,,,C,12652141704264
Raw,1715019880592,12025684000000,,0.0,-1399043072908145632,-0.6842308044433594,15000072.479248047,-8.111624815213613,10.221069162559907,1,3,0.0,35,10147833,5,50.3,-118.11071014404297,0.03150664269924164,16,0.0,0.0,1575420030,,,,0,0.0,1,-53.81,45.3,0.0,0.0,,,C,12652141704264
Raw,1715019880592,12025684000000,,0.0,-1399043072908145632,-0.6842308044433594,15000072.479248047,-8.111624815213613,10.221069162559907,1,4,0.0,35,10440252,6,49.5,-80.24356842041016,0.03179208189249039,16,0.0,0.0,1575420030,,,,0,0.0,1,-53.81,44.5,0.0,0.0,,,C,12652141704264
Raw,1715019880592,12025684000000,,0.0,-1399043072908145632,-0.6842308044433594,15000072.479248047,-8.111624815213613,10.221069162559907,1,6,0.0,35,14447166,6,48.8,-668.1034545898438,0.026305874809622765,16,0.0,0.0,1575420030,,,,0,0.0,1,-53.81,43.8,0.0,0.0,,,C,12652141704264
Raw,1715019880592,12025684000000,,0.0,-1399043072908145632,-0.6842308044433594,15000072.479248047,-8.111624815213613,10.221069162559907,1,9,0.0,35,2853077,6,49.8,-428.60546875,0.043792080134153366,16,0.0,0.0,1575420030,,,,0,0.0,1,-53.81,44.8,0.0,0.0,,,C,12652141704264
Raw,1715019880592,12025684000000,,0.0,-1399043072908145632,-0.6842308044433594,15000072.479248047,-8.111624815213613,10.221069162559907,1,16,0.0,35,13346871,6,48.8,-432.2164001464844,0.02780587412416935,16,0.0,0.0,1575420030,,,,0,0.0,1,-53.81,43.8,0.0,0.0,,,C,12652141704264
Raw,1715019880592,12025684000000,,0.0,-1399043072908145632,-0.6842308044433594,15000072.479248047,-8.111624815213613,10.221069162559907,1,17,0.0,35,19880106,6,49.0,121.56248474121094,0.04829208180308342,16,0.0,0.0,1575420030,,,,0,0.0,1,-53.81,44.0,0.0,0.0,,,C,12652141704264
Raw,1715019880592,12025684000000,,0.0,-1399043072908145632,-0.6842308044433594,15000072.479248047,-8.111624815213613,10.221069162559907,1,19,0.0,35,18872922,5,50.5,-106.52281951904297,0.01950664073228836,16,0.0,0.0,1575420030,,,,0,0.0,1,-53.81,45.5,0.0,0.0,,,C,12652141704264
Raw,1715019880592,12025684000000,,0.0,-1399043072908145632,-0.6842308044433594,15000072.479248047,-8.111624815213613,10.221069162559907,1,21,0.0,35,4849701,6,49.7,468.0397644042969,0.040792081505060196,16,0.0,0.0,1575420030,,,,0,0.0,1,-53.81,44.7,0.0,0.0,,,C,12652141704264
Raw,1715019880592,12025684000000,,0.0,-1399043072908145632,-0.6842308044433594,15000072.479248047,-8.111624815213613,10.221069162559907,1,26,0.0,35,17022667,6,49.5,-300.1363830566406,0.021292081102728844,16,0.0,0.0,1575420030,,,,0,0.0,1,-53.81,44.5,0.0,0.0,,,C,12652141704264
Raw,1715019880592,12025684000000,,0.0,-1399043072908145632,-0.6842308044433594,15000072.479248047,-8.111624815213613,10.221069162559907,1,28,0.0,35,17486334,5,50.1,574.4328002929688,0.021006640046834946,16,0.0,0.0,1575420030,,,,0,0.0,1,-53.81,45.1,0.0,0.0,,,C,12652141704264
Raw,1715019880592,12025684000000,,0.0,-1399043072908145632,-0.6842308044433594,15000072.479248047,-8.111624815213613,10.221069162559907,1,31,0.0,35,5718198,5,50.0,337.60894775390625,0.03900664299726486,16,0.0,0.0,1575420030,,,,0,0.0,1,-53.81,45.0,0.0,0.0,,,C,12652141704264
Raw,1715019880592,12025684000000,,0.0,-1399043072908145632,-0.6842308044433594,15000072.479248047,-8.111624815213613,10.221069162559907,1,14,0.0,1,45990,27,33.4,434.1380310058594,1.215000033378601,16,0.0,0.0,1598062460,,,,0,0.0,3,-53.09,29.4,3800.000732421875,20000.0,,,C,12652141704264
Raw,1715019880592,12025684000000,,0.0,-1399043072908145632,-0.6842308044433594,15000072.479248047,-8.111624815213613,10.221069162559907,1,22,0.0,35,19948568,35,31.9,-666.26171875,0.7549999952316284,16,0.0,0.0,1600312450,,,,0,0.0,3,-53.09,27.9,3800.000732421875,20000.0,,,C,12652141704264
Raw,1715019880592,12025684000000,,0.0,-1399043072908145632,-0.6842308044433594,15000072.479248047,-8.111624815213613,10.221069162559907,1,16,0.0,35,3186406,7,46.9,-644.9512939453125,0.043137166649103165,16,0.0,0.0,1601437440,,,,0,0.0,3,-53.09,42.9,3800.000732421875,20000.0,,,C,12652141704264
Raw,1715019880592,12025684000000,,0.0,-1399043072908145632,-0.6842308044433594,15000072.479248047,-8.111624815213613,10.221069162559907,1,15,0.0,35,4502105,9,44.4,-118.33057403564453,0.042721107602119446,16,0.0,0.0,1602000000,,,,0,0.0,3,-53.09,40.4,3800.000732421875,20000.0,,,C,12652141704264
Raw,1715019880592,12025684000000,,0.0,-1399043072908145632,-0.6842308044433594,15000072.479248047,-8.111624815213613,10.221069162559907,1,5,0.0,35,5770708,6,48.7,362.26165771484375,0.03923632577061653,16,0.0,0.0,1602562560,,,,0,0.0,3,-53.09,44.7,3800.000732421875,20000.0,,,C,12652141704264
Raw,1715019880592,12025684000000,,0.0,-1399043072908145632,-0.6842308044433594,15000072.479248047,-8.111624815213613,10.221069162559907,1,21,0.0,35,10282088,9,44.8,-70.68505096435547,0.2784999907016754,16,0.0,0.0,1604249980,,,,0,0.0,3,-53.09,40.8,3800.000732421875,20000.0,,,C,12652141704264
Raw,1715019880592,12025684000000,,0.0,-1399043072908145632,-0.6842308044433594,15000072.479248047,-8.111624815213613,10.221069162559907,1,7,0.0,35,19188172,7,46.9,-401.544677734375,0.22499999403953552,16,0.0,0.0,1604812540,,,,0,0.0,3,-53.09,42.9,3800.000732421875,20000.0,,,C,12652141704264
Raw,1715019880592,12025684000000,,0.0,-1399043072908145632,-0.6842308044433594,15000072.479248047,-8.111624815213613,10.221069162559907,1,45,0.0,1,375192,10,43.8,-405.5777893066406,50.23249816894531,16,0.0,0.0,1561097980,,,,0,0.0,5,-58.97,39.5,-1582.0,20000.0,,,I,12652141704264
Raw,1715019880592,12025684000000,,0.0,-1399043072908145632,-0.6842308044433594,15000072.479248047,-8.111624815213613,10.221069162559907,1,39,0.0,1,932231,9,45.0,132.18077087402344,50.67649841308594,16,0.0,0.0,1561097980,,,,0,0.0,5,-58.97,40.7,-1582.0,20000.0,,,I,12652141704264
Raw,1715019880592,12025684000000,,0.0,-1399043072908145632,-0.6842308044433594,15000072.479248047,-8.111624815213613,10.221069162559907,1,22,0.0,35,1253904,6,47.5,215.07464599609375,0.6920000314712524,16,0.0,0.0,1561097980,,,,0,0.0,5,-58.97,43.2,-1582.0,20000.0,,,I,12652141704264
Raw,1715019880592,12025684000000,,0.0,-1399043072908145632,-0.6842308044433594,15000072.479248047,-8.111624815213613,10.221069162559907,1,21,0.0,35,1382920,6,48.2,-149.716552734375,0.0458407923579216,16,0.0,0.0,1561097980,,,,0,0.0,5,-58.97,43.900000000000006,-1582.0,20000.0,,,I,12652141704264
Raw,1715019880592,12025684000000,,0.0,-1399043072908145632,-0.6842308044433594,15000072.479248047,-8.111624815213613,10.221069162559907,1,10,0.0,3107,11668611,10,43.4,521.8045654296875,0.05989910662174225,16,0.0,0.0,1575420030,,,,0,0.0,6,-56.17,39.1,1626239.125,1439.9134521484375,,,C,12652141704264
Raw,1715019880592,12025684000000,,0.0,-1399043072908145632,-0.6842308044433594,15000072.479248047,-8.111624815213613,10.221069162559907,1,36,0.0,3107,17643886,9,44.5,-186.10232543945312,0.06230919808149338,16,0.0,0.0,1575420030,,,,0,0.0,6,-56.17,40.2,1626239.125,1439.9134521484375,,,C,12652141704264
Agc,1715019880592,12025684000000,,0.0,-1399043072908145632,-0.6842308044433594,15000072.479248047,-8.111624815213613,10.221069162559907,1,-53.81,1575420000,1
Agc,1715019880592,12025684000000,,0.0,-1399043072908145632,-0.6842308044433594,15000072.479248047,-8.111624815213613,10.221069162559907,1,-53.09,1602000000,3
Agc,1715019880592,12025684000000,,0.0,-1399043072908145632,-0.6842308044433594,15000072.479248047,-8.111624815213613,10.221069162559907,1,-58.97,1561098000,5
Agc,1715019880592,12025684000000,,0.0,-1399043072908145632,-0.6842308044433594,15000072.479248047,-8.111624815213613,10.221069162559907,1,-56.17,1575420000,6
Agc,1715019880592,12025684000000,,0.0,-1399043072908145632,-0.6842308044433594,15000072.479248047,-8.111624815213613,10.221069162559907,1,-39.43,1176450000,1
Agc,1715019880592,12025684000000,,0.0,-1399043072908145632,-0.6842308044433594,15000072.479248047,-8.111624815213613,10.221069162559907,1,-39.43,1176450000,4
Agc,1715019880592,12025684000000,,0.0,-1399043072908145632,-0.6842308044433594,15000072.479248047,-8.111624815213613,10.221069162559907,1,-39.43,1176450000,6
Agc,1715019880592,12025684000000,,0.0,-1399043072908145632,-0.6842308044433594,15000072.479248047,-8.111624815213613,10.221069162559907,1,-39.43,1176450000,5
Agc,1715019880592,12025684000000,,0.0,-1399043072908145632,-0.6842308044433594,15000072.479248047,-8.111624815213613,10.221069162559907,1,-56.17,1575420000,5
Fix,GPS,30.0841602700,31.3515971800,182.33660888671875,0.0,8.10437,,1715019881771,0.465886,,12653320705200,10.25747,0,,,
Fix,FLP,30.0841578000,31.3515990000,50.898268838984876,0.28472415,8.424,327.89172,1715019881758,0.465886,45.0,12653320705200,5.891332,0,,,
Fix,NLP,32.1193101000,34.9032761000,,,600.0,,1715019882441,,,12654002000000,,0,,,
Fix,FLP,30.0841593000,31.3515979000,50.898268838984876,0.2884614,18.468,327.89172,1715019882440,1.5,45.0,12654002000000,5.891332,0,,,
Status,1715019881771,33,0,1,1,1575420030,46.00,0.0,0.0,0,0,0,41.0
Status,1715019881771,33,1,1,2,1575420030,46.40,179.51607,56.899605,1,0,1,41.4
Status,1715019881771,33,2,1,3,1575420030,46.40,5.192288,59.120907,1,0,1,41.4
Status,1715019881771,33,3,1,4,1575420030,45.60,288.15112,65.28405,1,0,1,40.6
Status,1715019881771,33,4,1,6,1575420030,46.70,323.94846,3.2389076,1,1,1,41.7
Status,1715019881771,33,5,1,9,1575420030,46.00,254.02684,28.586449,1,0,1,41.0
Status,1715019881771,33,6,1,16,1575420030,46.70,129.89532,0.52489036,1,1,1,41.7
Status,1715019881771,33,7,1,17,1575420030,45.40,276.95908,19.531042,1,1,1,40.4
Status,1715019881771,33,8,1,19,1575420030,47.10,301.34805,12.332279,1,1,1,42.1
Status,1715019881771,33,9,1,21,1575420030,47.00,167.73882,42.78647,1,1,1,42.0
Status,1715019881771,33,10,1,26,1575420030,46.60,96.06858,8.205105,1,1,1,41.6
Status,1715019881771,33,11,1,28,1575420030,47.10,40.070858,12.829324,1,1,1,42.1
Status,1715019881771,33,12,1,31,1575420030,47.00,58.176662,37.324512,1,1,1,42.0
Status,1715019881771,33,13,3,14,1598062460,29.40,25.336071,1.3508474,0,1,1,24.4
Status,1715019881771,33,14,3,95,1599187460,38.30,0.0,0.0,0,0,0,33.3
Status,1715019881771,33,15,3,6,1599750020,31.70,317.63214,43.846195,0,1,1,26.7
Status,1715019881771,33,16,3,22,1600312450,26.60,331.11383,12.272815,0,1,1,21.6
Status,1715019881771,33,17,3,16,1601437440,43.90,126.03736,21.262136,0,1,1,38.9
Status,1715019881771,33,18,3,15,1602000000,40.70,69.64515,22.863892,0,1,1,35.7
Status,1715019881771,33,19,3,5,1602562560,45.10,38.916805,27.134586,0,1,1,40.1
Status,1715019881771,33,20,3,21,1604249980,41.50,292.2544,53.789684,0,1,1,36.5
Status,1715019881771,33,21,3,7,1604812540,40.90,271.90457,13.613073,0,1,1,35.9
Status,1715019881771,33,22,5,50,1561097980,37.90,0.0,0.0,0,0,0,32.9
Status,1715019881771,33,23,5,45,1561097980,39.50,0.0,0.0,0,0,0,34.5
Status,1715019881771,33,24,5,39,1561097980,42.00,0.0,0.0,0,0,0,37.0
Status,1715019881771,33,25,5,36,1561097980,45.50,0.0,0.0,0,0,0,40.5
Status,1715019881771,33,26,5,24,1561097980,31.00,0.0,0.0,0,0,0,26.0
Status,1715019881771,33,27,5,22,1561097980,43.00,0.0,0.0,0,0,0,38.0
Status,1715019881771,33,28,5,21,1561097980,44.10,0.0,0.0,0,0,0,39.1
Status,1715019881771,33,29,6,4,1575420030,39.30,40.523903,37.001472,0,1,1,34.3
Status,1715019881771,33,30,6,10,1575420030,39.60,155.07664,33.651497,0,1,1,34.6
Status,1715019881771,33,31,6,31,1575420030,37.80,124.67412,4.4710326,0,1,1,32.8
Status,1715019881771,33,32,6,36,1575420030,40.50,307.32822,60.39806,0,1,1,35.5
Raw,1715019881592,12026684000000,,0.0,-1399043072908145662,-0.7994775772094727,15000066.757202148,-8.894696062163908,9.240342509696815,1,2,0.0,35,8074128,5,51.4,353.0274658203125,0.03420216962695122,16,0.0,0.0,1575420030,,,,0,0.0,1,-55.07,46.4,0.0,0.0,,,C,12653149589472
Raw,1715019881592,12026684000000,,0.0,-1399043072908145662,-0.7994775772094727,15000066.757202148,-8.894696062163908,9.240342509696815,1,3,0.0,35,10148175,5,51.4,-117.67737579345703,0.031202170997858047,16,0.0,0.0,1575420030,,,,0,0.0,1,-55.07,46.4,0.0,0.0,,,C,12653149589472
Raw,1715019881592,12026684000000,,0.0,-1399043072908145662,-0.7994775772094727,15000066.757202148,-8.894696062163908,9.240342509696815,1,4,0.0,35,10440487,5,50.6,-79.7818832397461,0.03150664269924164,16,0.0,0.0,1575420030,,,,0,0.0,1,-55.07,45.6,0.0,0.0,,,C,12653149589472
Raw,1715019881592,12026684000000,,0.0,-1399043072908145662,-0.7994775772094727,15000066.757202148,-8.894696062163908,9.240342509696815,1,6,0.0,35,14449374,5,51.7,-667.7036743164062,0.02520217001438141,16,0.0,0.0,1575420030,,,,0,0.0,1,-55.07,46.7,0.0,0.0,,,C,12653149589472
Raw,1715019881592,12026684000000,,0.0,-1399043072908145662,-0.7994775772094727,15000066.757202148,-8.894696062163908,9.240342509696815,1,9,0.0,35,2854480,5,51.0,-428.1636962890625,0.04320216923952103,16,0.0,0.0,1575420030,,,,0,0.0,1,-55.07,46.0,0.0,0.0,,,C,12653149589472
Raw,1715019881592,12026684000000,,0.0,-1399043072908145662,-0.7994775772094727,15000066.757202148,-8.894696062163908,9.240342509696815,1,16,0.0,35,13348275,5,51.7,-431.86126708984375,0.026702169328927994,16,0.0,0.0,1575420030,,,,0,0.0,1,-55.07,46.7,0.0,0.0,,,C,12653149589472
Raw,1715019881592,12026684000000,,0.0,-1399043072908145662,-0.7994775772094727,15000066.757202148,-8.894696062163908,9.240342509696815,1,17,0.0,35,19879656,5,50.4,122.03618621826172,0.04800664260983467,16,0.0,0.0,1575420030,,,,0,0.0,1,-55.07,45.4,0.0,0.0,,,C,12653149589472
Raw,1715019881592,12026684000000,,0.0,-1399043072908145662,-0.7994775772094727,15000066.757202148,-8.894696062163908,9.240342509696815,1,19,0.0,35,18873272,4,52.1,-106.02633666992188,0.018802553415298462,16,0.0,0.0,1575420030,,,,0,0.0,1,-55.07,47.1,0.0,0.0,,,C,12653149589472
Raw,1715019881592,12026684000000,,0.0,-1399043072908145662,-0.7994775772094727,15000066.757202148,-8.894696062163908,9.240342509696815,1,21,0.0,35,4848111,4,52.0,468.4908447265625,0.03980255499482155,16,0.0,0.0,1575420030,,,,0,0.0,1,-55.07,47.0,0.0,0.0,,,C,12653149589472
Raw,1715019881592,12026684000000,,0.0,-1399043072908145662,-0.7994775772094727,15000066.757202148,-8.894696062163908,9.240342509696815,1,26,0.0,35,17023640,5,51.6,-299.7062683105469,0.020702172070741653,16,0.0,0.0,1575420030,,,,0,0.0,1,-55.07,46.6,0.0,0.0,,,C,12653149589472
Raw,1715019881592,12026684000000,,0.0,-1399043072908145662,-0.7994775772094727,15000066.757202148,-8.894696062163908,9.240342509696815,1,28,0.0,35,17484395,4,52.1,574.8727416992188,0.020302554592490196,16,0.0,0.0,1575420030,,,,0,0.0,1,-55.07,47.1,0.0,0.0,,,C,12653149589472
Raw,1715019881592,12026684000000,,0.0,-1399043072908145662,-0.7994775772094727,15000066.757202148,-8.894696062163908,9.240342509696815,1,31,0.0,35,5717049,4,52.0,338.1153564453125,0.03830255568027496,16,0.0,0.0,1575420030,,,,0,0.0,1,-55.07,47.0,0.0,0.0,,,C,12653149589472
Raw,1715019881592,12026684000000,,0.0,-1399043072908145662,-0.7994775772094727,15000066.757202148,-8.894696062163908,9.240342509696815,1,6,0.0,35,8509519,21,35.7,-138.8630828857422,0.6014999747276306,16,0.0,0.0,1599750020,,,,0,0.0,3,-52.97,31.700000000000003,3800.000732421875,20000.0,,,C,12653149589472
Raw,1715019881592,12026684000000,,0.0,-1399043072908145662,-0.7994775772094727,15000066.757202148,-8.894696062163908,9.240342509696815,1,22,0.0,35,19950825,40,30.6,-665.680908203125,0.8149999976158142,16,0.0,0.0,1600312450,,,,0,0.0,3,-52.97,26.6,3800.000732421875,20000.0,,,C,12653149589472
Raw,1715019881592,12026684000000,,0.0,-1399043072908145662,-0.7994775772094727,15000066.757202148,-8.894696062163908,9.240342509696815,1,16,0.0,35,3188464,6,47.9,-644.5135498046875,0.042744044214487076,16,0.0,0.0,1601437440,,,,0,0.0,3,-52.97,43.9,3800.000732421875,20000.0,,,C,12653149589472
Raw,1715019881592,12026684000000,,0.0,-1399043072908145662,-0.7994775772094727,15000066.757202148,-8.894696062163908,9.240342509696815,1,15,0.0,35,4502511,9,44.7,-117.79164123535156,0.042721107602119446,16,0.0,0.0,1602000000,,,,0,0.0,3,-52.97,40.7,3800.000732421875,20000.0,,,C,12653149589472
Raw,1715019881592,12026684000000,,0.0,-1399043072908145662,-0.7994775772094727,15000066.757202148,-8.894696062163908,9.240342509696815,1,5,0.0,35,5769502,5,49.1,362.6580810546875,0.03895571827888489,16,0.0,0.0,1602562560,,,,0,0.0,3,-52.97,45.1,3800.000732421875,20000.0,,,C,12653149589472
Raw,1715019881592,12026684000000,,0.0,-1399043072908145662,-0.7994775772094727,15000066.757202148,-8.894696062163908,9.240342509696815,1,21,0.0,35,10282331,8,45.5,-70.18983459472656,0.25850000977516174,16,0.0,0.0,1604249980,,,,0,0.0,3,-52.97,41.5,3800.000732421875,20000.0,,,C,12653149589472
Raw,1715019881592,12026684000000,,0.0,-1399043072908145662,-0.7994775772094727,15000066.757202148,-8.894696062163908,9.240342509696815,1,7,0.0,35,19189541,9,44.9,-400.76409912109375,1.7014875411987305,16,0.0,0.0,1604812540,,,,0,0.0,3,-52.97,40.9,3800.000732421875,20000.0,,,C,12653149589472
Raw,1715019881592,12026684000000,,0.0,-1399043072908145662,-0.7994775772094727,15000066.757202148,-8.894696062163908,9.240342509696815,1,50,0.0,1,417290,12,42.2,-271.1501770019531,50.525001525878906,16,0.0,0.0,1561097980,,,,0,0.0,5,-60.52,37.900000000000006,-1582.0,20000.0,,,I,12653149589472
Raw,1715019881592,12026684000000,,0.0,-1399043072908145662,-0.7994775772094727,15000066.757202148,-8.894696062163908,9.240342509696815,1,39,0.0,35,5931576,7,46.3,173.3636474609375,0.5009999871253967,16,0.0,0.0,1561097980,,,,0,0.0,5,-60.52,42.0,-1582.0,20000.0,,,I,12653149589472
Raw,1715019881592,12026684000000,,0.0,-1399043072908145662,-0.7994775772094727,15000066.757202148,-8.894696062163908,9.240342509696815,1,36,0.0,35,16689448,5,49.8,33.66863250732422,0.05253422632813454,16,0.0,0.0,1561097980,,,,0,0.0,5,-60.52,45.5,-1582.0,20000.0,,,I,12653149589472
Raw,1715019881592,12026684000000,,0.0,-1399043072908145662,-0.7994775772094727,15000066.757202148,-8.894696062163908,9.240342509696815,1,22,0.0,35,1253180,6,47.3,215.31698608398438,0.0458407923579216,16,0.0,0.0,1561097980,,,,0,0.0,5,-60.52,43.0,-1582.0,20000.0,,,I,12653149589472
Raw,1715019881592,12026684000000,,0.0,-1399043072908145662,-0.7994775772094727,15000066.757202148,-8.894696062163908,9.240342509696815,1,21,0.0,35,1383422,6,48.4,-149.2989959716797,0.04532228782773018,16,0.0,0.0,1561097980,,,,0,0.0,5,-60.52,44.1,-1582.0,20000.0,,,I,12653149589472
Raw,1715019881592,12026684000000,,0.0,-1399043072908145662,-0.7994775772094727,15000066.757202148,-8.894696062163908,9.240342509696815,1,10,0.0,3107,11666864,10,43.9,522.21484375,0.05989910662174225,16,0.0,0.0,1575420030,,,,0,0.0,6,-56.97,39.6,1626239.125,1439.9134521484375,,,C,12653149589472
Raw,1715019881592,12026684000000,,0.0,-1399043072908145662,-0.7994775772094727,15000066.757202148,-8.894696062163908,9.240342509696815,1,36,0.0,3107,17644502,9,44.8,-185.63491821289062,0.06230919808149338,16,0.0,0.0,1575420030,,,,0,0.0,6,-56.97,40.5,1626239.125,1439.9134521484375,,,C,12653149589472
Agc,1715019881592,12026684000000,,0.0,-1399043072908145662,-0.7994775772094727,15000066.757202148,-8.894696062163908,9.240342509696815,1,-55.07,1575420000,1
Agc,1715019881592,12026684000000,,0.0,-1399043072908145662,-0.7994775772094727,15000066.757202148,-8.894696062163908,9.240342509696815,1,-52.97,1602000000,3
Agc,1715019881592,12026684000000,,0.0,-1399043072908145662,-0.7994775772094727,15000066.757202148,-8.894696062163908,9.240342509696815,1,-60.52,1561098000,5
Agc,1715019881592,12026684000000,,0.0,-1399043072908145662,-0.7994775772094727,15000066.757202148,-8.894696062163908,9.240342509696815,1,-56.97,1575420000,6
Agc,1715019881592,12026684000000,,0.0,-1399043072908145662,-0.7994775772094727,15000066.757202148,-8.894696062163908,9.240342509696815,1,-39.18,1176450000,1
Agc,1715019881592,12026684000000,,0.0,-1399043072908145662,-0.7994775772094727,15000066.757202148,-8.894696062163908,9.240342509696815,1,-39.18,1176450000,4
Agc,1715019881592,12026684000000,,0.0,-1399043072908145662,-0.7994775772094727,15000066.757202148,-8.894696062163908,9.240342509696815,1,-39.18,1176450000,6
Agc,1715019881592,12026684000000,,0.0,-1399043072908145662,-0.7994775772094727,15000066.757202148,-8.894696062163908,9.240342509696815,1,-39.18,1176450000,5
Agc,1715019881592,12026684000000,,0.0,-1399043072908145662,-0.7994775772094727,15000066.757202148,-8.894696062163908,9.240342509696815,1,-56.97,1575420000,5
Fix,GPS,30.0841635700,31.3515904300,181.23699951171875,0.0,6.792638,,1715019882771,0.465886,,12654328590773,8.507496,0,,,
Fix,FLP,30.0841628000,31.3515920000,51.03305062417234,0.48892006,15.549,316.19934,1715019882766,0.465886,45.0,12654328590773,5.670732,0,,,
Status,1715019882771,32,0,1,1,1575420030,46.00,0.0,0.0,0,0,0,41.0
Status,1715019882771,32,1,1,2,1575420030,46.40,179.51607,56.899605,1,0,1,41.4
Status,1715019882771,32,2,1,3,1575420030,47.00,5.192288,59.120907,1,0,1,42.0
Status,1715019882771,32,3,1,4,1575420030,46.40,288.15112,65.28405,1,0,1,41.4
Status,1715019882771,32,4,1,6,1575420030,46.00,323.94846,3.2389076,1,1,1,41.0
Status,1715019882771,32,5,1,9,1575420030,45.60,254.02684,28.586449,1,0,1,40.6
Status,1715019882771,32,6,1,16,1575420030,46.50,129.89532,0.52489036,1,1,1,41.5
Status,1715019882771,32,7,1,17,1575420030,45.50,276.95908,19.531042,1,1,1,40.5
Status,1715019882771,32,8,1,19,1575420030,46.30,301.34805,12.332279,1,1,1,41.3
Status,1715019882771,32,9,1,21,1575420030,46.10,167.73882,42.78647,1,1,1,41.1
Status,1715019882771,32,10,1,26,1575420030,46.00,96.06858,8.205105,1,1,1,41.0
Status,1715019882771,32,11,1,28,1575420030,47.00,40.070858,12.829324,1,1,1,42.0
Status,1715019882771,32,12,1,31,1575420030,46.70,58.176662,37.324512,1,1,1,41.7
Status,1715019882771,32,13,3,14,1598062460,29.40,25.336071,1.3508474,0,1,1,24.4
Status,1715019882771,32,14,3,95,1599187460,38.90,0.0,0.0,0,0,0,33.9
Status,1715019882771,32,15,3,6,1599750020,32.00,317.63214,43.846195,0,1,1,27.0
Status,1715019882771,32,16,3,22,1600312450,26.40,331.11383,12.272815,0,1,1,21.4
Status,1715019882771,32,17,3,16,1601437440,45.10,126.03736,21.262136,0,1,1,40.1
Status,1715019882771,32,18,3,15,1602000000,41.40,69.64515,22.863892,0,1,1,36.4
Status,1715019882771,32,19,3,5,1602562560,45.50,38.916805,27.134586,0,1,1,40.5
Status,1715019882771,32,20,3,21,1604249980,40.60,292.2544,53.789684,0,1,1,35.6
Status,1715019882771,32,21,3,7,1604812540,42.40,271.90457,13.613073,0,1,1,37.4
Status,1715019882771,32,22,5,50,1561097980,37.90,0.0,0.0,0,0,0,32.9
Status,1715019882771,32,23,5,45,1561097980,39.50,0.0,0.0,0,0,0,34.5
Status,1715019882771,32,24,5,39,1561097980,41.40,0.0,0.0,0,0,0,36.4
Status,1715019882771,32,25,5,36,1561097980,45.60,0.0,0.0,0,0,0,40.6
Status,1715019882771,32,26,5,22,1561097980,42.60,0.0,0.0,0,0,0,37.6
Status,1715019882771,32,27,5,21,1561097980,41.40,0.0,0.0,0,0,0,36.4
Status,1715019882771,32,28,6,4,1575420030,39.30,40.523903,37.001472,0,1,1,34.3
Status,1715019882771,32,29,6,10,1575420030,40.00,155.07664,33.651497,0,1,1,35.0
Status,1715019882771,32,30,6,31,1575420030,37.80,124.67412,4.4710326,0,1,1,32.8
Status,1715019882771,32,31,6,36,1575420030,40.70,307.32822,60.39806,0,1,1,35.7
Raw,1715019882592,12027684000000,,0.0,-1399043072908145671,-0.05472087860107422,15000056.266784668,-7.62170445906039,9.238640613115823,1,2,0.0,35,8073015,5,51.4,353.9015808105469,0.03420216962695122,16,0.0,0.0,1575420030,,,,0,0.0,1,-54.98,46.4,0.0,0.0,,,C,12654149570826
Raw,1715019882592,12027684000000,,0.0,-1399043072908145671,-0.05472087860107422,15000056.266784668,-7.62170445906039,9.238640613115823,1,3,0.0,35,10148646,4,52.0,-116.86176300048828,0.03080255538225174,16,0.0,0.0,1575420030,,,,0,0.0,1,-54.98,47.0,0.0,0.0,,,C,12654149570826
Raw,1715019882592,12027684000000,,0.0,-1399043072908145671,-0.05472087860107422,15000056.266784668,-7.62170445906039,9.238640613115823,1,4,0.0,35,10440812,5,51.4,-78.93492889404297,0.6020832061767578,16,0.0,0.0,1575420030,,,,0,0.0,1,-54.98,46.4,0.0,0.0,,,C,12654149570826
Raw,1715019882592,12027684000000,,0.0,-1399043072908145671,-0.05472087860107422,15000056.266784668,-7.62170445906039,9.238640613115823,1,6,0.0,35,14451668,5,51.0,-666.9146728515625,0.02520217001438141,16,0.0,0.0,1575420030,,,,0,0.0,1,-54.98,46.0,0.0,0.0,,,C,12654149570826
Raw,1715019882592,12027684000000,,0.0,-1399043072908145671,-0.05472087860107422,15000056.266784668,-7.62170445906039,9.238640613115823,1,9,0.0,35,2855980,5,50.6,-427.3306884765625,0.04350664094090462,16,0.0,0.0,1575420030,,,,0,0.0,1,-54.98,45.6,0.0,0.0,,,C,12654149570826
Raw,1715019882592,12027684000000,,0.0,-1399043072908145671,-0.05472087860107422,15000056.266784668,-7.62170445906039,9.238640613115823,1,16,0.0,35,13349790,5,51.5,-431.1134338378906,0.026702169328927994,16,0.0,0.0,1575420030,,,,0,0.0,1,-54.98,46.5,0.0,0.0,,,C,12654149570826
Raw,1715019882592,12027684000000,,0.0,-1399043072908145671,-0.05472087860107422,15000056.266784668,-7.62170445906039,9.238640613115823,1,17,0.0,35,19879330,5,50.5,122.9022216796875,0.04800664260983467,16,0.0,0.0,1575420030,,,,0,0.0,1,-54.98,45.5,0.0,0.0,,,C,12654149570826
Raw,1715019882592,12027684000000,,0.0,-1399043072908145671,-0.05472087860107422,15000056.266784668,-7.62170445906039,9.238640613115823,1,19,0.0,35,18873665,5,51.3,-105.13329315185547,0.01920216903090477,16,0.0,0.0,1575420030,,,,0,0.0,1,-54.98,46.3,0.0,0.0,,,C,12654149570826
Raw,1715019882592,12027684000000,,0.0,-1399043072908145671,-0.05472087860107422,15000056.266784668,-7.62170445906039,9.238640613115823,1,21,0.0,35,4846614,5,51.1,469.33074951171875,0.040202170610427856,16,0.0,0.0,1575420030,,,,0,0.0,1,-54.98,46.1,0.0,0.0,,,C,12654149570826
Raw,1715019882592,12027684000000,,0.0,-1399043072908145671,-0.05472087860107422,15000056.266784668,-7.62170445906039,9.238640613115823,1,26,0.0,35,17024703,5,51.0,-298.8787536621094,0.020702172070741653,16,0.0,0.0,1575420030,,,,0,0.0,1,-54.98,46.0,0.0,0.0,,,C,12654149570826
Raw,1715019882592,12027684000000,,0.0,-1399043072908145671,-0.05472087860107422,15000056.266784668,-7.62170445906039,9.238640613115823,1,28,0.0,35,17482544,4,52.0,575.7103881835938,0.5911835432052612,16,0.0,0.0,1575420030,,,,0,0.0,1,-54.98,47.0,0.0,0.0,,,C,12654149570826
Raw,1715019882592,12027684000000,,0.0,-1399043072908145671,-0.05472087860107422,15000056.266784668,-7.62170445906039,9.238640613115823,1,31,0.0,35,5715983,5,51.7,339.0113220214844,0.03870217129588127,16,0.0,0.0,1575420030,,,,0,0.0,1,-54.98,46.7,0.0,0.0,,,C,12654149570826
Raw,1715019882592,12027684000000,,0.0,-1399043072908145671,-0.05472087860107422,15000056.266784668,-7.62170445906039,9.238640613115823,1,6,0.0,35,8509939,19,36.0,-138.02914428710938,0.5115000009536743,16,0.0,0.0,1599750020,,,,0,0.0,3,-53.0,32.0,3800.000732421875,20000.0,,,C,12654149570826
Raw,1715019882592,12027684000000,,0.0,-1399043072908145671,-0.05472087860107422,15000056.266784668,-7.62170445906039,9.238640613115823,1,22,0.0,35,19952992,40,30.4,-664.2197875976562,0.8149999976158142,16,0.0,0.0,1600312450,,,,0,0.0,3,-53.0,26.4,3800.000732421875,20000.0,,,C,12654149570826
Raw,1715019882592,12027684000000,,0.0,-1399043072908145671,-0.05472087860107422,15000056.266784668,-7.62170445906039,9.238640613115823,1,16,0.0,35,3190622,5,49.1,-643.687744140625,0.0419577956199646,16,0.0,0.0,1601437440,,,,0,0.0,3,-53.0,45.1,3800.000732421875,20000.0,,,C,12654149570826
Raw,1715019882592,12027684000000,,0.0,-1399043072908145671,-0.05472087860107422,15000056.266784668,-7.62170445906039,9.238640613115823,1,15,0.0,35,4502901,8,45.4,-116.85089111328125,0.04212227091193199,16,0.0,0.0,1602000000,,,,0,0.0,3,-53.0,41.4,3800.000732421875,20000.0,,,C,12654149570826
Raw,1715019882592,12027684000000,,0.0,-1399043072908145671,-0.05472087860107422,15000056.266784668,-7.62170445906039,9.238640613115823,1,5,0.0,35,5768291,5,49.5,363.4400939941406,0.03895571827888489,16,0.0,0.0,1602562560,,,,0,0.0,3,-53.0,45.5,3800.000732421875,20000.0,,,C,12654149570826
Raw,1715019882592,12027684000000,,0.0,-1399043072908145671,-0.05472087860107422,15000056.266784668,-7.62170445906039,9.238640613115823,1,21,0.0,35,10282595,9,44.6,-69.22882080078125,0.03371378406882286,16,0.0,0.0,1604249980,,,,0,0.0,3,-53.0,40.6,3800.000732421875,20000.0,,,C,12654149570826
Raw,1715019882592,12027684000000,,0.0,-1399043072908145671,-0.05472087860107422,15000056.266784668,-7.62170445906039,9.238640613115823,1,7,0.0,35,19190900,7,46.4,-400.35723876953125,0.01912846602499485,16,0.0,0.0,1604812540,,,,0,0.0,3,-53.0,42.4,3800.000732421875,20000.0,,,C,12654149570826
Raw,1715019882592,12027684000000,,0.0,-1399043072908145671,-0.05472087860107422,15000056.266784668,-7.62170445906039,9.238640613115823,1,39,0.0,35,5930997,8,45.7,174.09255981445312,0.040743377059698105,16,0.0,0.0,1561097980,,,,0,0.0,5,-60.78,41.400000000000006,-1582.0,20000.0,,,I,12654149570826
Raw,1715019882592,12027684000000,,0.0,-1399043072908145671,-0.05472087860107422,15000056.266784668,-7.62170445906039,9.238640613115823,1,36,0.0,35,16689337,5,49.9,34.538902282714844,0.02253422513604164,16,0.0,0.0,1561097980,,,,0,0.0,5,-60.78,45.6,-1582.0,20000.0,,,I,12654149570826
Raw,1715019882592,12027684000000,,0.0,-1399043072908145671,-0.05472087860107422,15000056.266784668,-7.62170445906039,9.238640613115823,1,22,0.0,35,1252465,7,46.9,216.10861206054688,0.04624407738447189,16,0.0,0.0,1561097980,,,,0,0.0,5,-60.78,42.6,-1582.0,20000.0,,,I,12654149570826
Raw,1715019882592,12027684000000,,0.0,-1399043072908145671,-0.05472087860107422,15000056.266784668,-7.62170445906039,9.238640613115823,1,21,0.0,35,1383918,8,45.7,-148.50006103515625,0.046743378043174744,16,0.0,0.0,1561097980,,,,0,0.0,5,-60.78,41.400000000000006,-1582.0,20000.0,,,I,12654149570826
Raw,1715019882592,12027684000000,,0.0,-1399043072908145671,-0.05472087860107422,15000056.266784668,-7.62170445906039,9.238640613115823,1,10,0.0,3107,11665129,9,44.3,523.01611328125,0.05930919572710991,16,0.0,0.0,1575420030,,,,0,0.0,6,-56.97,40.0,1626239.125,1439.9134521484375,,,C,12654149570826
Raw,1715019882592,12027684000000,,0.0,-1399043072908145671,-0.05472087860107422,15000056.266784668,-7.62170445906039,9.238640613115823,1,36,0.0,3107,17645122,9,45.0,-184.8003692626953,0.06230919808149338,16,0.0,0.0,1575420030,,,,0,0.0,6,-56.97,40.7,1626239.125,1439.9134521484375,,,C,12654149570826
Agc,1715019882592,12027684000000,,0.0,-1399043072908145671,-0.05472087860107422,15000056.266784668,-7.62170445906039,9.238640613115823,1,-54.98,1575420000,1
Agc,1715019882592,12027684000000,,0.0,-1399043072908145671,-0.05472087860107422,15000056.266784668,-7.62170445906039,9.238640613115823,1,-53.0,1602000000,3
Agc,1715019882592,12027684000000,,0.0,-1399043072908145671,-0.05472087860107422,15000056.266784668,-7.62170445906039,9.238640613115823,1,-60.78,1561098000,5
Agc,1715019882592,12027684000000,,0.0,-1399043072908145671,-0.05472087860107422,15000056.266784668,-7.62170445906039,9.238640613115823,1,-56.97,1575420000,6
Agc,1715019882592,12027684000000,,0.0,-1399043072908145671,-0.05472087860107422,15000056.266784668,-7.62170445906039,9.238640613115823,1,-39.26,1176450000,1
Agc,1715019882592,12027684000000,,0.0,-1399043072908145671,-0.05472087860107422,15000056.266784668,-7.62170445906039,9.238640613115823,1,-39.26,1176450000,4
Agc,1715019882592,12027684000000,,0.0,-1399043072908145671,-0.05472087860107422,15000056.266784668,-7.62170445906039,9.238640613115823,1,-39.26,1176450000,6
Agc,1715019882592,12027684000000,,0.0,-1399043072908145671,-0.05472087860107422,15000056.266784668,-7.62170445906039,9.238640613115823,1,-39.26,1176450000,5
Agc,1715019882592,12027684000000,,0.0,-1399043072908145671,-0.05472087860107422,15000056.266784668,-7.62170445906039,9.238640613115823,1,-56.97,1575420000,5
Fix,GPS,30.0841251600,31.3515930100,177.4794921875,0.0,7.1116786,,1715019883771,0.465886,,12655328571554,8.149322,0,,,
Fix,FLP,30.0841360000,31.3515918000,51.03305062417234,0.77833575,13.862,197.37758,1715019883767,0.465886,45.0,12655328571554,5.6890025,0,,,
Status,1715019883771,33,0,1,1,1575420030,45.70,0.0,0.0,0,0,0,40.7
Status,1715019883771,33,1,1,2,1575420030,45.90,179.51607,56.899605,1,0,1,40.9
Status,1715019883771,33,2,1,3,1575420030,45.70,5.192288,59.120907,1,0,1,40.7
Status,1715019883771,33,3,1,4,1575420030,45.30,288.15112,65.28405,1,0,1,40.3
Status,1715019883771,33,4,1,6,1575420030,45.80,323.94846,3.2389076,1,1,1,40.8
Status,1715019883771,33,5,1,9,1575420030,45.90,254.02684,28.586449,1,0,1,40.9
Status,1715019883771,33,6,1,16,1575420030,45.70,129.89532,0.52489036,1,1,1,40.7
Status,1715019883771,33,7,1,17,1575420030,46.00,276.95908,19.531042,1,1,1,41.0
Status,1715019883771,33,8,1,19,1575420030,46.30,301.34805,12.332279,1,1,1,41.3
Status,1715019883771,33,9,1,21,1575420030,46.30,167.73882,42.78647,1,1,1,41.3
Status,1715019883771,33,10,1,26,1575420030,46.10,96.06858,8.205105,1,1,1,41.1
Status,1715019883771,33,11,1,28,1575420030,46.30,40.070858,12.829324,1,1,1,41.3
Status,1715019883771,33,12,1,31,1575420030,45.60,58.176662,37.324512,1,1,1,40.6
Status,1715019883771,33,13,3,14,1598062460,26.10,25.336071,1.3508474,0,1,1,21.1
Status,1715019883771,33,14,3,95,1599187460,39.70,0.0,0.0,0,0,0,34.7
Status,1715019883771,33,15,3,6,1599750020,31.20,317.63214,43.846195,0,1,1,26.2
Status,1715019883771,33,16,3,22,1600312450,25.90,331.11383,12.272815,0,1,1,20.9
Status,1715019883771,33,17,3,16,1601437440,44.90,126.03736,21.262136,0,1,1,39.9
Status,1715019883771,33,18,3,15,1602000000,40.70,69.64515,22.863892,0,1,1,35.7
Status,1715019883771,33,19,3,5,1602562560,44.90,38.916805,27.134586,0,1,1,39.9
Status,1715019883771,33,20,3,21,1604249980,40.10,292.2544,53.789684,0,1,1,35.1
Status,1715019883771,33,21,3,7,1604812540,42.80,271.90457,13.613073,0,1,1,37.8
Status,1715019883771,33,22,5,60,1561097980,39.60,0.0,0.0,0,0,0,34.6
Status,1715019883771,33,23,5,50,1561097980,37.70,0.0,0.0,0,0,0,32.7
Status,1715019883771,33,24,5,45,1561097980,39.50,0.0,0.0,0,0,0,34.5
Status,1715019883771,33,25,5,39,1561097980,41.30,0.0,0.0,0,0,0,36.3
Status,1715019883771,33,26,5,36,1561097980,45.80,0.0,0.0,0,0,0,40.8
Status,1715019883771,33,27,5,22,1561097980,42.10,0.0,0.0,0,0,0,37.1
Status,1715019883771,33,28,5,21,1561097980,41.80,0.0,0.0,0,0,0,36.8
Status,1715019883771,33,29,6,4,1575420030,39.30,40.523903,37.001472,0,1,1,34.3
Status,1715019883771,33,30,6,10,1575420030,39.50,155.07664,33.651497,0,1,1,34.5
Status,1715019883771,33,31,6,31,1575420030,37.80,124.67412,4.4710326,0,1,1,32.8
Status,1715019883771,33,32,6,36,1575420030,40.30,307.32822,60.39806,0,1,1,35.3
Raw,1715019883592,12028684000000,,0.0,-1399043072908145713,-0.6571407318115234,15000055.313110352,-5.02994778997305,9.23926729279144,1,2,0.0,16399,152701528071833,5,50.9,354.3798522949219,0.03450664132833481,16,0.0,0.0,1575420030,,,,0,0.0,1,-54.76,45.9,0.0,0.0,,,C,12655147618117
Raw,1715019883592,12028684000000,,0.0,-1399043072908145713,-0.6571407318115234,15000055.313110352,-5.02994778997305,9.23926729279144,1,3,0.0,16399,152701530149051,5,50.7,-116.43248748779297,0.03150664269924164,16,0.0,0.0,1575420030,,,,0,0.0,1,-54.76,45.7,0.0,0.0,,,C,12655147618117
Raw,1715019883592,12028684000000,,0.0,-1399043072908145713,-0.6571407318115234,15000055.313110352,-5.02994778997305,9.23926729279144,1,4,0.0,16399,152701530441097,5,50.3,-78.47721862792969,0.03150664269924164,16,0.0,0.0,1575420030,,,,0,0.0,1,-54.76,45.3,0.0,0.0,,,C,12655147618117
Raw,1715019883592,12028684000000,,0.0,-1399043072908145713,-0.6571407318115234,15000055.313110352,-5.02994778997305,9.23926729279144,1,6,0.0,16399,152701514453897,5,50.8,-666.5101928710938,0.025506641715765,16,0.0,0.0,1575420030,,,,0,0.0,1,-54.76,45.8,0.0,0.0,,,C,12655147618117
