# 
# Header Description:
# 
# Version: v3.10.3 (24097-google), Manufacturer: samsung, Model: SM-S928B, GNSS HW Year: 2023, Platform: 14, API Level: 34 
# 
# Raw GNSS measurements format:
#   Raw,utcTimeMillis,TimeNanos,LeapSecond,TimeUncertaintyNanos,FullBiasNanos,BiasNanos,BiasUncertaintyNanos,DriftNanosPerSecond,DriftUncertaintyNanosPerSecond,HardwareClockDiscontinuityCount,Svid,TimeOffsetNanos,State,ReceivedSvTimeNanos,ReceivedSvTimeUncertaintyNanos,Cn0DbHz,PseudorangeRateMetersPerSecond,PseudorangeRateUncertaintyMetersPerSecond,AccumulatedDeltaRangeState,AccumulatedDeltaRangeMeters,AccumulatedDeltaRangeUncertaintyMeters,CarrierFrequencyHz,CarrierCycles,CarrierPhase,CarrierPhaseUncertainty,MultipathIndicator,SnrInDb,ConstellationType,AgcDb,BasebandCn0DbHz,FullInterSignalBiasNanos,FullInterSignalBiasUncertaintyNanos,SatelliteInterSignalBiasNanos,SatelliteInterSignalBiasUncertaintyNanos,CodeType,ChipsetElapsedRealtimeNanos
# 
# Location fix format:
#   Fix,Provider,LatitudeDegrees,LongitudeDegrees,AltitudeMeters,SpeedMps,AccuracyMeters,BearingDegrees,UnixTimeMillis,SpeedAccuracyMps,BearingAccuracyDegrees,elapsedRealtimeNanos,VerticalAccuracyMeters,MockLocation
# 
# Navigation message format:
#   Nav,Svid,Type,Status,MessageId,Sub-messageId,Data(Bytes)
# 
# NMEA format (for [NMEA sentence] format see https://en.wikipedia.org/wiki/NMEA_0183):
#   NMEA,[NMEA sentence],(UTC)TimeInMs
# 
# GnssAntennaInfo format (https://developer.android.com/reference/android/location/GnssAntennaInfo):
#   GnssAntennaInfo,CarrierFrequencyMHz,PhaseCenterOffsetXOffsetMm,PhaseCenterOffsetXOffsetUncertaintyMm,PhaseCenterOffsetYOffsetMm,PhaseCenterOffsetYOffsetUncertaintyMm,PhaseCenterOffsetZOffsetMm,PhaseCenterOffsetZOffsetUncertaintyMm,PhaseCenterVariationCorrectionsArray,PhaseCenterVariationCorrectionUncertaintiesArray,PhaseCenterVariationCorrectionsDeltaPhi,PhaseCenterVariationCorrectionsDeltaTheta,SignalGainCorrectionsArray,SignalGainCorrectionUncertaintiesArray,SignalGainCorrectionsDeltaPhi,SignalGainCorrectionsDeltaTheta
# 
# GnssStatus format (https://developer.android.com/reference/android/location/GnssStatus):
#   Status,UnixTimeMillis,SignalCount,SignalIndex,ConstellationType,Svid,CarrierFrequencyHz,Cn0DbHz,AzimuthDegrees,ElevationDegrees,UsedInFix,HasAlmanacData,HasEphemerisData,BasebandCn0DbHz
# Orientation sensor format (https://developer.android.com/reference/android/hardware/SensorEvent#values):
#   OrientationDeg,utcTimeMillis,elapsedRealtimeNanos,yawDeg,rollDeg,pitchDeg
Raw,2159467218,1893008274000000,18,0.0,-1401713633420428252,-0.07114219665527344,14421.91656678915,-5.35017752545913,29.745688001388626,13,2,0.0,16399,470641612289054,31,33.1,-468.0939025878906,0.6255000233650208,16,0.0,0.0,1575420030,,,,0,0.0,1,-50.43,28.1,0.0,0.0,,,C,2159467218128075
Raw,2159467218,1893008274000000,18,0.0,-1401713633420428252,-0.07114219665527344,14421.91656678915,-5.35017752545913,29.745688001388626,13,8,0.0,16399,470641624331097,10,44.9,-173.30044555664062,0.8725000619888306,16,0.0,0.0,1575420030,,,,0,0.0,1,-50.43,39.9,0.0,0.0,,,C,2159467218434325
Raw,2159467218,1893008274000000,18,0.0,-1401713633420428252,-0.07114219665527344,14421.91656678915,-5.35017752545913,29.745688001388626,13,10,0.0,16399,470641622745780,31,33.6,327.93310546875,1.2255001068115234,16,0.0,0.0,1575420030,,,,0,0.0,1,-50.43,28.6,0.0,0.0,,,C,2159467218465627
Raw,2159467218,1893008274000000,18,0.0,-1401713633420428252,-0.07114219665527344,14421.91656678915,-5.35017752545913,29.745688001388626,13,16,0.0,16399,470641611728488,19,37.1,543.2503662109375,1.0520000457763672,16,0.0,0.0,1575420030,,,,0,0.0,1,-50.43,32.1,0.0,0.0,,,C,2159467218490211
Raw,2159467218,1893008274000000,18,0.0,-1401713633420428252,-0.07114219665527344,14421.91656678915,-5.35017752545913,29.745688001388626,13,21,0.0,16399,470641617921984,13,41.9,-385.3256530761719,0.9229999780654907,16,0.0,0.0,1575420030,,,,0,0.0,1,-50.43,36.9,0.0,0.0,,,C,2159467218510159
Raw,2159467218,1893008274000000,18,0.0,-1401713633420428252,-0.07114219665527344,14421.91656678915,-5.35017752545913,29.745688001388626,13,27,0.0,16399,470641625562338,7,47.6,268.3236083984375,0.8210000395774841,16,0.0,0.0,1575420030,,,,0,0.0,1,-50.43,42.6,0.0,0.0,,,C,2159467218537971
Raw,2159467218,1893008274000000,18,0.0,-1401713633420428252,-0.07114219665527344,14421.91656678915,-5.35017752545913,29.745688001388626,13,32,0.0,16399,470641623956926,16,39.7,-105.96503448486328,0.9940000176429749,16,0.0,0.0,1575420030,,,,0,0.0,1,-50.43,34.7,0.0,0.0,,,C,2159467218567398
Raw,2159467218,1893008274000000,18,0.0,-1401713633420428252,-0.07114219665527344,14421.91656678915,-5.35017752545913,29.745688001388626,13,195,0.0,1,527938,35,32.8,-584.6868286132812,0.6994999647140503,16,0.0,0.0,1575420030,,,,0,0.0,4,-50.43,27.799999999999997,0.0,0.0,,,C,2159467218589273
Raw,2159467218,1893008274000000,18,0.0,-1401713633420428252,-0.07114219665527344,14421.91656678915,-5.35017752545913,29.745688001388626,13,2,0.0,49359,49423618423711,24,34.4,-754.0209350585938,1.1614999771118164,16,0.0,0.0,1599750020,,,,0,0.0,3,-46.19,30.4,4870.177734375,17.590723037719727,,,C,2159467218610731
Raw,2159467218,1893008274000000,18,0.0,-1401713633420428252,-0.07114219665527344,14421.91656678915,-5.35017752545913,29.745688001388626,13,22,0.0,49359,49423617051413,27,33.5,552.746826171875,0.6180000305175781,16,0.0,0.0,1600312450,,,,0,0.0,3,-46.19,29.5,4870.177734375,17.590723037719727,,,C,2159467218630888
Raw,2159467218,1893008274000000,18,0.0,-1401713633420428252,-0.07114219665527344,14421.91656678915,-5.35017752545913,29.745688001388626,13,1,0.0,49359,49423629717695,12,41.6,-272.57135009765625,0.9350000619888306,16,0.0,0.0,1602562560,,,,0,0.0,3,-46.19,37.6,4870.177734375,17.590723037719727,,,C,2159467218651929
Raw,2159467218,1893008274000000,18,0.0,-1401713633420428252,-0.07114219665527344,14421.91656678915,-5.35017752545913,29.745688001388626,13,24,0.0,49359,49423625483430,16,38.0,-502.1366271972656,1.0210000276565552,16,0.0,0.0,1603124990,,,,0,0.0,3,-46.19,34.0,4870.177734375,17.590723037719727,,,C,2159467218672502
Raw,2159467218,1893008274000000,18,0.0,-1401713633420428252,-0.07114219665527344,14421.91656678915,-5.35017752545913,29.745688001388626,13,8,0.0,49359,49423625756238,27,33.7,539.2949829101562,0.6360000371932983,16,0.0,0.0,1605374980,,,,0,0.0,3,-46.19,29.700000000000003,4870.177734375,17.590723037719727,,,C,2159467218691304
Raw,2159467218,1893008274000000,18,0.0,-1401713633420428252,-0.07114219665527344,14421.91656678915,-5.35017752545913,29.745688001388626,13,2,0.0,23567,470641602370376,24,34.4,43.2061767578125,1.0414999723434448,16,0.0,0.0,1575420030,,,,0,0.0,6,-53.68,30.099999999999998,-9.267744064331055,16.644855499267578,,,C,2159467218736461
Raw,2159467218,1893008274000000,18,0.0,-1401713633420428252,-0.07114219665527344,14421.91656678915,-5.35017752545913,29.745688001388626,13,9,0.0,23567,470641608777686,40,30.5,-532.9840698242188,0.9304999709129333,16,0.0,0.0,1575420030,,,,0,0.0,6,-53.68,26.2,-9.267744064331055,16.644855499267578,,,C,2159467218760523
Raw,2159467218,1893008274000000,18,0.0,-1401713633420428252,-0.07114219665527344,14421.91656678915,-5.35017752545913,29.745688001388626,13,10,0.0,23567,470641613463959,31,32.4,60.294551849365234,1.1330000162124634,16,0.0,0.0,1575420030,,,,0,0.0,6,-53.68,28.099999999999998,-9.267744064331055,16.644855499267578,,,C,2159467218781461
Raw,2159467218,1893008274000000,18,0.0,-1401713633420428252,-0.07114219665527344,14421.91656678915,-5.35017752545913,29.745688001388626,13,11,0.0,23567,470641617313548,35,31.6,-125.47965240478516,1.193000078201294,16,0.0,0.0,1575420030,,,,0,0.0,6,-53.68,27.3,-9.267744064331055,16.644855499267578,,,C,2159467218808700
Raw,2159467218,1893008274000000,18,0.0,-1401713633420428252,-0.07114219665527344,14421.91656678915,-5.35017752545913,29.745688001388626,13,25,0.0,23567,470641605086234,46,30.2,378.2847900390625,0.9319999814033508,16,0.0,0.0,1575420030,,,,0,0.0,6,-53.68,25.9,-9.267744064331055,16.644855499267578,,,C,2159467218834586
Raw,2159467218,1893008274000000,18,0.0,-1401713633420428252,-0.07114219665527344,14421.91656678915,-5.35017752545913,29.745688001388626,13,36,0.0,23567,470641605950010,27,33.7,-352.861572265625,1.0830000638961792,16,0.0,0.0,1575420030,,,,0,0.0,6,-53.68,29.400000000000002,-9.267744064331055,16.644855499267578,,,C,2159467218865888
Raw,2159467218,1893008274000000,18,0.0,-1401713633420428252,-0.07114219665527344,14421.91656678915,-5.35017752545913,29.745688001388626,13,8,0.0,81935,470641624331115,6,36.1,-174.0730438232422,1.0425000190734863,16,0.0,0.0,1176450050,,,,0,0.0,1,-37.2,31.1,4.140485763549805,5.247569561004639,,,Q,2159467218922294
Raw,2159467218,1893008274000000,18,0.0,-1401713633420428252,-0.07114219665527344,14421.91656678915,-5.35017752545913,29.745688001388626,13,27,0.0,81935,470641625562337,6,35.2,268.2574768066406,1.0709999799728394,16,0.0,0.0,1176450050,,,,0,0.0,1,-37.2,30.200000000000003,4.140485763549805,5.247569561004639,,,Q,2159467218949013
Raw,2159467218,1893008274000000,18,0.0,-1401713633420428252,-0.07114219665527344,14421.91656678915,-5.35017752545913,29.745688001388626,13,10,0.0,81935,470641613463893,10,30.8,60.406986236572266,1.2589999437332153,16,0.0,0.0,1176450050,,,,0,0.0,6,-37.2,25.5,-20.797470092773438,28862.689453125,,,Q,2159467218969169
Raw,2159467218,1893008274000000,18,0.0,-1401713633420428252,-0.07114219665527344,14421.91656678915,-5.35017752545913,29.745688001388626,13,11,0.0,81935,470641617313508,8,34.2,-125.78311920166016,1.0429999828338623,16,0.0,0.0,1176450050,,,,0,0.0,6,-37.2,28.900000000000002,-20.797470092773438,28862.689453125,,,Q,2159467218992606
Raw,2159469065,1893009994000000,18,0.0,-1401713633420428257,-0.2567462921142578,30.425118893617764,-6.946254312494546,12.023857990211084,13,2,0.0,16399,470643332291713,40,31.4,-467.4849853515625,1.3895000219345093,16,0.0,0.0,1575420030,,,,0,0.0,1,-53.55,26.4,0.0,0.0,,,C,2159469065024220
Raw,2159469065,1893009994000000,18,0.0,-1401713633420428257,-0.2567462921142578,30.425118893617764,-6.946254312494546,12.023857990211084,13,8,0.0,16399,470643344332112,9,45.9,-174.21385192871094,0.26750001311302185,16,0.0,0.0,1575420030,,,,0,0.0,1,-53.55,40.9,0.0,0.0,,,C,2159469065281460
Raw,2159469065,1893009994000000,18,0.0,-1401713633420428257,-0.2567462921142578,30.425118893617764,-6.946254312494546,12.023857990211084,13,10,0.0,16399,470643342743896,53,29.7,328.6086120605469,1.3294999599456787,16,0.0,0.0,1575420030,,,,0,0.0,1,-53.55,24.7,0.0,0.0,,,C,2159469065632189
Raw,2159469065,1893009994000000,18,0.0,-1401713633420428257,-0.2567462921142578,30.425118893617764,-6.946254312494546,12.023857990211084,13,16,0.0,16399,470643331725433,40,31.7,543.6309814453125,0.7369999885559082,16,0.0,0.0,1575420030,,,,0,0.0,1,-53.55,26.7,0.0,0.0,,,C,2159469065758491
Raw,2159469065,1893009994000000,18,0.0,-1401713633420428257,-0.2567462921142578,30.425118893617764,-6.946254312494546,12.023857990211084,13,21,0.0,16399,470643337924265,40,31.4,-385.1924743652344,0.7279999852180481,16,0.0,0.0,1575420030,,,,0,0.0,1,-53.55,26.4,0.0,0.0,,,C,2159469065783752
Raw,2159469065,1893009994000000,18,0.0,-1401713633420428257,-0.2567462921142578,30.425118893617764,-6.946254312494546,12.023857990211084,13,27,0.0,16399,470643345560804,11,43.7,267.69561767578125,0.3060000240802765,16,0.0,0.0,1575420030,,,,0,0.0,1,-53.55,38.7,0.0,0.0,,,C,2159469065800835
Raw,2159469065,1893009994000000,18,0.0,-1401713633420428257,-0.2567462921142578,30.425118893617764,-6.946254312494546,12.023857990211084,13,32,0.0,16399,470643343957550,31,33.2,-106.97359466552734,0.6389999985694885,16,0.0,0.0,1575420030,,,,0,0.0,1,-53.55,28.200000000000003,0.0,0.0,,,C,2159469065818856
Raw,2159469065,1893009994000000,18,0.0,-1401713633420428257,-0.2567462921142578,30.425118893617764,-6.946254312494546,12.023857990211084,13,1,0.0,49359,49425349719311,24,34.5,-273.5440979003906,0.5900000333786011,16,0.0,0.0,1602562560,,,,0,0.0,3,-51.68,30.5,4860.46923828125,9.518312454223633,,,C,2159469065835054
Raw,2159469065,1893009994000000,18,0.0,-1401713633420428257,-0.2567462921142578,30.425118893617764,-6.946254312494546,12.023857990211084,13,23,0.0,49359,49425347736079,53,28.0,128.50218200683594,2.697000026702881,16,0.0,0.0,1603687550,,,,0,0.0,3,-51.68,24.0,4860.46923828125,9.518312454223633,,,C,2159469065853283
Raw,2159469065,1893009994000000,18,0.0,-1401713633420428257,-0.2567462921142578,30.425118893617764,-6.946254312494546,12.023857990211084,13,8,0.0,49359,49425345753071,70,26.5,539.5377197265625,1.7289999723434448,16,0.0,0.0,1605374980,,,,0,0.0,3,-51.68,22.5,4860.46923828125,9.518312454223633,,,C,2159469065870470
Raw,2159469065,1893009994000000,18,0.0,-1401713633420428257,-0.2567462921142578,30.425118893617764,-6.946254312494546,12.023857990211084,13,43,0.0,16399,470629342483097,61,27.8,56.00831604003906,1.0295000076293945,16,0.0,0.0,1561097980,,,,0,0.0,5,-63.0,23.5,-462.57427978515625,6.908426761627197,,,I,2159469065885939
Raw,2159469065,1893009994000000,18,0.0,-1401713633420428257,-0.2567462921142578,30.425118893617764,-6.946254312494546,12.023857990211084,13,42,0.0,16399,470629339712174,19,37.0,313.6293029785156,0.48500001430511475,16,0.0,0.0,1561097980,,,,0,0.0,5,-63.0,32.7,-462.57427978515625,6.908426761627197,,,I,2159469065912970
Raw,2159469065,1893009994000000,18,0.0,-1401713633420428257,-0.2567462921142578,30.425118893617764,-6.946254312494546,12.023857990211084,13,41,0.0,16399,470629327066997,21,35.9,-585.4036254882812,0.5669999718666077,16,0.0,0.0,1561097980,,,,0,0.0,5,-63.0,31.599999999999998,-462.57427978515625,6.908426761627197,,,I,2159469065937449
Raw,2159469065,1893009994000000,18,0.0,-1401713633420428257,-0.2567462921142578,30.425118893617764,-6.946254312494546,12.023857990211084,13,34,0.0,16399,470629334799914,46,29.6,473.3965759277344,0.8974999785423279,16,0.0,0.0,1561097980,,,,0,0.0,5,-63.0,25.3,-462.57427978515625,6.908426761627197,,,I,2159469065955522
Raw,2159469065,1893009994000000,18,0.0,-1401713633420428257,-0.2567462921142578,30.425118893617764,-6.946254312494546,12.023857990211084,13,33,0.0,16399,470629339661655,19,36.8,-282.067626953125,0.5249999761581421,16,0.0,0.0,1561097980,,,,0,0.0,5,-63.0,32.5,-462.57427978515625,6.908426761627197,,,I,2159469065974272
Raw,2159469066,1893009994000000,18,0.0,-1401713633420428257,-0.2567462921142578,30.425118893617764,-6.946254312494546,12.023857990211084,13,28,0.0,16399,470629334705742,31,33.1,-501.1558837890625,0.9075000286102295,16,0.0,0.0,1561097980,,,,0,0.0,5,-63.0,28.8,-462.57427978515625,6.908426761627197,,,I,2159469066032814
Raw,2159469066,1893009994000000,18,0.0,-1401713633420428257,-0.2567462921142578,30.425118893617764,-6.946254312494546,12.023857990211084,13,14,0.0,16399,470629343581095,35,31.4,19.3671817779541,0.7489999532699585,16,0.0,0.0,1561097980,,,,0,0.0,5,-63.0,27.099999999999998,-462.57427978515625,6.908426761627197,,,I,2159469066049272
Raw,2159469066,1893009994000000,18,0.0,-1401713633420428257,-0.2567462921142578,30.425118893617764,-6.946254312494546,12.023857990211084,13,2,0.0,23567,470643322370126,46,29.4,42.28325271606445,0.8884999752044678,16,0.0,0.0,1575420030,,,,0,0.0,6,-57.21,25.099999999999998,0.023487569764256477,7.269282817840576,,,C,2159469066068439
Raw,2159469066,1893009994000000,18,0.0,-1401713633420428257,-0.2567462921142578,30.425118893617764,-6.946254312494546,12.023857990211084,13,4,0.0,23567,470643334245238,80,25.5,-138.0580596923828,1.5985000133514404,16,0.0,0.0,1575420030,,,,0,0.0,6,-57.21,21.2,0.023487569764256477,7.269282817840576,,,C,2159469066088699
Raw,2159469066,1893009994000000,18,0.0,-1401713633420428257,-0.2567462921142578,30.425118893617764,-6.946254312494546,12.023857990211084,13,10,0.0,23567,470643333463536,53,28.8,59.79978561401367,0.9569999575614929,16,0.0,0.0,1575420030,,,,0,0.0,6,-57.21,24.5,0.023487569764256477,7.269282817840576,,,C,2159469066159481
Raw,2159469066,1893009994000000,18,0.0,-1401713633420428257,-0.2567462921142578,30.425118893617764,-6.946254312494546,12.023857990211084,13,11,0.0,23567,470643337314298,70,27.0,-126.4216079711914,1.037000060081482,16,0.0,0.0,1575420030,,,,0,0.0,6,-57.21,22.7,0.023487569764256477,7.269282817840576,,,C,2159469066184116
Raw,2159469066,1893009994000000,18,0.0,-1401713633420428257,-0.2567462921142578,30.425118893617764,-6.946254312494546,12.023857990211084,13,25,0.0,23567,470643325084015,53,28.4,377.095458984375,0.9569999575614929,16,0.0,0.0,1575420030,,,,0,0.0,6,-57.21,24.099999999999998,0.023487569764256477,7.269282817840576,,,C,2159469066203543
Raw,2159469066,1893009994000000,18,0.0,-1401713633420428257,-0.2567462921142578,30.425118893617764,-6.946254312494546,12.023857990211084,13,36,0.0,23567,470643325952018,31,32.8,-353.9081726074219,0.7069999575614929,16,0.0,0.0,1575420030,,,,0,0.0,6,-57.21,28.499999999999996,0.023487569764256477,7.269282817840576,,,C,2159469066462502
Raw,2159469066,1893009994000000,18,0.0,-1401713633420428257,-0.2567462921142578,30.425118893617764,-6.946254312494546,12.023857990211084,13,8,0.0,81935,470643344332076,8,33.4,-174.4552764892578,0.6375000476837158,16,0.0,0.0,1176450050,,,,0,0.0,1,-37.35,28.4,4.138254165649414,5.250772476196289,,,Q,2159469066512970
Raw,2159469066,1893009994000000,18,0.0,-1401713633420428257,-0.2567462921142578,30.425118893617764,-6.946254312494546,12.023857990211084,13,10,0.0,81935,470643342743843,6,35.7,328.1675720214844,0.5444999933242798,16,0.0,0.0,1176450050,,,,0,0.0,1,-37.35,30.700000000000003,4.138254165649414,5.250772476196289,,,Q,2159469066531616
Raw,2159469066,1893009994000000,18,0.0,-1401713633420428257,-0.2567462921142578,30.425118893617764,-6.946254312494546,12.023857990211084,13,23,0.0,81935,470643335676411,14,27.4,522.4357299804688,1.034000039100647,16,0.0,0.0,1176450050,,,,0,0.0,1,-37.35,22.4,4.138254165649414,5.250772476196289,,,Q,2159469066550835
Raw,2159469066,1893009994000000,18,0.0,-1401713633420428257,-0.2567462921142578,30.425118893617764,-6.946254312494546,12.023857990211084,13,27,0.0,81935,470643345560788,5,38.3,267.6331481933594,0.4390000104904175,16,0.0,0.0,1176450050,,,,0,0.0,1,-37.35,33.3,4.138254165649414,5.250772476196289,,,Q,2159469066567866
Raw,2159469066,1893009994000000,18,0.0,-1401713633420428257,-0.2567462921142578,30.425118893617764,-6.946254312494546,12.023857990211084,13,10,0.0,81935,470643333463552,14,27.4,59.94829559326172,1.571000099182129,16,0.0,0.0,1176450050,,,,0,0.0,6,-37.35,22.099999999999998,-11.483222007751465,64.24757385253906,,,Q,2159469066583595
Raw,2159469066,1893009994000000,18,0.0,-1401713633420428257,-0.2567462921142578,30.425118893617764,-6.946254312494546,12.023857990211084,13,11,0.0,81935,470643337314244,8,32.8,-126.6495361328125,0.7069999575614929,16,0.0,0.0,1176450050,,,,0,0.0,6,-37.35,27.499999999999996,-11.483222007751465,64.24757385253906,,,Q,2159469066600627
Raw,2159469066,1893009994000000,18,0.0,-1401713633420428257,-0.2567462921142578,30.425118893617764,-6.946254312494546,12.023857990211084,13,36,0.0,81935,470643325951996,14,27.5,-353.8542175292969,1.7990000247955322,16,0.0,0.0,1176450050,,,,0,0.0,6,-37.35,22.2,-11.483222007751465,64.24757385253906,,,Q,2159469066620262
Raw,2159469066,1893009994000000,18,0.0,-1401713633420428257,-0.2567462921142578,30.425118893617764,-6.946254312494546,12.023857990211084,13,28,0.0,16399,470629334705725,16,25.6,-501.18304443359375,1.2024999856948853,16,0.0,0.0,1176450050,,,,0,0.0,5,-37.35,21.1,-468.56817626953125,64.05738067626953,,,Q,2159469066636043
Raw,2159469066,1893009994000000,18,0.0,-1401713633420428257,-0.2567462921142578,30.425118893617764,-6.946254312494546,12.023857990211084,13,33,0.0,16399,470629339661559,3,40.9,-282.37493896484375,0.3799999952316284,16,0.0,0.0,1176450050,,,,0,0.0,5,-37.35,36.4,-468.56817626953125,64.05738067626953,,,Q,2159469066656616
Raw,2159469066,1893009994000000,18,0.0,-1401713633420428257,-0.2567462921142578,30.425118893617764,-6.946254312494546,12.023857990211084,13,41,0.0,16399,470629327066927,8,32.5,-585.5056762695312,0.6919999718666077,16,0.0,0.0,1176450050,,,,0,0.0,5,-37.35,28.0,-468.56817626953125,64.05738067626953,,,Q,2159469066677918
Raw,2159469066,1893009994000000,18,0.0,-1401713633420428257,-0.2567462921142578,30.425118893617764,-6.946254312494546,12.023857990211084,13,42,0.0,16399,470629339712130,9,30.5,313.4384765625,0.800000011920929,16,0.0,0.0,1176450050,,,,0,0.0,5,-37.35,26.0,-468.56817626953125,64.05738067626953,,,Q,2159469066694845
Raw,2159469066,1893009994000000,18,0.0,-1401713633420428257,-0.2567462921142578,30.425118893617764,-6.946254312494546,12.023857990211084,13,43,0.0,16399,470629342483075,12,28.2,56.15135955810547,1.3845000267028809,16,0.0,0.0,1176450050,,,,0,0.0,5,-37.35,23.7,-468.56817626953125,64.05738067626953,,,Q,2159469066712397
Raw,2159470033,1893010994000000,18,0.0,-1401713633420428272,-0.9327678680419922,25.797753551159985,-8.243247429062706,12.07050427154823,13,2,0.0,16399,470644332293274,35,32.0,-467.6371765136719,0.6754999756813049,16,0.0,0.0,1575420030,,,,0,0.0,1,-54.65,27.0,0.0,0.0,,,C,2159470033772293
Raw,2159470033,1893010994000000,18,0.0,-1401713633420428272,-0.9327678680419922,25.797753551159985,-8.243247429062706,12.07050427154823,13,8,0.0,16399,470644344332699,12,42.1,-173.90147399902344,0.044997572898864746,16,0.0,0.0,1575420030,,,,0,0.0,1,-54.65,37.1,0.0,0.0,,,C,2159470033901407
Raw,2159470034,1893010994000000,18,0.0,-1401713633420428272,-0.9327678680419922,25.797753551159985,-8.243247429062706,12.07050427154823,13,10,0.0,16399,470644342742732,46,30.1,328.86553955078125,0.8104999661445618,16,0.0,0.0,1575420030,,,,0,0.0,1,-54.65,25.1,0.0,0.0,,,C,2159470034325157
Raw,2159470034,1893010994000000,18,0.0,-1401713633420428272,-0.9327678680419922,25.797753551159985,-8.243247429062706,12.07050427154823,13,16,0.0,16399,470644331723615,70,27.5,543.1932983398438,1.0069999694824219,16,0.0,0.0,1575420030,,,,0,0.0,1,-54.65,22.5,0.0,0.0,,,C,2159470034365782
Raw,2159470034,1893010994000000,18,0.0,-1401713633420428272,-0.9327678680419922,25.797753551159985,-8.243247429062706,12.07050427154823,13,21,0.0,16399,470644337925449,61,28.1,-385.4303283691406,0.9179999828338623,16,0.0,0.0,1575420030,,,,0,0.0,1,-54.65,23.1,0.0,0.0,,,C,2159470034385730
Raw,2159470034,1893010994000000,18,0.0,-1401713633420428272,-0.9327678680419922,25.797753551159985,-8.243247429062706,12.07050427154823,13,27,0.0,16399,470644345559902,13,41.2,268.1235656738281,0.04439195245504379,16,0.0,0.0,1575420030,,,,0,0.0,1,-54.65,36.2,0.0,0.0,,,C,2159470034402970
Raw,2159470034,1893010994000000,18,0.0,-1401713633420428272,-0.9327678680419922,25.797753551159985,-8.243247429062706,12.07050427154823,13,32,0.0,16399,470644343957903,27,34.0,-106.09823608398438,0.5989999771118164,16,0.0,0.0,1575420030,,,,0,0.0,1,-54.65,29.0,0.0,0.0,,,C,2159470034424272
Raw,2159470034,1893010994000000,18,0.0,-1401713633420428272,-0.9327678680419922,25.797753551159985,-8.243247429062706,12.07050427154823,13,1,0.0,49359,49426349720204,24,34.2,-272.8700256347656,0.10471603274345398,16,0.0,0.0,1602562560,,,,0,0.0,3,-54.29,30.200000000000003,4859.5869140625,9.374293327331543,,,C,2159470034439585
Raw,2159470034,1893010994000000,18,0.0,-1401713633420428272,-0.9327678680419922,25.797753551159985,-8.243247429062706,12.07050427154823,13,24,0.0,49359,49426345487999,92,24.6,-502.34228515625,1.9539999961853027,16,0.0,0.0,1603124990,,,,0,0.0,3,-54.29,20.6,4859.5869140625,9.374293327331543,,,C,2159470034458439
Raw,2159470034,1893010994000000,18,0.0,-1401713633420428272,-0.9327678680419922,25.797753551159985,-8.243247429062706,12.07050427154823,13,8,0.0,49359,49426345751262,46,29.1,539.0708618164062,0.8659999966621399,16,0.0,0.0,1605374980,,,,0,0.0,3,-54.29,25.1,4859.5869140625,9.374293327331543,,,C,2159470034474741
Raw,2159470034,1893010994000000,18,0.0,-1401713633420428272,-0.9327678680419922,25.797753551159985,-8.243247429062706,12.07050427154823,13,42,0.0,16399,470630339711136,21,35.4,313.6581115722656,0.5550000071525574,16,0.0,0.0,1561097980,,,,0,0.0,5,-64.04,31.099999999999998,-462.5967102050781,6.880276203155518,,,I,2159470034492345
Raw,2159470034,1893010994000000,18,0.0,-1401713633420428272,-0.9327678680419922,25.797753551159985,-8.243247429062706,12.07050427154823,13,41,0.0,16399,470630327068934,17,37.6,-584.9906616210938,0.4729999899864197,16,0.0,0.0,1561097980,,,,0,0.0,5,-64.04,33.300000000000004,-462.5967102050781,6.880276203155518,,,I,2159470034511616
Raw,2159470034,1893010994000000,18,0.0,-1401713633420428272,-0.9327678680419922,25.797753551159985,-8.243247429062706,12.07050427154823,13,34,0.0,16399,470630334798339,61,27.8,473.9822998046875,1.002500057220459,16,0.0,0.0,1561097980,,,,0,0.0,5,-64.04,23.5,-462.5967102050781,6.880276203155518,,,I,2159470034528907
Raw,2159470034,1893010994000000,18,0.0,-1401713633420428272,-0.9327678680419922,25.797753551159985,-8.243247429062706,12.07050427154823,13,33,0.0,16399,470630339662590,46,29.6,-282.2308349609375,0.875,16,0.0,0.0,1561097980,,,,0,0.0,5,-64.04,25.3,-462.5967102050781,6.880276203155518,,,I,2159470034547605
Raw,2159470034,1893010994000000,18,0.0,-1401713633420428272,-0.9327678680419922,25.797753551159985,-8.243247429062706,12.07050427154823,13,28,0.0,16399,470630334707402,27,33.4,-500.9734191894531,0.6225000023841858,16,0.0,0.0,1561097980,,,,0,0.0,5,-64.04,29.099999999999998,-462.5967102050781,6.880276203155518,,,I,2159470034658751
Raw,2159470034,1893010994000000,18,0.0,-1401713633420428272,-0.9327678680419922,25.797753551159985,-8.243247429062706,12.07050427154823,13,11,0.0,16399,470630340376715,80,25.7,259.12847900390625,2.4565000534057617,16,0.0,0.0,1561097980,,,,0,0.0,5,-64.04,21.4,-462.5967102050781,6.880276203155518,,,I,2159470034684324
Raw,2159470034,1893010994000000,18,0.0,-1401713633420428272,-0.9327678680419922,25.797753551159985,-8.243247429062706,12.07050427154823,13,9,0.0,16399,470630280527411,70,26.6,-335.1473388671875,2.741499900817871,16,0.0,0.0,1561097980,,,,0,0.0,5,-64.04,22.3,-462.5967102050781,6.880276203155518,,,I,2159470034702814
Raw,2159470034,1893010994000000,18,0.0,-1401713633420428272,-0.9327678680419922,25.797753551159985,-8.243247429062706,12.07050427154823,13,2,0.0,23567,470644322370053,70,27.0,42.730445861816406,1.0385000705718994,16,0.0,0.0,1575420030,,,,0,0.0,6,-58.27,22.7,0.2577470541000366,7.244952201843262,,,C,2159470034719480
Raw,2159470034,1893010994000000,18,0.0,-1401713633420428272,-0.9327678680419922,25.797753551159985,-8.243247429062706,12.07050427154823,13,4,0.0,23567,470644334245674,35,31.6,-137.79562377929688,0.8080363869667053,16,0.0,0.0,1575420030,,,,0,0.0,6,-58.27,27.3,0.2577470541000366,7.244952201843262,,,C,2159470034737293
Raw,2159470034,1893010994000000,18,0.0,-1401713633420428272,-0.9327678680419922,25.797753551159985,-8.243247429062706,12.07050427154823,13,10,0.0,23567,470644333463345,40,31.1,60.156864166259766,1.607528567314148,16,0.0,0.0,1575420030,,,,0,0.0,6,-58.27,26.8,0.2577470541000366,7.244952201843262,,,C,2159470034753595
Raw,2159470034,1893010994000000,18,0.0,-1401713633420428272,-0.9327678680419922,25.797753551159985,-8.243247429062706,12.07050427154823,13,11,0.0,23567,470644337314683,70,26.5,-126.4216079711914,1.1169999837875366,16,0.0,0.0,1575420030,,,,0,0.0,6,-58.27,22.2,0.2577470541000366,7.244952201843262,,,C,2159470034768126
Raw,2159470034,1893010994000000,18,0.0,-1401713633420428272,-0.9327678680419922,25.797753551159985,-8.243247429062706,12.07050427154823,13,24,0.0,23567,470644320022223,92,24.7,469.6828308105469,1.9854999780654907,16,0.0,0.0,1575420030,,,,0,0.0,6,-58.27,20.4,0.2577470541000366,7.244952201843262,,,C,2159470034784793
Raw,2159470034,1893010994000000,18,0.0,-1401713633420428272,-0.9327678680419922,25.797753551159985,-8.243247429062706,12.07050427154823,13,36,0.0,23567,470644325953226,35,32.0,-353.5609436035156,0.8365363478660583,16,0.0,0.0,1575420030,,,,0,0.0,6,-58.27,27.7,0.2577470541000366,7.244952201843262,,,C,2159470034801824
Raw,2159470034,1893010994000000,18,0.0,-1401713633420428272,-0.9327678680419922,25.797753551159985,-8.243247429062706,12.07050427154823,13,8,0.0,81935,470644344332639,8,32.0,-173.89329528808594,0.057656899094581604,16,0.0,0.0,1176450050,,,,0,0.0,1,-37.35,27.0,4.1401543617248535,5.251270771026611,,,Q,2159470034816980
Raw,2159470034,1893010994000000,18,0.0,-1401713633420428272,-0.9327678680419922,25.797753551159985,-8.243247429062706,12.07050427154823,13,10,0.0,81935,470644342742743,6,35.2,328.59124755859375,0.04841361194849014,16,0.0,0.0,1176450050,,,,0,0.0,1,-37.35,30.200000000000003,4.1401543617248535,5.251270771026611,,,Q,2159470034836876
Raw,2159470034,1893010994000000,18,0.0,-1401713633420428272,-0.9327678680419922,25.797753551159985,-8.243247429062706,12.07050427154823,13,23,0.0,81935,470644335674655,11,29.7,522.7386474609375,0.9518356323242188,16,0.0,0.0,1176450050,,,,0,0.0,1,-37.35,24.7,4.1401543617248535,5.251270771026611,,,Q,2159470034854585
Raw,2159470034,1893010994000000,18,0.0,-1401713633420428272,-0.9327678680419922,25.797753551159985,-8.243247429062706,12.07050427154823,13,27,0.0,81935,470644345559895,6,35.5,268.13665771484375,0.07702034711837769,16,0.0,0.0,1176450050,,,,0,0.0,1,-37.35,30.5,4.1401543617248535,5.251270771026611,,,Q,2159470034870157
Raw,2159470034,1893010994000000,18,0.0,-1401713633420428272,-0.9327678680419922,25.797753551159985,-8.243247429062706,12.07050427154823,13,2,0.0,81935,470644322369976,14,27.4,42.88755798339844,1.7345000505447388,16,0.0,0.0,1176450050,,,,0,0.0,6,-37.35,22.099999999999998,-11.21451473236084,55.28318786621094,,,Q,2159470034889012
Raw,2159470034,1893010994000000,18,0.0,-1401713633420428272,-0.9327678680419922,25.797753551159985,-8.243247429062706,12.07050427154823,13,10,0.0,81935,470644333463340,12,29.2,59.76991653442383,0.8809999823570251,16,0.0,0.0,1176450050,,,,0,0.0,6,-37.35,23.9,-11.21451473236084,55.28318786621094,,,Q,2159470034906043
Raw,2159470034,1893010994000000,18,0.0,-1401713633420428272,-0.9327678680419922,25.797753551159985,-8.243247429062706,12.07050427154823,13,11,0.0,81935,470644337314661,14,27.8,-126.48389434814453,1.037000060081482,16,0.0,0.0,1176450050,,,,0,0.0,6,-37.35,22.5,-11.21451473236084,55.28318786621094,,,Q,2159470034923751
Raw,2159470034,1893010994000000,18,0.0,-1401713633420428272,-0.9327678680419922,25.797753551159985,-8.243247429062706,12.07050427154823,13,36,0.0,81935,470644325953172,8,32.6,-353.5556335449219,0.8236410021781921,16,0.0,0.0,1176450050,,,,0,0.0,6,-37.35,27.3,-11.21451473236084,55.28318786621094,,,Q,2159470034942345
Raw,2159470034,1893010994000000,18,0.0,-1401713633420428272,-0.9327678680419922,25.797753551159985,-8.243247429062706,12.07050427154823,13,28,0.0,16399,470630334707394,12,27.8,-501.4888610839844,1.0325000286102295,16,0.0,0.0,1176450050,,,,0,0.0,5,-37.35,23.3,-468.5835876464844,55.06510925292969,,,Q,2159470034957762
Raw,2159470034,1893010994000000,18,0.0,-1401713633420428272,-0.9327678680419922,25.797753551159985,-8.243247429062706,12.07050427154823,13,33,0.0,16399,470630339662496,4,39.3,-281.9176330566406,0.04447423294186592,16,0.0,0.0,1176450050,,,,0,0.0,5,-37.35,34.8,-468.5835876464844,55.06510925292969,,,Q,2159470034973803
Raw,2159470034,1893010994000000,18,0.0,-1401713633420428272,-0.9327678680419922,25.797753551159985,-8.243247429062706,12.07050427154823,13,41,0.0,16399,470630327068879,8,32.5,-585.1871337890625,0.6919999718666077,16,0.0,0.0,1176450050,,,,0,0.0,5,-37.35,28.0,-468.5835876464844,55.06510925292969,,,Q,2159470034991043
Raw,2159470035,1893010994000000,18,0.0,-1401713633420428272,-0.9327678680419922,25.797753551159985,-8.243247429062706,12.07050427154823,13,42,0.0,16399,470630339711075,11,28.5,313.3747863769531,0.9300000071525574,16,0.0,0.0,1176450050,,,,0,0.0,5,-37.35,24.0,-468.5835876464844,55.06510925292969,,,Q,2159470035007814
Raw,2159470035,1893010994000000,18,0.0,-1401713633420428272,-0.9327678680419922,25.797753551159985,-8.243247429062706,12.07050427154823,13,43,0.0,16399,470630342482890,8,32.0,56.35428237915039,0.8191410303115845,16,0.0,0.0,1176450050,,,,0,0.0,5,-37.35,27.5,-468.5835876464844,55.06510925292969,,,Q,2159470035025366
Raw,2159471018,1893011994000000,18,0.0,-1401713633420428280,-0.025720596313476562,24.428711185464635,-7.509290213491997,13.85700578986356,13,2,0.0,16399,470645332294856,35,32.8,-468.05584716796875,0.6754999756813049,16,0.0,0.0,1575420030,,,,0,0.0,1,-54.01,27.799999999999997,0.0,0.0,,,C,2159471018411042
Raw,2159471019,1893011994000000,18,0.0,-1401713633420428280,-0.025720596313476562,24.428711185464635,-7.509290213491997,13.85700578986356,13,8,0.0,16399,470645344333271,13,41.5,-173.80999755859375,0.04589195176959038,16,0.0,0.0,1575420030,,,,0,0.0,1,-54.01,36.5,0.0,0.0,,,C,2159471019889220
Raw,2159471020,1893011994000000,18,0.0,-1401713633420428280,-0.025720596313476562,24.428711185464635,-7.509290213491997,13.85700578986356,13,10,0.0,16399,470645342741689,40,31.7,328.0948486328125,0.750499963760376,16,0.0,0.0,1575420030,,,,0,0.0,1,-54.01,26.7,0.0,0.0,,,C,2159471020007865
Raw,2159471020,1893011994000000,18,0.0,-1401713633420428280,-0.025720596313476562,24.428711185464635,-7.509290213491997,13.85700578986356,13,16,0.0,16399,470645331721817,53,29.5,544.4873046875,0.8569999933242798,16,0.0,0.0,1575420030,,,,0,0.0,1,-54.01,24.5,0.0,0.0,,,C,2159471020099688
Raw,2159471020,1893011994000000,18,0.0,-1401713633420428280,-0.025720596313476562,24.428711185464635,-7.509290213491997,13.85700578986356,13,27,0.0,16399,470645345559029,14,40.8,268.2166748046875,0.04549565538764,16,0.0,0.0,1575420030,,,,0,0.0,1,-54.01,35.8,0.0,0.0,,,C,2159471020341199
Raw,2159471020,1893011994000000,18,0.0,-1401713633420428280,-0.025720596313476562,24.428711185464635,-7.509290213491997,13.85700578986356,13,32,0.0,16399,470645343958268,27,34.1,-106.2029037475586,0.5989999771118164,16,0.0,0.0,1575420030,,,,0,0.0,1,-54.01,29.1,0.0,0.0,,,C,2159471020762397
Raw,2159471020,1893011994000000,18,0.0,-1401713633420428280,-0.025720596313476562,24.428711185464635,-7.509290213491997,13.85700578986356,13,1,0.0,49359,49427349721079,27,33.2,-272.3094482421875,0.6300000548362732,16,0.0,0.0,1602562560,,,,0,0.0,3,-54.36,29.200000000000003,4858.6640625,9.220781326293945,,,C,2159471020897553
Raw,2159471021,1893011994000000,18,0.0,-1401713633420428280,-0.025720596313476562,24.428711185464635,-7.509290213491997,13.85700578986356,13,8,0.0,49359,49427345749456,40,30.6,539.1549072265625,0.8059999942779541,16,0.0,0.0,1605374980,,,,0,0.0,3,-54.36,26.6,4858.6640625,9.220781326293945,,,C,2159471021003647
Raw,2159471021,1893011994000000,18,0.0,-1401713633420428280,-0.025720596313476562,24.428711185464635,-7.509290213491997,13.85700578986356,13,42,0.0,16399,470631339710072,24,34.8,313.8739929199219,0.12170056998729706,16,0.0,0.0,1561097980,,,,0,0.0,5,-63.5,30.499999999999996,-462.7968444824219,6.852777004241943,,,I,2159471021642240
Raw,2159471021,1893011994000000,18,0.0,-1401713633420428280,-0.025720596313476562,24.428711185464635,-7.509290213491997,13.85700578986356,13,41,0.0,16399,470631327070886,17,38.2,-585.0572509765625,0.04893927648663521,16,0.0,0.0,1561097980,,,,0,0.0,5,-63.5,33.900000000000006,-462.7968444824219,6.852777004241943,,,I,2159471021681095
Raw,2159471021,1893011994000000,18,0.0,-1401713633420428280,-0.025720596313476562,24.428711185464635,-7.509290213491997,13.85700578986356,13,34,0.0,16399,470631334796733,53,28.8,474.4911804199219,0.92249995470047,16,0.0,0.0,1561097980,,,,0,0.0,5,-63.5,24.5,-462.7968444824219,6.852777004241943,,,I,2159471021704324
Raw,2159471021,1893011994000000,18,0.0,-1401713633420428280,-0.025720596313476562,24.428711185464635,-7.509290213491997,13.85700578986356,13,28,0.0,16399,470631334709078,27,33.8,-501.376708984375,0.6225000023841858,16,0.0,0.0,1561097980,,,,0,0.0,5,-63.5,29.499999999999996,-462.7968444824219,6.852777004241943,,,I,2159471021722917
Raw,2159471021,1893011994000000,18,0.0,-1401713633420428280,-0.025720596313476562,24.428711185464635,-7.509290213491997,13.85700578986356,13,11,0.0,16399,470631340375889,53,28.3,258.5811767578125,0.9465000033378601,16,0.0,0.0,1561097980,,,,0,0.0,5,-63.5,24.0,-462.7968444824219,6.852777004241943,,,I,2159471021741095
Raw,2159471021,1893011994000000,18,0.0,-1401713633420428280,-0.025720596313476562,24.428711185464635,-7.509290213491997,13.85700578986356,13,2,0.0,23567,470645322369896,61,27.9,42.75898742675781,1.0385000705718994,16,0.0,0.0,1575420030,,,,0,0.0,6,-57.58,23.599999999999998,0.3013654947280884,7.210116863250732,,,C,2159471021757553
Raw,2159471021,1893011994000000,18,0.0,-1401713633420428280,-0.025720596313476562,24.428711185464635,-7.509290213491997,13.85700578986356,13,4,0.0,23567,470645334246134,40,30.8,-137.69143676757812,0.8145443797111511,16,0.0,0.0,1575420030,,,,0,0.0,6,-57.58,26.5,0.3013654947280884,7.210116863250732,,,C,2159471021777501
Raw,2159471021,1893011994000000,18,0.0,-1401713633420428280,-0.025720596313476562,24.428711185464635,-7.509290213491997,13.85700578986356,13,10,0.0,23567,470645333463136,31,32.9,60.21126174926758,0.07020638138055801,16,0.0,0.0,1575420030,,,,0,0.0,6,-57.58,28.599999999999998,0.3013654947280884,7.210116863250732,,,C,2159471021794272
Raw,2159471021,1893011994000000,18,0.0,-1401713633420428280,-0.025720596313476562,24.428711185464635,-7.509290213491997,13.85700578986356,13,11,0.0,23567,470645337315053,80,26.0,-126.43112182617188,1.1169999837875366,16,0.0,0.0,1575420030,,,,0,0.0,6,-57.58,21.7,0.3013654947280884,7.210116863250732,,,C,2159471021810678
Raw,2159471021,1893011994000000,18,0.0,-1401713633420428280,-0.025720596313476562,24.428711185464635,-7.509290213491997,13.85700578986356,13,24,0.0,23567,470645320020613,61,27.5,469.8255615234375,1.005500078201294,16,0.0,0.0,1575420030,,,,0,0.0,6,-57.58,23.2,0.3013654947280884,7.210116863250732,,,C,2159471021826980
Raw,2159471021,1893011994000000,18,0.0,-1401713633420428280,-0.025720596313476562,24.428711185464635,-7.509290213491997,13.85700578986356,13,25,0.0,23567,470645325081541,80,25.4,377.50457763671875,1.9869999885559082,16,0.0,0.0,1575420030,,,,0,0.0,6,-57.58,21.099999999999998,0.3013654947280884,7.210116863250732,,,C,2159471021843542
Raw,2159471021,1893011994000000,18,0.0,-1401713633420428280,-0.025720596313476562,24.428711185464635,-7.509290213491997,13.85700578986356,13,36,0.0,23567,470645325954397,35,32.2,-353.5107421875,0.8365363478660583,16,0.0,0.0,1575420030,,,,0,0.0,6,-57.58,27.900000000000002,0.3013654947280884,7.210116863250732,,,C,2159471021858699
Raw,2159471021,1893011994000000,18,0.0,-1401713633420428280,-0.025720596313476562,24.428711185464635,-7.509290213491997,13.85700578986356,13,8,0.0,81935,470645344333226,9,31.8,-173.79469299316406,1.5953402519226074,16,0.0,0.0,1176450050,,,,0,0.0,1,-37.18,26.8,4.142539024353027,5.251769542694092,,,Q,2159471021875105
Raw,2159471021,1893011994000000,18,0.0,-1401713633420428280,-0.025720596313476562,24.428711185464635,-7.509290213491997,13.85700578986356,13,10,0.0,81935,470645342741649,6,36.6,328.5776062011719,0.060084737837314606,16,0.0,0.0,1176450050,,,,0,0.0,1,-37.18,31.6,4.142539024353027,5.251769542694092,,,Q,2159471021892501
Raw,2159471021,1893011994000000,18,0.0,-1401713633420428280,-0.025720596313476562,24.428711185464635,-7.509290213491997,13.85700578986356,13,23,0.0,81935,470645335672922,16,26.0,522.9453735351562,1.1139999628067017,16,0.0,0.0,1176450050,,,,0,0.0,1,-37.18,21.0,4.142539024353027,5.251769542694092,,,Q,2159471021908386
Raw,2159471021,1893011994000000,18,0.0,-1401713633420428280,-0.025720596313476562,24.428711185464635,-7.509290213491997,13.85700578986356,13,27,0.0,81935,470645345559005,7,34.4,268.1982421875,0.0975085198879242,16,0.0,0.0,1176450050,,,,0,0.0,1,-37.18,29.4,4.142539024353027,5.251769542694092,,,Q,2159471021926407
Raw,2159471021,1893011994000000,18,0.0,-1401713633420428280,-0.025720596313476562,24.428711185464635,-7.509290213491997,13.85700578986356,13,32,0.0,81935,470645343958220,27,22.5,-105.88105010986328,2.996000051498413,16,0.0,0.0,1176450050,,,,0,0.0,1,-37.18,17.5,4.142539024353027,5.251769542694092,,,Q,2159471021943074
Raw,2159471021,1893011994000000,18,0.0,-1401713633420428280,-0.025720596313476562,24.428711185464635,-7.509290213491997,13.85700578986356,13,2,0.0,81935,470645322369829,14,28.0,43.05319595336914,0.934499979019165,16,0.0,0.0,1176450050,,,,0,0.0,6,-37.18,22.7,-11.18326473236084,52.82859420776367,,,Q,2159471021958178
Raw,2159471021,1893011994000000,18,0.0,-1401713633420428280,-0.025720596313476562,24.428711185464635,-7.509290213491997,13.85700578986356,13,4,0.0,81935,470645334246116,23,24.2,-138.21873474121094,2.7925000190734863,16,0.0,0.0,1176450050,,,,0,0.0,6,-37.18,18.9,-11.18326473236084,52.82859420776367,,,Q,2159471021974480
Raw,2159471021,1893011994000000,18,0.0,-1401713633420428280,-0.025720596313476562,24.428711185464635,-7.509290213491997,13.85700578986356,13,10,0.0,81935,470645333463127,14,27.8,60.29231643676758,1.031000018119812,16,0.0,0.0,1176450050,,,,0,0.0,6,-37.18,22.5,-11.18326473236084,52.82859420776367,,,Q,2159471021990417
Raw,2159471022,1893011994000000,18,0.0,-1401713633420428280,-0.025720596313476562,24.428711185464635,-7.509290213491997,13.85700578986356,13,11,0.0,81935,470645337315076,16,26.8,-126.3182601928711,1.1169999837875366,16,0.0,0.0,1176450050,,,,0,0.0,6,-37.18,21.5,-11.18326473236084,52.82859420776367,,,Q,2159471022005470
Raw,2159471022,1893011994000000,18,0.0,-1401713633420428280,-0.025720596313476562,24.428711185464635,-7.509290213491997,13.85700578986356,13,24,0.0,81935,470645320020579,20,24.4,469.4442138671875,2.7715001106262207,16,0.0,0.0,1176450050,,,,0,0.0,6,-37.18,19.099999999999998,-11.18326473236084,52.82859420776367,,,Q,2159471022073699
Raw,2159471022,1893011994000000,18,0.0,-1401713633420428280,-0.025720596313476562,24.428711185464635,-7.509290213491997,13.85700578986356,13,36,0.0,81935,470645325954351,8,32.6,-353.5618591308594,0.8236410021781921,16,0.0,0.0,1176450050,,,,0,0.0,6,-37.18,27.3,-11.18326473236084,52.82859420776367,,,Q,2159471022105053
Raw,2159471022,1893011994000000,18,0.0,-1401713633420428280,-0.025720596313476562,24.428711185464635,-7.509290213491997,13.85700578986356,13,28,0.0,16399,470631334709058,11,29.3,-501.4378662109375,0.8824999928474426,16,0.0,0.0,1176450050,,,,0,0.0,5,-37.18,24.8,-468.7696838378906,52.58770751953125,,,Q,2159471022126824
Raw,2159471022,1893011994000000,18,0.0,-1401713633420428280,-0.025720596313476562,24.428711185464635,-7.509290213491997,13.85700578986356,13,33,0.0,16399,470631339663439,4,39.1,-281.83050537109375,0.04447423294186592,16,0.0,0.0,1176450050,,,,0,0.0,5,-37.18,34.6,-468.7696838378906,52.58770751953125,,,Q,2159471022142553
Raw,2159471022,1893011994000000,18,0.0,-1401713633420428280,-0.025720596313476562,24.428711185464635,-7.509290213491997,13.85700578986356,13,41,0.0,16399,470631327070833,8,32.7,-585.0589599609375,0.8241691589355469,16,0.0,0.0,1176450050,,,,0,0.0,5,-37.18,28.200000000000003,-468.7696838378906,52.58770751953125,,,Q,2159471022160209
Raw,2159471022,1893011994000000,18,0.0,-1401713633420428280,-0.025720596313476562,24.428711185464635,-7.509290213491997,13.85700578986356,13,42,0.0,16399,470631339710025,12,27.9,313.8844299316406,1.0099999904632568,16,0.0,0.0,1176450050,,,,0,0.0,5,-37.18,23.4,-468.7696838378906,52.58770751953125,,,Q,2159471022176615
Raw,2159471022,1893011994000000,18,0.0,-1401713633420428280,-0.025720596313476562,24.428711185464635,-7.509290213491997,13.85700578986356,13,43,0.0,16399,470631342482702,8,31.9,56.4117317199707,0.054656900465488434,16,0.0,0.0,1176450050,,,,0,0.0,5,-37.18,27.4,-468.7696838378906,52.58770751953125,,,Q,2159471022191824
Raw,2159472018,1893012994000000,18,0.0,-1401713633420428288,-0.16175460815429688,20.571485947584733,-7.305612161407304,11.855017124916273,13,2,0.0,16399,470646332296388,35,32.5,-467.589599609375,0.6754999756813049,16,0.0,0.0,1575420030,,,,0,0.0,1,-54.59,27.5,0.0,0.0,,,C,2159472018684844
Raw,2159472018,1893012994000000,18,0.0,-1401713633420428288,-0.16175460815429688,20.571485947584733,-7.305612161407304,11.855017124916273,13,8,0.0,16399,470646344333870,14,40.0,-173.67726135253906,0.046995654702186584,16,0.0,0.0,1575420030,,,,0,0.0,1,-54.59,35.0,0.0,0.0,,,C,2159472018798490
Raw,2159472018,1893012994000000,18,0.0,-1401713633420428288,-0.16175460815429688,20.571485947584733,-7.305612161407304,11.855017124916273,13,10,0.0,16399,470646342740597,40,31.7,329.17950439453125,0.750499963760376,16,0.0,0.0,1575420030,,,,0,0.0,1,-54.59,26.7,0.0,0.0,,,C,2159472018821980
Raw,2159472018,1893012994000000,18,0.0,-1401713633420428288,-0.16175460815429688,20.571485947584733,-7.305612161407304,11.855017124916273,13,16,0.0,16399,470646331719973,61,28.3,542.6699829101562,0.9269999861717224,16,0.0,0.0,1575420030,,,,0,0.0,1,-54.59,23.3,0.0,0.0,,,C,2159472018839271
Raw,2159472018,1893012994000000,18,0.0,-1401713633420428288,-0.16175460815429688,20.571485947584733,-7.305612161407304,11.855017124916273,13,21,0.0,16399,470646337927995,70,27.9,-385.6206359863281,1.7120001316070557,16,0.0,0.0,1575420030,,,,0,0.0,1,-54.59,22.9,0.0,0.0,,,C,2159472018855313
Raw,2159472018,1893012994000000,18,0.0,-1401713633420428288,-0.16175460815429688,20.571485947584733,-7.305612161407304,11.855017124916273,13,27,0.0,16399,470646345558114,16,39.8,268.34625244140625,0.05040523409843445,16,0.0,0.0,1575420030,,,,0,0.0,1,-54.59,34.8,0.0,0.0,,,C,2159472018870834
Raw,2159472018,1893012994000000,18,0.0,-1401713633420428288,-0.16175460815429688,20.571485947584733,-7.305612161407304,11.855017124916273,13,32,0.0,16399,470646343958642,27,34.6,-105.95551300048828,0.5989999771118164,16,0.0,0.0,1575420030,,,,0,0.0,1,-54.59,29.6,0.0,0.0,,,C,2159472018887396
Raw,2159472018,1893012994000000,18,0.0,-1401713633420428288,-0.16175460815429688,20.571485947584733,-7.305612161407304,11.855017124916273,13,1,0.0,49359,49428349721880,46,29.5,-272.1410827636719,0.8600000143051147,16,0.0,0.0,1602562560,,,,0,0.0,3,-53.53,25.5,4858.69140625,9.08863639831543,,,C,2159472018902448
Raw,2159472018,1893012994000000,18,0.0,-1401713633420428288,-0.16175460815429688,20.571485947584733,-7.305612161407304,11.855017124916273,13,8,0.0,49359,49428345747666,40,30.2,539.5844116210938,0.8059999942779541,16,0.0,0.0,1605374980,,,,0,0.0,3,-53.53,26.2,4858.69140625,9.08863639831543,,,C,2159472018919532
Raw,2159472018,1893012994000000,18,0.0,-1401713633420428288,-0.16175460815429688,20.571485947584733,-7.305612161407304,11.855017124916273,13,42,0.0,16399,470632339709035,31,33.1,313.8405456542969,0.6450000405311584,16,0.0,0.0,1561097980,,,,0,0.0,5,-64.2,28.8,-462.7898254394531,6.827977657318115,,,I,2159472018936823
Raw,2159472018,1893012994000000,18,0.0,-1401713633420428288,-0.16175460815429688,20.571485947584733,-7.305612161407304,11.855017124916273,13,41,0.0,16399,470632327072832,19,37.0,-585.0137939453125,0.05894453823566437,16,0.0,0.0,1561097980,,,,0,0.0,5,-64.2,32.7,-462.7898254394531,6.827977657318115,,,I,2159472018951511
Raw,2159472018,1893012994000000,18,0.0,-1401713633420428288,-0.16175460815429688,20.571485947584733,-7.305612161407304,11.855017124916273,13,28,0.0,16399,470632334710758,31,32.4,-501.3287048339844,0.67249995470047,16,0.0,0.0,1561097980,,,,0,0.0,5,-64.2,28.099999999999998,-462.7898254394531,6.827977657318115,,,I,2159472018967657
Raw,2159472018,1893012994000000,18,0.0,-1401713633420428288,-0.16175460815429688,20.571485947584733,-7.305612161407304,11.855017124916273,13,11,0.0,16399,470632340375007,46,29.4,259.4741516113281,0.8734999895095825,16,0.0,0.0,1561097980,,,,0,0.0,5,-64.2,25.099999999999998,-462.7898254394531,6.827977657318115,,,I,2159472018983803
Raw,2159472018,1893012994000000,18,0.0,-1401713633420428288,-0.16175460815429688,20.571485947584733,-7.305612161407304,11.855017124916273,13,9,0.0,16399,470632280529467,92,25.1,-334.552001953125,2.2165000438690186,16,0.0,0.0,1561097980,,,,0,0.0,5,-64.2,20.8,-462.7898254394531,6.827977657318115,,,I,2159472018998438
Raw,2159472019,1893012994000000,18,0.0,-1401713633420428288,-0.16175460815429688,20.571485947584733,-7.305612161407304,11.855017124916273,13,2,0.0,23567,470646322369792,80,26.1,43.25374984741211,1.118499994277954,16,0.0,0.0,1575420030,,,,0,0.0,6,-58.19,21.8,0.49101099371910095,7.179309844970703,,,C,2159472019013698
Raw,2159472019,1893012994000000,18,0.0,-1401713633420428288,-0.16175460815429688,20.571485947584733,-7.305612161407304,11.855017124916273,13,4,0.0,23567,470646334246611,53,29.1,-137.64125061035156,0.12808068096637726,16,0.0,0.0,1575420030,,,,0,0.0,6,-58.19,24.8,0.49101099371910095,7.179309844970703,,,C,2159472019030521
Raw,2159472019,1893012994000000,18,0.0,-1401713633420428288,-0.16175460815429688,20.571485947584733,-7.305612161407304,11.855017124916273,13,10,0.0,23567,470646333462954,31,32.4,60.21875762939453,0.07020638138055801,16,0.0,0.0,1575420030,,,,0,0.0,6,-58.19,28.099999999999998,0.49101099371910095,7.179309844970703,,,C,2159472019045938
Raw,2159472019,1893012994000000,18,0.0,-1401713633420428288,-0.16175460815429688,20.571485947584733,-7.305612161407304,11.855017124916273,13,24,0.0,23567,470646320019050,70,27.1,469.7113952636719,1.005500078201294,16,0.0,0.0,1575420030,,,,0,0.0,6,-58.19,22.8,0.49101099371910095,7.179309844970703,,,C,2159472019063334
Raw,2159472019,1893012994000000,18,0.0,-1401713633420428288,-0.16175460815429688,20.571485947584733,-7.305612161407304,11.855017124916273,13,36,0.0,23567,470646325955547,35,31.5,-353.52996826171875,0.0720522329211235,16,0.0,0.0,1575420030,,,,0,0.0,6,-58.19,27.2,0.49101099371910095,7.179309844970703,,,C,2159472019080417
Raw,2159472019,1893012994000000,18,0.0,-1401713633420428288,-0.16175460815429688,20.571485947584733,-7.305612161407304,11.855017124916273,13,8,0.0,81935,470646344333804,8,32.8,-173.6846466064453,0.057656899094581604,16,0.0,0.0,1176450050,,,,0,0.0,1,-37.43,27.799999999999997,4.147998332977295,5.252267360687256,,,Q,2159472019181875
Raw,2159472019,1893012994000000,18,0.0,-1401713633420428288,-0.16175460815429688,20.571485947584733,-7.305612161407304,11.855017124916273,13,10,0.0,81935,470646342740554,6,36.3,328.64154052734375,0.060084737837314606,16,0.0,0.0,1176450050,,,,0,0.0,1,-37.43,31.299999999999997,4.147998332977295,5.252267360687256,,,Q,2159472019212657
Raw,2159472019,1893012994000000,18,0.0,-1401713633420428288,-0.16175460815429688,20.571485947584733,-7.305612161407304,11.855017124916273,13,23,0.0,81935,470646335671170,12,28.5,522.25732421875,0.9539999961853027,16,0.0,0.0,1176450050,,,,0,0.0,1,-37.43,23.5,4.147998332977295,5.252267360687256,,,Q,2159472019230678
Raw,2159472019,1893012994000000,18,0.0,-1401713633420428288,-0.16175460815429688,20.571485947584733,-7.305612161407304,11.855017124916273,13,27,0.0,81935,470646345558111,6,35.1,268.3580017089844,0.07702034711837769,16,0.0,0.0,1176450050,,,,0,0.0,1,-37.43,30.1,4.147998332977295,5.252267360687256,,,Q,2159472019247657
Raw,2159472019,1893012994000000,18,0.0,-1401713633420428288,-0.16175460815429688,20.571485947584733,-7.305612161407304,11.855017124916273,13,2,0.0,81935,470646322369682,14,27.7,43.07868194580078,1.0145000219345093,16,0.0,0.0,1176450050,,,,0,0.0,6,-37.43,22.4,-11.02701473236084,45.3332405090332,,,Q,2159472019262865
Raw,2159472019,1893012994000000,18,0.0,-1401713633420428288,-0.16175460815429688,20.571485947584733,-7.305612161407304,11.855017124916273,13,4,0.0,81935,470646334246572,16,26.4,-137.65811157226562,1.1124999523162842,16,0.0,0.0,1176450050,,,,0,0.0,6,-37.43,21.099999999999998,-11.02701473236084,45.3332405090332,,,Q,2159472019277969
Raw,2159472019,1893012994000000,18,0.0,-1401713633420428288,-0.16175460815429688,20.571485947584733,-7.305612161407304,11.855017124916273,13,10,0.0,81935,470646333462930,16,27.0,60.228607177734375,1.031000018119812,16,0.0,0.0,1176450050,,,,0,0.0,6,-37.43,21.7,-11.02701473236084,45.3332405090332,,,Q,2159472019295730
Raw,2159472019,1893012994000000,18,0.0,-1401713633420428288,-0.16175460815429688,20.571485947584733,-7.305612161407304,11.855017124916273,13,36,0.0,81935,470646325955533,8,32.3,-353.52203369140625,0.05915689840912819,16,0.0,0.0,1176450050,,,,0,0.0,6,-37.43,26.999999999999996,-11.02701473236084,45.3332405090332,,,Q,2159472019309896
Raw,2159472019,1893012994000000,18,0.0,-1401713633420428288,-0.16175460815429688,20.571485947584733,-7.305612161407304,11.855017124916273,13,28,0.0,16399,470632334710735,11,29.0,-501.2917175292969,0.18585151433944702,16,0.0,0.0,1176450050,,,,0,0.0,5,-37.43,24.5,-468.79608154296875,45.07542419433594,,,Q,2159472019325782
Raw,2159472019,1893012994000000,18,0.0,-1401713633420428288,-0.16175460815429688,20.571485947584733,-7.305612161407304,11.855017124916273,13,33,0.0,16399,470632339664379,4,39.4,-281.7637939453125,0.04447423294186592,16,0.0,0.0,1176450050,,,,0,0.0,5,-37.43,34.9,-468.79608154296875,45.07542419433594,,,Q,2159472019341198
Raw,2159472019,1893012994000000,18,0.0,-1401713633420428288,-0.16175460815429688,20.571485947584733,-7.305612161407304,11.855017124916273,13,34,0.0,16399,470632334795155,30,20.8,474.3369140625,3.9825000762939453,16,0.0,0.0,1176450050,,,,0,0.0,5,-37.43,16.3,-468.79608154296875,45.07542419433594,,,Q,2159472019357136
Raw,2159472019,1893012994000000,18,0.0,-1401713633420428288,-0.16175460815429688,20.571485947584733,-7.305612161407304,11.855017124916273,13,41,0.0,16399,470632327072783,8,31.6,-584.986328125,0.06215690076351166,16,0.0,0.0,1176450050,,,,0,0.0,5,-37.43,27.1,-468.79608154296875,45.07542419433594,,,Q,2159472019370990
Raw,2159472019,1893012994000000,18,0.0,-1401713633420428288,-0.16175460815429688,20.571485947584733,-7.305612161407304,11.855017124916273,13,42,0.0,16399,470632339708987,14,27.4,313.9609069824219,1.0099999904632568,16,0.0,0.0,1176450050,,,,0,0.0,5,-37.43,22.9,-468.79608154296875,45.07542419433594,,,Q,2159472019386980
Raw,2159472019,1893012994000000,18,0.0,-1401713633420428288,-0.16175460815429688,20.571485947584733,-7.305612161407304,11.855017124916273,13,43,0.0,16399,470632342482510,8,31.8,56.48723220825195,0.054656900465488434,16,0.0,0.0,1176450050,,,,0,0.0,5,-37.43,27.3,-468.79608154296875,45.07542419433594,,,Q,2159472019401823
Raw,2159473015,1893013994000000,18,0.0,-1401713633420428294,-0.7778701782226562,17.99023630155716,-7.099504532661429,9.734051573939684,13,2,0.0,16399,470647332297943,46,30.5,-467.9797058105469,0.7954999804496765,16,0.0,0.0,1575420030,,,,0,0.0,1,-55.42,25.5,0.0,0.0,,,C,2159473015239792
Raw,2159473015,1893013994000000,18,0.0,-1401713633420428294,-0.7778701782226562,17.99023630155716,-7.099504532661429,9.734051573939684,13,8,0.0,16399,470647344334448,17,38.3,-174.16346740722656,0.05329437553882599,16,0.0,0.0,1575420030,,,,0,0.0,1,-55.42,33.3,0.0,0.0,,,C,2159473015337813
Raw,2159473015,1893013994000000,18,0.0,-1401713633420428294,-0.7778701782226562,17.99023630155716,-7.099504532661429,9.734051573939684,13,10,0.0,16399,470647342739507,53,29.4,328.56103515625,0.8704999685287476,16,0.0,0.0,1575420030,,,,0,0.0,1,-55.42,24.4,0.0,0.0,,,C,2159473015363125
Raw,2159473015,1893013994000000,18,0.0,-1401713633420428294,-0.7778701782226562,17.99023630155716,-7.099504532661429,9.734051573939684,13,27,0.0,16399,470647345557221,16,39.0,267.8368225097656,0.05040523409843445,16,0.0,0.0,1575420030,,,,0,0.0,1,-55.42,34.0,0.0,0.0,,,C,2159473015379844
Raw,2159473015,1893013994000000,18,0.0,-1401713633420428294,-0.7778701782226562,17.99023630155716,-7.099504532661429,9.734051573939684,13,32,0.0,16399,470647343958947,35,32.7,-105.96503448486328,0.6889999508857727,16,0.0,0.0,1575420030,,,,0,0.0,1,-55.42,27.700000000000003,0.0,0.0,,,C,2159473015395313
Raw,2159473015,1893013994000000,18,0.0,-1401713633420428294,-0.7778701782226562,17.99023630155716,-7.099504532661429,9.734051573939684,13,1,0.0,49359,49429349722957,46,29.2,-271.8885498046875,0.8600000143051147,16,0.0,0.0,1602562560,,,,0,0.0,3,-54.57,25.2,4859.45751953125,9.023052215576172,,,C,2159473015411458
Raw,2159473015,1893013994000000,18,0.0,-1401713633420428294,-0.7778701782226562,17.99023630155716,-7.099504532661429,9.734051573939684,13,8,0.0,49359,49429345745769,46,29.3,538.1558227539062,0.8659999966621399,16,0.0,0.0,1605374980,,,,0,0.0,3,-54.57,25.3,4859.45751953125,9.023052215576172,,,C,2159473015429427
Raw,2159473015,1893013994000000,18,0.0,-1401713633420428294,-0.7778701782226562,17.99023630155716,-7.099504532661429,9.734051573939684,13,42,0.0,16399,470633339707973,35,32.2,313.28363037109375,0.6949999928474426,16,0.0,0.0,1561097980,,,,0,0.0,5,-64.97,27.900000000000002,-462.68426513671875,6.813592910766602,,,I,2159473015447760
Raw,2159473015,1893013994000000,18,0.0,-1401713633420428294,-0.7778701782226562,17.99023630155716,-7.099504532661429,9.734051573939684,13,41,0.0,16399,470633327074802,19,36.3,-585.5789794921875,0.6350629925727844,16,0.0,0.0,1561097980,,,,0,0.0,5,-64.97,31.999999999999996,-462.68426513671875,6.813592910766602,,,I,2159473015466615
Raw,2159473015,1893013994000000,18,0.0,-1401713633420428294,-0.7778701782226562,17.99023630155716,-7.099504532661429,9.734051573939684,13,34,0.0,16399,470633334793572,61,27.3,474.7408447265625,1.7074999809265137,16,0.0,0.0,1561097980,,,,0,0.0,5,-64.97,23.0,-462.68426513671875,6.813592910766602,,,I,2159473015484479
Raw,2159473015,1893013994000000,18,0.0,-1401713633420428294,-0.7778701782226562,17.99023630155716,-7.099504532661429,9.734051573939684,13,33,0.0,16399,470633339665419,80,26.1,-281.9811706542969,2.5149998664855957,16,0.0,0.0,1561097980,,,,0,0.0,5,-64.97,21.8,-462.68426513671875,6.813592910766602,,,I,2159473015501146
Raw,2159473015,1893013994000000,18,0.0,-1401713633420428294,-0.7778701782226562,17.99023630155716,-7.099504532661429,9.734051573939684,13,28,0.0,16399,470633334712401,35,31.9,-501.9144287109375,0.7324999570846558,16,0.0,0.0,1561097980,,,,0,0.0,5,-64.97,27.599999999999998,-462.68426513671875,6.813592910766602,,,I,2159473015517083
Raw,2159473015,1893013994000000,18,0.0,-1401713633420428294,-0.7778701782226562,17.99023630155716,-7.099504532661429,9.734051573939684,13,11,0.0,16399,470633340374154,61,27.7,259.003662109375,1.0234999656677246,16,0.0,0.0,1561097980,,,,0,0.0,5,-64.97,23.4,-462.68426513671875,6.813592910766602,,,I,2159473015610781
Raw,2159473015,1893013994000000,18,0.0,-1401713633420428294,-0.7778701782226562,17.99023630155716,-7.099504532661429,9.734051573939684,13,4,0.0,23567,470647334247047,53,28.3,-138.14794921875,2.4215331077575684,16,0.0,0.0,1575420030,,,,0,0.0,6,-59.04,24.0,0.8188384175300598,7.163416385650635,,,C,2159473015632552
Raw,2159473015,1893013994000000,18,0.0,-1401713633420428294,-0.7778701782226562,17.99023630155716,-7.099504532661429,9.734051573939684,13,9,0.0,23567,470647328787905,159,20.6,-532.812744140625,4.765500068664551,16,0.0,0.0,1575420030,,,,0,0.0,6,-59.04,16.3,0.8188384175300598,7.163416385650635,,,C,2159473015650365
Raw,2159473015,1893013994000000,18,0.0,-1401713633420428294,-0.7778701782226562,17.99023630155716,-7.099504532661429,9.734051573939684,13,10,0.0,23567,470647333462748,27,33.4,59.61208724975586,0.8331300616264343,16,0.0,0.0,1575420030,,,,0,0.0,6,-59.04,29.099999999999998,0.8188384175300598,7.163416385650635,,,C,2159473015670000
Raw,2159473015,1893013994000000,18,0.0,-1401713633420428294,-0.7778701782226562,17.99023630155716,-7.099504532661429,9.734051573939684,13,11,0.0,23567,470647337315930,122,22.9,-126.5833511352539,2.2970001697540283,16,0.0,0.0,1575420030,,,,0,0.0,6,-59.04,18.599999999999998,0.8188384175300598,7.163416385650635,,,C,2159473015688958
Raw,2159473015,1893013994000000,18,0.0,-1401713633420428294,-0.7778701782226562,17.99023630155716,-7.099504532661429,9.734051573939684,13,24,0.0,23567,470647320017437,70,26.5,468.91217041015625,1.0855000019073486,16,0.0,0.0,1575420030,,,,0,0.0,6,-59.04,22.2,0.8188384175300598,7.163416385650635,,,C,2159473015703490
Raw,2159473015,1893013994000000,18,0.0,-1401713633420428294,-0.7778701782226562,17.99023630155716,-7.099504532661429,9.734051573939684,13,25,0.0,23567,470647325079107,106,24.1,377.2572021484375,2.077000141143799,16,0.0,0.0,1575420030,,,,0,0.0,6,-59.04,19.8,0.8188384175300598,7.163416385650635,,,C,2159473015718177
Raw,2159473015,1893013994000000,18,0.0,-1401713633420428294,-0.7778701782226562,17.99023630155716,-7.099504532661429,9.734051573939684,13,36,0.0,23567,470647325956752,40,30.7,-354.2066650390625,0.8430443406105042,16,0.0,0.0,1575420030,,,,0,0.0,6,-59.04,26.4,0.8188384175300598,7.163416385650635,,,C,2159473015732813
