# 
# Header Description:
# 
# Version: v3.10.3 (24097-google), Manufacturer: samsung, Model: SM-S928B, GNSS HW Year: 2023, Platform: 14, API Level: 34 
# 
# Raw GNSS measurements format:
#   Raw,utcTimeMillis,TimeNanos,LeapSecond,TimeUncertaintyNanos,FullBiasNanos,BiasNanos,BiasUncertaintyNanos,DriftNanosPerSecond,DriftUncertaintyNanosPerSecond,HardwareClockDiscontinuityCount,Svid,TimeOffsetNanos,State,ReceivedSvTimeNanos,ReceivedSvTimeUncertaintyNanos,Cn0DbHz,PseudorangeRateMetersPerSecond,PseudorangeRateUncertaintyMetersPerSecond,AccumulatedDeltaRangeState,AccumulatedDeltaRangeMeters,AccumulatedDeltaRangeUncertaintyMeters,CarrierFrequencyHz,CarrierCycles,CarrierPhase,CarrierPhaseUncertainty,MultipathIndicator,SnrInDb,ConstellationType,AgcDb,BasebandCn0DbHz,FullInterSignalBiasNanos,FullInterSignalBiasUncertaintyNanos,SatelliteInterSignalBiasNanos,SatelliteInterSignalBiasUncertaintyNanos,CodeType,ChipsetElapsedRealtimeNanos
# 
# Location fix format:
#   Fix,Provider,LatitudeDegrees,LongitudeDegrees,AltitudeMeters,SpeedMps,AccuracyMeters,BearingDegrees,UnixTimeMillis,SpeedAccuracyMps,BearingAccuracyDegrees,elapsedRealtimeNanos,VerticalAccuracyMeters,MockLocation
# 
# Navigation message format:
#   Nav,Svid,Type,Status,MessageId,Sub-messageId,Data(Bytes)
# 
# NMEA format (for [NMEA sentence] format see https://en.wikipedia.org/wiki/NMEA_0183):
#   NMEA,[NMEA sentence],(UTC)TimeInMs
# 
# GnssAntennaInfo format (https://developer.android.com/reference/android/location/GnssAntennaInfo):
#   GnssAntennaInfo,CarrierFrequencyMHz,PhaseCenterOffsetXOffsetMm,PhaseCenterOffsetXOffsetUncertaintyMm,PhaseCenterOffsetYOffsetMm,PhaseCenterOffsetYOffsetUncertaintyMm,PhaseCenterOffsetZOffsetMm,PhaseCenterOffsetZOffsetUncertaintyMm,PhaseCenterVariationCorrectionsArray,PhaseCenterVariationCorrectionUncertaintiesArray,PhaseCenterVariationCorrectionsDeltaPhi,PhaseCenterVariationCorrectionsDeltaTheta,SignalGainCorrectionsArray,SignalGainCorrectionUncertaintiesArray,SignalGainCorrectionsDeltaPhi,SignalGainCorrectionsDeltaTheta
# 
# GnssStatus format (https://developer.android.com/reference/android/location/GnssStatus):
#   Status,UnixTimeMillis,SignalCount,SignalIndex,ConstellationType,Svid,CarrierFrequencyHz,Cn0DbHz,AzimuthDegrees,ElevationDegrees,UsedInFix,HasAlmanacData,HasEphemerisData,BasebandCn0DbHz
# Orientation sensor format (https://developer.android.com/reference/android/hardware/SensorEvent#values):
#   OrientationDeg,utcTimeMillis,elapsedRealtimeNanos,yawDeg,rollDeg,pitchDeg
Raw,68238307,61902111000000,18,0.0,-1404163181710679164,0.7228507995605469,954.3767664581537,-8.789062363441092,20.782996399141435,2,2,0.0,16399,484283749275125,24,35.1,435.6868896484375,0.9600000381469727,16,0.0,0.0,1575420030,,,,0,0.0,1,-45.66,30.1,0.0,0.0,,,C,68238307368371
Raw,68238307,61902111000000,18,0.0,-1404163181710679164,0.7228507995605469,954.3767664581537,-8.789062363441092,20.782996399141435,2,3,0.0,16399,484283753452991,8,46.2,-129.15231323242188,0.6539999842643738,16,0.0,0.0,1575420030,,,,0,0.0,1,-45.66,41.2,0.0,0.0,,,C,68238307746131
Raw,68238307,61902111000000,18,0.0,-1404163181710679164,0.7228507995605469,954.3767664581537,-8.789062363441092,20.782996399141435,2,4,0.0,16399,484283752696101,21,36.0,-107.64913177490234,1.0755000114440918,16,0.0,0.0,1575420030,,,,0,0.0,1,-45.66,31.0,0.0,0.0,,,C,68238307800819
Raw,68238307,61902111000000,18,0.0,-1404163181710679164,0.7228507995605469,954.3767664581537,-8.789062363441092,20.782996399141435,2,9,0.0,16399,484283745493615,35,32.5,-421.529052734375,0.6559999585151672,16,0.0,0.0,1575420030,,,,0,0.0,1,-45.66,27.5,0.0,0.0,,,C,68238307908683
Raw,68238307,61902111000000,18,0.0,-1404163181710679164,0.7228507995605469,954.3767664581537,-8.789062363441092,20.782996399141435,2,17,0.0,16399,484283740814528,16,39.8,196.6590118408203,0.9835000038146973,16,0.0,0.0,1575420030,,,,0,0.0,1,-45.66,34.8,0.0,0.0,,,C,68238307962694
Raw,68238308,61902111000000,18,0.0,-1404163181710679164,0.7228507995605469,954.3767664581537,-8.789062363441092,20.782996399141435,2,19,0.0,16399,484283740766487,21,36.0,0.8943803310394287,0.9435000419616699,16,0.0,0.0,1575420030,,,,0,0.0,1,-45.66,31.0,0.0,0.0,,,C,68238308002954
Raw,68238308,61902111000000,18,0.0,-1404163181710679164,0.7228507995605469,954.3767664581537,-8.789062363441092,20.782996399141435,2,21,0.0,16399,484283745758879,40,31.3,528.4169921875,0.715999960899353,16,0.0,0.0,1575420030,,,,0,0.0,1,-45.66,26.3,0.0,0.0,,,C,68238308048631
Raw,68238308,61902111000000,18,0.0,-1404163181710679164,0.7228507995605469,954.3767664581537,-8.789062363441092,20.782996399141435,2,28,0.0,16399,484283739616622,46,30.9,607.7694702148438,0.7849999666213989,16,0.0,0.0,1575420030,,,,0,0.0,1,-45.66,25.9,0.0,0.0,,,C,68238308087694
Raw,68238308,61902111000000,18,0.0,-1404163181710679164,0.7228507995605469,954.3767664581537,-8.789062363441092,20.782996399141435,2,31,0.0,16399,484283748798747,17,38.4,376.80047607421875,1.0015000104904175,16,0.0,0.0,1575420030,,,,0,0.0,1,-45.66,33.4,0.0,0.0,,,C,68238308121808
Raw,68238308,61902111000000,18,0.0,-1404163181710679164,0.7228507995605469,954.3767664581537,-8.789062363441092,20.782996399141435,2,2,0.0,49359,63065753028396,13,40.0,-65.36497497558594,0.8389999866485596,16,0.0,0.0,1599750020,,,,0,0.0,3,-44.39,36.0,4862.9873046875,16.14951515197754,,,C,68238308154621
Raw,68238308,61902111000000,18,0.0,-1404163181710679164,0.7228507995605469,954.3767664581537,-8.789062363441092,20.782996399141435,2,12,0.0,49359,63065748311565,11,42.9,-598.2792358398438,0.906499981880188,16,0.0,0.0,1601437440,,,,0,0.0,3,-44.39,38.9,4862.9873046875,16.14951515197754,,,C,68238308184517
Raw,68238308,61902111000000,18,0.0,-1404163181710679164,0.7228507995605469,954.3767664581537,-8.789062363441092,20.782996399141435,2,11,0.0,49359,63065748085335,17,37.8,31.831897735595703,1.05649995803833,16,0.0,0.0,1602000000,,,,0,0.0,3,-44.39,33.8,4862.9873046875,16.14951515197754,,,C,68238308211496
Raw,68238308,61902111000000,18,0.0,-1404163181710679164,0.7228507995605469,954.3767664581537,-8.789062363441092,20.782996399141435,2,1,0.0,49359,63065750692471,16,38.1,299.4253234863281,1.0134999752044678,16,0.0,0.0,1602562560,,,,0,0.0,3,-44.39,34.1,4862.9873046875,16.14951515197754,,,C,68238308233475
Raw,68238308,61902111000000,18,0.0,-1404163181710679164,0.7228507995605469,954.3767664581537,-8.789062363441092,20.782996399141435,2,24,0.0,49359,63065750468970,35,31.3,705.4671630859375,0.7384999990463257,16,0.0,0.0,1603124990,,,,0,0.0,3,-44.39,27.3,4862.9873046875,16.14951515197754,,,C,68238308256027
Raw,68238308,61902111000000,18,0.0,-1404163181710679164,0.7228507995605469,954.3767664581537,-8.789062363441092,20.782996399141435,2,17,0.0,49359,63065754189870,11,42.1,27.76946258544922,0.8975000381469727,16,0.0,0.0,1604249980,,,,0,0.0,3,-44.39,38.1,4862.9873046875,16.14951515197754,,,C,68238308277642
Raw,68238308,61902111000000,18,0.0,-1404163181710679164,0.7228507995605469,954.3767664581537,-8.789062363441092,20.782996399141435,2,3,0.0,49359,63065744356391,17,37.4,-384.02203369140625,1.0625,16,0.0,0.0,1604812540,,,,0,0.0,3,-44.39,33.4,4862.9873046875,16.14951515197754,,,C,68238308300610
Raw,68238308,61902111000000,18,0.0,-1404163181710679164,0.7228507995605469,954.3767664581537,-8.789062363441092,20.782996399141435,2,41,0.0,16399,484269746380415,10,43.5,22.82389259338379,0.7245000004768372,16,0.0,0.0,1561097980,,,,0,0.0,5,-59.01,39.2,-459.2243957519531,16.064441680908203,,,I,68238308321339
Raw,68238308,61902111000000,18,0.0,-1404163181710679164,0.7228507995605469,954.3767664581537,-8.789062363441092,20.782996399141435,2,39,0.0,16399,484269689672092,27,33.9,170.37744140625,0.75,16,0.0,0.0,1561097980,,,,0,0.0,5,-59.01,29.599999999999998,-459.2243957519531,16.064441680908203,,,I,68238308357225
Raw,68238308,61902111000000,18,0.0,-1404163181710679164,0.7228507995605469,954.3767664581537,-8.789062363441092,20.782996399141435,2,33,0.0,16399,484269739169149,14,39.3,323.79779052734375,0.8050000667572021,16,0.0,0.0,1561097980,,,,0,0.0,5,-59.01,35.0,-459.2243957519531,16.064441680908203,,,I,68238308384985
Raw,68238308,61902111000000,18,0.0,-1404163181710679164,0.7228507995605469,954.3767664581537,-8.789062363441092,20.782996399141435,2,32,0.0,16399,484269740465875,21,35.3,-319.3616638183594,1.0485000610351562,16,0.0,0.0,1561097980,,,,0,0.0,5,-59.01,30.999999999999996,-459.2243957519531,16.064441680908203,,,I,68238308406392
Raw,68238308,61902111000000,18,0.0,-1404163181710679164,0.7228507995605469,954.3767664581537,-8.789062363441092,20.782996399141435,2,30,0.0,16399,484269738527102,40,30.7,-157.9908905029297,1.281499981880188,16,0.0,0.0,1561097980,,,,0,0.0,5,-59.01,26.4,-459.2243957519531,16.064441680908203,,,I,68238308457850
Raw,68238308,61902111000000,18,0.0,-1404163181710679164,0.7228507995605469,954.3767664581537,-8.789062363441092,20.782996399141435,2,28,0.0,16399,484269739015687,40,31.0,588.5818481445312,1.2200000286102295,16,0.0,0.0,1561097980,,,,0,0.0,5,-59.01,26.7,-459.2243957519531,16.064441680908203,,,I,68238308483475
Raw,68238308,61902111000000,18,0.0,-1404163181710679164,0.7228507995605469,954.3767664581537,-8.789062363441092,20.782996399141435,2,27,0.0,16399,484269743847343,40,30.7,310.5278625488281,1.3040000200271606,16,0.0,0.0,1561097980,,,,0,0.0,5,-59.01,26.4,-459.2243957519531,16.064441680908203,,,I,68238308504933
Raw,68238308,61902111000000,18,0.0,-1404163181710679164,0.7228507995605469,954.3767664581537,-8.789062363441092,20.782996399141435,2,25,0.0,16399,484269744161952,12,41.7,-205.5206756591797,0.7775000333786011,16,0.0,0.0,1561097980,,,,0,0.0,5,-59.01,37.400000000000006,-459.2243957519531,16.064441680908203,,,I,68238308525194
Raw,68238308,61902111000000,18,0.0,-1404163181710679164,0.7228507995605469,954.3767664581537,-8.789062363441092,20.782996399141435,2,24,0.0,16399,484269737298463,40,31.0,274.875732421875,1.1480000019073486,16,0.0,0.0,1561097980,,,,0,0.0,5,-59.01,26.7,-459.2243957519531,16.064441680908203,,,I,68238308561912
Raw,68238308,61902111000000,18,0.0,-1404163181710679164,0.7228507995605469,954.3767664581537,-8.789062363441092,20.782996399141435,2,13,0.0,16399,484269688970537,27,33.5,95.34761047363281,0.7485000491142273,16,0.0,0.0,1561097980,,,,0,0.0,5,-59.01,29.2,-459.2243957519531,16.064441680908203,,,I,68238308588527
Raw,68238308,61902111000000,18,0.0,-1404163181710679164,0.7228507995605469,954.3767664581537,-8.789062363441092,20.782996399141435,2,9,0.0,16399,484269695816698,35,31.9,48.88365173339844,1.1510000228881836,16,0.0,0.0,1561097980,,,,0,0.0,5,-59.01,27.599999999999998,-459.2243957519531,16.064441680908203,,,I,68238308610819
Raw,68238308,61902111000000,18,0.0,-1404163181710679164,0.7228507995605469,954.3767664581537,-8.789062363441092,20.782996399141435,2,5,0.0,16399,484269696493191,24,34.4,15.00788688659668,2.7257001399993896,16,0.0,0.0,1561097980,,,,0,0.0,5,-59.01,30.099999999999998,-459.2243957519531,16.064441680908203,,,I,68238308637329
Raw,68238308,61902111000000,18,0.0,-1404163181710679164,0.7228507995605469,954.3767664581537,-8.789062363441092,20.782996399141435,2,4,0.0,23567,484283737137642,16,39.2,346.6389465332031,0.8530000448226929,16,0.0,0.0,1575420030,,,,0,0.0,6,-49.45,34.900000000000006,6.997281551361084,16.108699798583984,,,C,68238308658631
Raw,68238308,61902111000000,18,0.0,-1404163181710679164,0.7228507995605469,954.3767664581537,-8.789062363441092,20.782996399141435,2,5,0.0,23567,484283739250540,21,36.1,-322.2813415527344,0.9600000381469727,16,0.0,0.0,1575420030,,,,0,0.0,6,-49.45,31.8,6.997281551361084,16.108699798583984,,,C,68238308678162
Raw,68238308,61902111000000,18,0.0,-1404163181710679164,0.7228507995605469,954.3767664581537,-8.789062363441092,20.782996399141435,2,9,0.0,23567,484283742582652,31,32.3,27.46889305114746,1.131500005722046,16,0.0,0.0,1575420030,,,,0,0.0,6,-49.45,27.999999999999996,6.997281551361084,16.108699798583984,,,C,68238308708006
Raw,68238308,61902111000000,18,0.0,-1404163181710679164,0.7228507995605469,954.3767664581537,-8.789062363441092,20.782996399141435,2,10,0.0,23567,484283734544564,24,34.5,550.8336181640625,0.7235000133514404,16,0.0,0.0,1575420030,,,,0,0.0,6,-49.45,30.2,6.997281551361084,16.108699798583984,,,C,68238308730350
Raw,68238308,61902111000000,18,0.0,-1404163181710679164,0.7228507995605469,954.3767664581537,-8.789062363441092,20.782996399141435,2,11,0.0,23567,484283743665007,27,34.1,375.8775634765625,1.0460000038146973,16,0.0,0.0,1575420030,,,,0,0.0,6,-49.45,29.8,6.997281551361084,16.108699798583984,,,C,68238308758319
Raw,68238308,61902111000000,18,0.0,-1404163181710679164,0.7228507995605469,954.3767664581537,-8.789062363441092,20.782996399141435,2,34,0.0,23567,484283729735734,27,33.6,-522.54638671875,0.7620000243186951,16,0.0,0.0,1575420030,,,,0,0.0,6,-49.45,29.3,6.997281551361084,16.108699798583984,,,C,68238308777277
Raw,68238308,61902111000000,18,0.0,-1404163181710679164,0.7228507995605469,954.3767664581537,-8.789062363441092,20.782996399141435,2,36,0.0,23567,484283741743500,17,37.7,-144.33775329589844,0.9230000376701355,16,0.0,0.0,1575420030,,,,0,0.0,6,-49.45,33.400000000000006,6.997281551361084,16.108699798583984,,,C,68238308795819
Raw,68238308,61902111000000,18,0.0,-1404163181710679164,0.7228507995605469,954.3767664581537,-8.789062363441092,20.782996399141435,2,3,0.0,81935,484283753452963,6,36.0,-128.7900848388672,0.5189999938011169,16,0.0,0.0,1176450050,,,,0,0.0,1,-37.51,31.0,11.15274429321289,2.9988179206848145,,,Q,68238308812954
Raw,68238308,61902111000000,18,0.0,-1404163181710679164,0.7228507995605469,954.3767664581537,-8.789062363441092,20.782996399141435,2,4,0.0,81935,484283752696062,11,29.0,-107.75403594970703,0.8704999685287476,16,0.0,0.0,1176450050,,,,0,0.0,1,-37.51,24.0,11.15274429321289,2.9988179206848145,,,Q,68238308828944
Raw,68238308,61902111000000,18,0.0,-1404163181710679164,0.7228507995605469,954.3767664581537,-8.789062363441092,20.782996399141435,2,9,0.0,81935,484283745493625,14,27.3,-422.4029541015625,1.031000018119812,16,0.0,0.0,1176450050,,,,0,0.0,1,-37.51,22.3,11.15274429321289,2.9988179206848145,,,Q,68238308845194
Raw,68238308,61902111000000,18,0.0,-1404163181710679164,0.7228507995605469,954.3767664581537,-8.789062363441092,20.782996399141435,2,4,0.0,81935,484283737137635,5,37.6,347.177734375,0.4729999899864197,16,0.0,0.0,1176450050,,,,0,0.0,6,-37.51,32.300000000000004,15.615584373474121,1927.745849609375,,,Q,68238308860923
Raw,68238308,61902111000000,18,0.0,-1404163181710679164,0.7228507995605469,954.3767664581537,-8.789062363441092,20.782996399141435,2,5,0.0,81935,484283739250485,12,28.7,-322.1791076660156,0.9300000071525574,16,0.0,0.0,1176450050,,,,0,0.0,6,-37.51,23.4,15.615584373474121,1927.745849609375,,,Q,68238308877850
Raw,68238308,61902111000000,18,0.0,-1404163181710679164,0.7228507995605469,954.3767664581537,-8.789062363441092,20.782996399141435,2,9,0.0,81935,484283742582623,8,34.2,27.801738739013672,0.6154999732971191,16,0.0,0.0,1176450050,,,,0,0.0,6,-37.51,28.900000000000002,15.615584373474121,1927.745849609375,,,Q,68238308894100
Raw,68238308,61902111000000,18,0.0,-1404163181710679164,0.7228507995605469,954.3767664581537,-8.789062363441092,20.782996399141435,2,36,0.0,81935,484283741743479,14,27.5,-144.232666015625,1.037000060081482,16,0.0,0.0,1176450050,,,,0,0.0,6,-37.51,22.2,15.615584373474121,1927.745849609375,,,Q,68238308910610
Raw,68238308,61902111000000,18,0.0,-1404163181710679164,0.7228507995605469,954.3767664581537,-8.789062363441092,20.782996399141435,2,25,0.0,16399,484269744161959,14,26.6,-205.5952606201172,1.1724998950958252,16,0.0,0.0,1176450050,,,,0,0.0,5,-37.51,22.1,-472.0908508300781,1926.9814453125,,,Q,68238308926496
Raw,68238308,61902111000000,18,0.0,-1404163181710679164,0.7228507995605469,954.3767664581537,-8.789062363441092,20.782996399141435,2,27,0.0,16399,484269743847308,9,30.5,309.998291015625,0.8840000033378601,16,0.0,0.0,1176450050,,,,0,0.0,5,-37.51,26.0,-472.0908508300781,1926.9814453125,,,Q,68238308942694
Raw,68238308,61902111000000,18,0.0,-1404163181710679164,0.7228507995605469,954.3767664581537,-8.789062363441092,20.782996399141435,2,28,0.0,16399,484269739015661,11,28.9,589.8504638671875,0.9900000095367432,16,0.0,0.0,1176450050,,,,0,0.0,5,-37.51,24.4,-472.0908508300781,1926.9814453125,,,Q,68238308958944
Raw,68238308,61902111000000,18,0.0,-1404163181710679164,0.7228507995605469,954.3767664581537,-8.789062363441092,20.782996399141435,2,33,0.0,16399,484269739169061,8,32.1,324.4088439941406,0.7400000095367432,16,0.0,0.0,1176450050,,,,0,0.0,5,-37.51,27.6,-472.0908508300781,1926.9814453125,,,Q,68238308974881
Raw,68238309,61902111000000,18,0.0,-1404163181710679164,0.7228507995605469,954.3767664581537,-8.789062363441092,20.782996399141435,2,39,0.0,16399,484269689672107,10,29.6,169.86837768554688,0.9350000023841858,16,0.0,0.0,1176450050,,,,0,0.0,5,-37.51,25.1,-472.0908508300781,1926.9814453125,,,Q,68238309077225
Raw,68238309,61902111000000,18,0.0,-1404163181710679164,0.7228507995605469,954.3767664581537,-8.789062363441092,20.782996399141435,2,41,0.0,16399,484269746380374,10,29.7,23.087419509887695,0.9394999742507935,16,0.0,0.0,1176450050,,,,0,0.0,5,-37.51,25.2,-472.0908508300781,1926.9814453125,,,Q,68238309108892
Raw,68239862,61903711000000,18,0.0,-1404163181710679170,0.5537700653076172,33.371641620760784,-7.984445423886951,12.77260739101845,2,2,0.0,16399,484285349272785,16,39.9,436.5907897949219,0.4000000059604645,16,0.0,0.0,1575420030,,,,0,0.0,1,-45.26,34.9,0.0,0.0,,,C,68239862844464
Raw,68239863,61903711000000,18,0.0,-1404163181710679170,0.5537700653076172,33.371641620760784,-7.984445423886951,12.77260739101845,2,3,0.0,16399,484285353453670,7,47.6,-129.24746704101562,0.2240000069141388,16,0.0,0.0,1575420030,,,,0,0.0,1,-45.26,42.6,0.0,0.0,,,C,68239863102485
Raw,68239863,61903711000000,18,0.0,-1404163181710679170,0.5537700653076172,33.371641620760784,-7.984445423886951,12.77260739101845,2,4,0.0,16399,484285352696682,17,38.0,-107.59204864501953,0.4255000054836273,16,0.0,0.0,1575420030,,,,0,0.0,1,-45.26,33.0,0.0,0.0,,,C,68239863130974
Raw,68239863,61903711000000,18,0.0,-1404163181710679170,0.5537700653076172,33.371641620760784,-7.984445423886951,12.77260739101845,2,7,0.0,16399,484285337248640,61,28.3,-644.7149658203125,1.2120000123977661,16,0.0,0.0,1575420030,,,,0,0.0,1,-45.26,23.3,0.0,0.0,,,C,68239863151703
Raw,68239863,61903711000000,18,0.0,-1404163181710679170,0.5537700653076172,33.371641620760784,-7.984445423886951,12.77260739101845,2,9,0.0,16399,484285345495876,46,30.2,-422.6612854003906,0.8059999942779541,16,0.0,0.0,1575420030,,,,0,0.0,1,-45.26,25.2,0.0,0.0,,,C,68239863169464
Raw,68239863,61903711000000,18,0.0,-1404163181710679170,0.5537700653076172,33.371641620760784,-7.984445423886951,12.77260739101845,2,17,0.0,16399,484285340813469,14,40.6,196.76365661621094,0.3935000002384186,16,0.0,0.0,1575420030,,,,0,0.0,1,-45.26,35.6,0.0,0.0,,,C,68239863187745
Raw,68239863,61903711000000,18,0.0,-1404163181710679170,0.5537700653076172,33.371641620760784,-7.984445423886951,12.77260739101845,2,19,0.0,16399,484285340766453,19,37.5,0.3805873394012451,0.48350000381469727,16,0.0,0.0,1575420030,,,,0,0.0,1,-45.26,32.5,0.0,0.0,,,C,68239863230818
Raw,68239863,61903711000000,18,0.0,-1404163181710679170,0.5537700653076172,33.371641620760784,-7.984445423886951,12.77260739101845,2,21,0.0,16399,484285345756125,31,33.7,529.8346557617188,0.6360000371932983,16,0.0,0.0,1575420030,,,,0,0.0,1,-45.26,28.700000000000003,0.0,0.0,,,C,68239863346026
Raw,68239863,61903711000000,18,0.0,-1404163181710679170,0.5537700653076172,33.371641620760784,-7.984445423886951,12.77260739101845,2,26,0.0,16399,484285341263755,24,35.0,-276.1636962890625,0.7979999780654907,16,0.0,0.0,1575420030,,,,0,0.0,1,-45.26,30.0,0.0,0.0,,,C,68239863373318
Raw,68239863,61903711000000,18,0.0,-1404163181710679170,0.5537700653076172,33.371641620760784,-7.984445423886951,12.77260739101845,2,28,0.0,16399,484285339613365,70,27.0,607.322265625,1.565000057220459,16,0.0,0.0,1575420030,,,,0,0.0,1,-45.26,22.0,0.0,0.0,,,C,68239863412172
Raw,68239863,61903711000000,18,0.0,-1404163181710679170,0.5537700653076172,33.371641620760784,-7.984445423886951,12.77260739101845,2,31,0.0,16399,484285348796748,19,37.4,377.18109130859375,0.4715000092983246,16,0.0,0.0,1575420030,,,,0,0.0,1,-45.26,32.4,0.0,0.0,,,C,68239863431078
Raw,68239863,61903711000000,18,0.0,-1404163181710679170,0.5537700653076172,33.371641620760784,-7.984445423886951,12.77260739101845,2,2,0.0,49359,63067353028790,12,41.5,-65.73040008544922,0.343999981880188,16,0.0,0.0,1599750020,,,,0,0.0,3,-43.47,37.5,4851.18896484375,6.249278545379639,,,C,68239863447901
Raw,68239863,61903711000000,18,0.0,-1404163181710679170,0.5537700653076172,33.371641620760784,-7.984445423886951,12.77260739101845,2,18,0.0,49359,63067345981941,46,29.9,-582.439208984375,0.8659999966621399,16,0.0,0.0,1600312450,,,,0,0.0,3,-43.47,25.9,4851.18896484375,6.249278545379639,,,C,68239863509568
Raw,68239863,61903711000000,18,0.0,-1404163181710679170,0.5537700653076172,33.371641620760784,-7.984445423886951,12.77260739101845,2,12,0.0,49359,63067348314706,13,40.7,-597.2495727539062,0.3815000057220459,16,0.0,0.0,1601437440,,,,0,0.0,3,-43.47,36.7,4851.18896484375,6.249278545379639,,,C,68239863525766
Raw,68239863,61903711000000,18,0.0,-1404163181710679170,0.5537700653076172,33.371641620760784,-7.984445423886951,12.77260739101845,2,11,0.0,49359,63067348085242,35,31.3,31.916107177734375,0.7414999604225159,16,0.0,0.0,1602000000,,,,0,0.0,3,-43.47,27.3,4851.18896484375,6.249278545379639,,,C,68239863543110
Raw,68239863,61903711000000,18,0.0,-1404163181710679170,0.5537700653076172,33.371641620760784,-7.984445423886951,12.77260739101845,2,1,0.0,49359,63067350690884,19,36.4,299.3130798339844,0.5084999799728394,16,0.0,0.0,1602562560,,,,0,0.0,3,-43.47,32.4,4851.18896484375,6.249278545379639,,,C,68239863559933
Raw,68239863,61903711000000,18,0.0,-1404163181710679170,0.5537700653076172,33.371641620760784,-7.984445423886951,12.77260739101845,2,24,0.0,49359,63067350465167,27,33.9,704.91552734375,0.6285000443458557,16,0.0,0.0,1603124990,,,,0,0.0,3,-43.47,29.9,4851.18896484375,6.249278545379639,,,C,68239863576131
Raw,68239863,61903711000000,18,0.0,-1404163181710679170,0.5537700653076172,33.371641620760784,-7.984445423886951,12.77260739101845,2,17,0.0,49359,63067354189809,24,34.9,27.956336975097656,0.5824999809265137,16,0.0,0.0,1604249980,,,,0,0.0,3,-43.47,30.9,4851.18896484375,6.249278545379639,,,C,68239863591808
Raw,68239863,61903711000000,18,0.0,-1404163181710679170,0.5537700653076172,33.371641620760784,-7.984445423886951,12.77260739101845,2,3,0.0,49359,63067344358369,31,32.2,-383.35888671875,0.6875,16,0.0,0.0,1604812540,,,,0,0.0,3,-43.47,28.200000000000003,4851.18896484375,6.249278545379639,,,C,68239863607120
Raw,68239863,61903711000000,18,0.0,-1404163181710679170,0.5537700653076172,33.371641620760784,-7.984445423886951,12.77260739101845,2,41,0.0,16399,484271346380294,9,44.5,22.718273162841797,0.28450000286102295,16,0.0,0.0,1561097980,,,,0,0.0,5,-58.21,40.2,-451.6524353027344,6.161828517913818,,,I,68239863622537
Raw,68239863,61903711000000,18,0.0,-1404163181710679170,0.5537700653076172,33.371641620760784,-7.984445423886951,12.77260739101845,2,39,0.0,16399,484271289671194,46,30.1,169.9933624267578,1.4450000524520874,16,0.0,0.0,1561097980,,,,0,0.0,5,-58.21,25.8,-451.6524353027344,6.161828517913818,,,I,68239863641026
Raw,68239863,61903711000000,18,0.0,-1404163181710679170,0.5537700653076172,33.371641620760784,-7.984445423886951,12.77260739101845,2,33,0.0,16399,484271339167440,21,36.1,324.4795227050781,0.4950000047683716,16,0.0,0.0,1561097980,,,,0,0.0,5,-58.21,31.8,-451.6524353027344,6.161828517913818,,,I,68239863656756
Raw,68239863,61903711000000,18,0.0,-1404163181710679170,0.5537700653076172,33.371641620760784,-7.984445423886951,12.77260739101845,2,32,0.0,16399,484271340467564,14,39.7,-318.80474853515625,0.41350001096725464,16,0.0,0.0,1561097980,,,,0,0.0,5,-58.21,35.400000000000006,-451.6524353027344,6.161828517913818,,,I,68239863671651
Raw,68239863,61903711000000,18,0.0,-1404163181710679170,0.5537700653076172,33.371641620760784,-7.984445423886951,12.77260739101845,2,30,0.0,16399,484271338527910,19,36.4,-158.37496948242188,0.4964999854564667,16,0.0,0.0,1561097980,,,,0,0.0,5,-58.21,32.1,-451.6524353027344,6.161828517913818,,,I,68239863688683
Raw,68239863,61903711000000,18,0.0,-1404163181710679170,0.5537700653076172,33.371641620760784,-7.984445423886951,12.77260739101845,2,28,0.0,16399,484271339012517,70,26.3,590.6366577148438,1.4950000047683716,16,0.0,0.0,1561097980,,,,0,0.0,5,-58.21,22.0,-451.6524353027344,6.161828517913818,,,I,68239863704099
Raw,68239863,61903711000000,18,0.0,-1404163181710679170,0.5537700653076172,33.371641620760784,-7.984445423886951,12.77260739101845,2,27,0.0,16399,484271343845635,31,33.0,309.942138671875,0.6389999985694885,16,0.0,0.0,1561097980,,,,0,0.0,5,-58.21,28.7,-451.6524353027344,6.161828517913818,,,I,68239863719047
Raw,68239863,61903711000000,18,0.0,-1404163181710679170,0.5537700653076172,33.371641620760784,-7.984445423886951,12.77260739101845,2,25,0.0,16399,484271344163065,12,41.8,-204.85812377929688,0.35749998688697815,16,0.0,0.0,1561097980,,,,0,0.0,5,-58.21,37.5,-451.6524353027344,6.161828517913818,,,I,68239863931703
Raw,68239864,61903711000000,18,0.0,-1404163181710679170,0.5537700653076172,33.371641620760784,-7.984445423886951,12.77260739101845,2,24,0.0,16399,484271337297053,24,35.1,273.3874206542969,0.527999997138977,16,0.0,0.0,1561097980,,,,0,0.0,5,-58.21,30.8,-451.6524353027344,6.161828517913818,,,I,68239864025766
Raw,68239864,61903711000000,18,0.0,-1404163181710679170,0.5537700653076172,33.371641620760784,-7.984445423886951,12.77260739101845,2,23,0.0,16399,484271338784455,27,33.8,-558.9597778320312,0.6165000200271606,16,0.0,0.0,1561097980,,,,0,0.0,5,-58.21,29.499999999999996,-451.6524353027344,6.161828517913818,,,I,68239864049047
Raw,68239864,61903711000000,18,0.0,-1404163181710679170,0.5537700653076172,33.371641620760784,-7.984445423886951,12.77260739101845,2,13,0.0,16399,484271288970003,27,33.5,96.49984741210938,0.6315000057220459,16,0.0,0.0,1561097980,,,,0,0.0,5,-58.21,29.2,-451.6524353027344,6.161828517913818,,,I,68239864072433
Raw,68239864,61903711000000,18,0.0,-1404163181710679170,0.5537700653076172,33.371641620760784,-7.984445423886951,12.77260739101845,2,9,0.0,16399,484271295816395,35,31.9,47.7218132019043,0.7310000061988831,16,0.0,0.0,1561097980,,,,0,0.0,5,-58.21,27.599999999999998,-451.6524353027344,6.161828517913818,,,I,68239864088995
Raw,68239864,61903711000000,18,0.0,-1404163181710679170,0.5537700653076172,33.371641620760784,-7.984445423886951,12.77260739101845,2,4,0.0,23567,484285337135806,10,43.9,346.6579895019531,0.3270000219345093,16,0.0,0.0,1575420030,,,,0,0.0,6,-49.07,39.6,3.1353166103363037,6.355762481689453,,,C,68239864108214
Raw,68239864,61903711000000,18,0.0,-1404163181710679170,0.5537700653076172,33.371641620760784,-7.984445423886951,12.77260739101845,2,5,0.0,23567,484285339252238,35,32.2,-322.0815734863281,0.7099999785423279,16,0.0,0.0,1575420030,,,,0,0.0,6,-49.07,27.900000000000002,3.1353166103363037,6.355762481689453,,,C,68239864124516
Raw,68239864,61903711000000,18,0.0,-1404163181710679170,0.5537700653076172,33.371641620760784,-7.984445423886951,12.77260739101845,2,9,0.0,23567,484285342582513,35,31.3,27.449861526489258,0.7684999704360962,16,0.0,0.0,1575420030,,,,0,0.0,6,-49.07,27.0,3.1353166103363037,6.355762481689453,,,C,68239864141183
Raw,68239864,61903711000000,18,0.0,-1404163181710679170,0.5537700653076172,33.371641620760784,-7.984445423886951,12.77260739101845,2,10,0.0,23567,484285334541651,70,27.0,552.0799560546875,1.0385000705718994,16,0.0,0.0,1575420030,,,,0,0.0,6,-49.07,22.7,3.1353166103363037,6.355762481689453,,,C,68239864157745
Raw,68239864,61903711000000,18,0.0,-1404163181710679170,0.5537700653076172,33.371641620760784,-7.984445423886951,12.77260739101845,2,11,0.0,23567,484285343663023,61,27.6,376.8956298828125,1.4539999961853027,16,0.0,0.0,1575420030,,,,0,0.0,6,-49.07,23.3,3.1353166103363037,6.355762481689453,,,C,68239864173839
Raw,68239864,61903711000000,18,0.0,-1404163181710679170,0.5537700653076172,33.371641620760784,-7.984445423886951,12.77260739101845,2,36,0.0,23567,484285341744278,16,39.1,-144.32823181152344,0.4270000159740448,16,0.0,0.0,1575420030,,,,0,0.0,6,-49.07,34.800000000000004,3.1353166103363037,6.355762481689453,,,C,68239864238162
Raw,68239864,61903711000000,18,0.0,-1404163181710679170,0.5537700653076172,33.371641620760784,-7.984445423886951,12.77260739101845,2,3,0.0,81935,484285353453647,6,35.1,-129.31248474121094,0.531000018119812,16,0.0,0.0,1176450050,,,,0,0.0,1,-36.83,30.1,11.153478622436523,3.003112554550171,,,Q,68239864351078
Raw,68239864,61903711000000,18,0.0,-1404163181710679170,0.5537700653076172,33.371641620760784,-7.984445423886951,12.77260739101845,2,9,0.0,81935,484285345495881,23,23.9,-422.5558776855469,1.8289999961853027,16,0.0,0.0,1176450050,,,,0,0.0,1,-36.83,18.9,11.153478622436523,3.003112554550171,,,Q,68239864383631
Raw,68239864,61903711000000,18,0.0,-1404163181710679170,0.5537700653076172,33.371641620760784,-7.984445423886951,12.77260739101845,2,4,0.0,81935,484285337135785,8,33.0,346.6874694824219,0.04715690016746521,16,0.0,0.0,1176450050,,,,0,0.0,6,-36.83,27.7,11.739922523498535,70.46247863769531,,,Q,68239864403370
Raw,68239864,61903711000000,18,0.0,-1404163181710679170,0.5537700653076172,33.371641620760784,-7.984445423886951,12.77260739101845,2,9,0.0,81935,484285342582469,8,32.5,27.46217155456543,0.02465689741075039,16,0.0,0.0,1176450050,,,,0,0.0,6,-36.83,27.2,11.739922523498535,70.46247863769531,,,Q,68239864424360
Raw,68239864,61903711000000,18,0.0,-1404163181710679170,0.5537700653076172,33.371641620760784,-7.984445423886951,12.77260739101845,2,34,0.0,81935,484285329738516,23,23.6,-524.9457397460938,2.495000123977661,16,0.0,0.0,1176450050,,,,0,0.0,6,-36.83,18.3,11.739922523498535,70.46247863769531,,,Q,68239864444620
Raw,68239864,61903711000000,18,0.0,-1404163181710679170,0.5537700653076172,33.371641620760784,-7.984445423886951,12.77260739101845,2,36,0.0,81935,484285341744251,20,24.6,-144.5129852294922,1.7230000495910645,16,0.0,0.0,1176450050,,,,0,0.0,6,-36.83,19.3,11.739922523498535,70.46247863769531,,,Q,68239864460089
Raw,68239864,61903711000000,18,0.0,-1404163181710679170,0.5537700653076172,33.371641620760784,-7.984445423886951,12.77260739101845,2,23,0.0,16399,484271338784460,18,25.3,-559.4240112304688,1.2085000276565552,16,0.0,0.0,1176450050,,,,0,0.0,5,-36.83,20.8,-464.4976501464844,69.69564819335938,,,Q,68239864475662
Raw,68239864,61903711000000,18,0.0,-1404163181710679170,0.5537700653076172,33.371641620760784,-7.984445423886951,12.77260739101845,2,28,0.0,16399,484271339012509,18,24.6,589.7230224609375,1.7200000286102295,16,0.0,0.0,1176450050,,,,0,0.0,5,-36.83,20.1,-464.4976501464844,69.69564819335938,,,Q,68239864491912
Raw,68239864,61903711000000,18,0.0,-1404163181710679170,0.5537700653076172,33.371641620760784,-7.984445423886951,12.77260739101845,2,33,0.0,16399,484271339167334,18,25.3,324.434326171875,1.6299999952316284,16,0.0,0.0,1176450050,,,,0,0.0,5,-36.83,20.8,-464.4976501464844,69.69564819335938,,,Q,68239864612120
Raw,68239864,61903711000000,18,0.0,-1404163181710679170,0.5537700653076172,33.371641620760784,-7.984445423886951,12.77260739101845,2,41,0.0,16399,484271346380254,9,30.9,22.7685546875,0.0693720206618309,16,0.0,0.0,1176450050,,,,0,0.0,5,-36.83,26.4,-464.4976501464844,69.69564819335938,,,Q,68239864645506
Raw,68239864,61903711000000,18,0.0,-1404163181710679170,0.5537700653076172,33.371641620760784,-7.984445423886951,12.77260739101845,2,23,0.0,16399,484271338784466,6,38.8,-559.0352172851562,0.5385000109672546,16,0.0,0.0,1575420030,,,,0,0.0,5,-49.07,31.799999999999997,-472.3331298828125,68.85967254638672,,,P,68239864667485
Raw,68239864,61903711000000,18,0.0,-1404163181710679170,0.5537700653076172,33.371641620760784,-7.984445423886951,12.77260739101845,2,24,0.0,16399,484271337297050,7,36.3,273.4615173339844,0.6570000052452087,16,0.0,0.0,1575420030,,,,0,0.0,5,-49.07,29.299999999999997,-472.3331298828125,68.85967254638672,,,P,68239864687172
Raw,68239864,61903711000000,18,0.0,-1404163181710679170,0.5537700653076172,33.371641620760784,-7.984445423886951,12.77260739101845,2,25,0.0,16399,484271344163071,3,43.8,-204.73696899414062,0.3725000023841858,16,0.0,0.0,1575420030,,,,0,0.0,5,-49.07,36.8,-472.3331298828125,68.85967254638672,,,P,68239864705922
Raw,68239864,61903711000000,18,0.0,-1404163181710679170,0.5537700653076172,33.371641620760784,-7.984445423886951,12.77260739101845,2,27,0.0,16399,484271343845663,14,29.7,309.89324951171875,1.3009999990463257,16,0.0,0.0,1575420030,,,,0,0.0,5,-49.07,22.7,-472.3331298828125,68.85967254638672,,,P,68239864722172
Raw,68239864,61903711000000,18,0.0,-1404163181710679170,0.5537700653076172,33.371641620760784,-7.984445423886951,12.77260739101845,2,28,0.0,16399,484271339012574,14,29.4,590.5098266601562,1.3899999856948853,16,0.0,0.0,1575420030,,,,0,0.0,5,-49.07,22.4,-472.3331298828125,68.85967254638672,,,P,68239864740297
Raw,68239864,61903711000000,18,0.0,-1404163181710679170,0.5537700653076172,33.371641620760784,-7.984445423886951,12.77260739101845,2,30,0.0,16399,484271338527929,3,43.3,-158.49560546875,0.40849998593330383,16,0.0,0.0,1575420030,,,,0,0.0,5,-49.07,36.3,-472.3331298828125,68.85967254638672,,,P,68239864812224
Raw,68239864,61903711000000,18,0.0,-1404163181710679170,0.5537700653076172,33.371641620760784,-7.984445423886951,12.77260739101845,2,32,0.0,16399,484271340467585,6,37.0,-318.6562805175781,0.8765000104904175,16,0.0,0.0,1575420030,,,,0,0.0,5,-49.07,30.0,-472.3331298828125,68.85967254638672,,,P,68239864848735
Raw,68239864,61903711000000,18,0.0,-1404163181710679170,0.5537700653076172,33.371641620760784,-7.984445423886951,12.77260739101845,2,33,0.0,16399,484271339167441,5,40.7,324.4221496582031,0.46000000834465027,16,0.0,0.0,1575420030,,,,0,0.0,5,-49.07,33.7,-472.3331298828125,68.85967254638672,,,P,68239864868683
Raw,68239864,61903711000000,18,0.0,-1404163181710679170,0.5537700653076172,33.371641620760784,-7.984445423886951,12.77260739101845,2,39,0.0,16399,484271289671234,10,32.9,169.50408935546875,1.0850000381469727,16,0.0,0.0,1575420030,,,,0,0.0,5,-49.07,25.9,-472.3331298828125,68.85967254638672,,,P,68239864888631
Raw,68239864,61903711000000,18,0.0,-1404163181710679170,0.5537700653076172,33.371641620760784,-7.984445423886951,12.77260739101845,2,41,0.0,16399,484271346380302,2,47.2,22.778152465820312,0.30550000071525574,16,0.0,0.0,1575420030,,,,0,0.0,5,-49.07,40.2,-472.3331298828125,68.85967254638672,,,P,68239864940193
Raw,68240829,61904711000000,18,0.0,-1404163181710679176,0.9807357788085938,33.3019852405414,-7.488957321021801,12.12046368426688,2,2,0.0,16399,484286349271313,16,39.3,436.6907043457031,0.04440523311495781,16,0.0,0.0,1575420030,,,,0,0.0,1,-45.37,34.3,0.0,0.0,,,C,68240829446651
Raw,68240829,61904711000000,18,0.0,-1404163181710679176,0.9807357788085938,33.3019852405414,-7.488957321021801,12.12046368426688,2,3,0.0,16399,484286353454100,7,47.4,-130.03285217285156,0.028205491602420807,16,0.0,0.0,1575420030,,,,0,0.0,1,-45.37,42.4,0.0,0.0,,,C,68240829762797
Raw,68240829,61904711000000,18,0.0,-1404163181710679176,0.9807357788085938,33.3019852405414,-7.488957321021801,12.12046368426688,2,4,0.0,16399,484286352697019,21,36.8,-108.21882629394531,0.06959104537963867,16,0.0,0.0,1575420030,,,,0,0.0,1,-45.37,31.799999999999997,0.0,0.0,,,C,68240829799932
Raw,68240829,61904711000000,18,0.0,-1404163181710679176,0.9807357788085938,33.3019852405414,-7.488957321021801,12.12046368426688,2,7,0.0,16399,484286337250809,40,31.6,-643.858642578125,0.7279999852180481,16,0.0,0.0,1575420030,,,,0,0.0,1,-45.37,26.6,0.0,0.0,,,C,68240829824307
Raw,68240829,61904711000000,18,0.0,-1404163181710679176,0.9807357788085938,33.3019852405414,-7.488957321021801,12.12046368426688,2,9,0.0,16399,484286345497327,46,30.0,-422.2045593261719,0.8059999942779541,16,0.0,0.0,1575420030,,,,0,0.0,1,-45.37,25.0,0.0,0.0,,,C,68240829848318
Raw,68240829,61904711000000,18,0.0,-1404163181710679176,0.9807357788085938,33.3019852405414,-7.488957321021801,12.12046368426688,2,17,0.0,16399,484286340812842,14,40.5,196.1344757080078,0.05299565568566322,16,0.0,0.0,1575420030,,,,0,0.0,1,-45.37,35.5,0.0,0.0,,,C,68240829868995
Raw,68240829,61904711000000,18,0.0,-1404163181710679176,0.9807357788085938,33.3019852405414,-7.488957321021801,12.12046368426688,2,19,0.0,16399,484286340766468,17,38.6,-0.36996203660964966,0.05929437652230263,16,0.0,0.0,1575420030,,,,0,0.0,1,-45.37,33.6,0.0,0.0,,,C,68240829965089
Raw,68240830,61904711000000,18,0.0,-1404163181710679176,0.9807357788085938,33.3019852405414,-7.488957321021801,12.12046368426688,2,21,0.0,16399,484286345754325,31,33.6,530.2818603515625,0.6360000371932983,16,0.0,0.0,1575420030,,,,0,0.0,1,-45.37,28.6,0.0,0.0,,,C,68240830003578
Raw,68240830,61904711000000,18,0.0,-1404163181710679176,0.9807357788085938,33.3019852405414,-7.488957321021801,12.12046368426688,2,26,0.0,16399,484286341264657,31,33.3,-276.1161193847656,0.6420000195503235,16,0.0,0.0,1575420030,,,,0,0.0,1,-45.37,28.299999999999997,0.0,0.0,,,C,68240830023474
Raw,68240830,61904711000000,18,0.0,-1404163181710679176,0.9807357788085938,33.3019852405414,-7.488957321021801,12.12046368426688,2,31,0.0,16399,484286348795508,21,36.4,376.53363037109375,1.2173529863357544,16,0.0,0.0,1575420030,,,,0,0.0,1,-45.37,31.4,0.0,0.0,,,C,68240830043578
Raw,68240830,61904711000000,18,0.0,-1404163181710679176,0.9807357788085938,33.3019852405414,-7.488957321021801,12.12046368426688,2,2,0.0,49359,63068353028987,12,41.5,-66.80398559570312,0.03138354420661926,16,0.0,0.0,1599750020,,,,0,0.0,3,-43.64,37.5,4851.060546875,6.247865676879883,,,C,68240830061391
Raw,68240830,61904711000000,18,0.0,-1404163181710679176,0.9807357788085938,33.3019852405414,-7.488957321021801,12.12046368426688,2,18,0.0,49359,63068345984186,53,28.9,-584.6216430664062,0.9359999895095825,16,0.0,0.0,1600312450,,,,0,0.0,3,-43.64,24.9,4851.060546875,6.247865676879883,,,C,68240830083422
Raw,68240830,61904711000000,18,0.0,-1404163181710679176,0.9807357788085938,33.3019852405414,-7.488957321021801,12.12046368426688,2,12,0.0,49359,63068348316692,13,40.0,-597.1234741210938,0.03975561633706093,16,0.0,0.0,1601437440,,,,0,0.0,3,-43.64,36.0,4851.060546875,6.247865676879883,,,C,68240830104411
Raw,68240830,61904711000000,18,0.0,-1404163181710679176,0.9807357788085938,33.3019852405414,-7.488957321021801,12.12046368426688,2,11,0.0,49359,63068348085338,31,32.8,31.962892532348633,0.6814999580383301,16,0.0,0.0,1602000000,,,,0,0.0,3,-43.64,28.799999999999997,4851.060546875,6.247865676879883,,,C,68240830123734
Raw,68240830,61904711000000,18,0.0,-1404163181710679176,0.9807357788085938,33.3019852405414,-7.488957321021801,12.12046368426688,2,1,0.0,49359,63068350689869,21,35.7,298.6967468261719,0.07184427976608276,16,0.0,0.0,1602562560,,,,0,0.0,3,-43.64,31.700000000000003,4851.060546875,6.247865676879883,,,C,68240830147432
Raw,68240830,61904711000000,18,0.0,-1404163181710679176,0.9807357788085938,33.3019852405414,-7.488957321021801,12.12046368426688,2,24,0.0,49359,63068350462887,21,35.5,704.9331665039062,3.9989349842071533,16,0.0,0.0,1603124990,,,,0,0.0,3,-43.64,31.5,4851.060546875,6.247865676879883,,,C,68240830165922
Raw,68240830,61904711000000,18,0.0,-1404163181710679176,0.9807357788085938,33.3019852405414,-7.488957321021801,12.12046368426688,2,17,0.0,49359,63068354189632,24,34.9,27.155488967895508,2.3396241664886475,16,0.0,0.0,1604249980,,,,0,0.0,3,-43.64,30.9,4851.060546875,6.247865676879883,,,C,68240830185922
Raw,68240830,61904711000000,18,0.0,-1404163181710679176,0.9807357788085938,33.3019852405414,-7.488957321021801,12.12046368426688,2,3,0.0,49359,63068344359652,21,35.5,-384.2025451660156,2.322484254837036,16,0.0,0.0,1604812540,,,,0,0.0,3,-43.64,31.5,4851.060546875,6.247865676879883,,,C,68240830303995
Raw,68240830,61904711000000,18,0.0,-1404163181710679176,0.9807357788085938,33.3019852405414,-7.488957321021801,12.12046368426688,2,60,0.0,16399,484272292543713,40,31.1,18.9446964263916,5.2565999031066895,16,0.0,0.0,1561097980,,,,0,0.0,5,-58.26,26.8,-451.6376037597656,6.1608967781066895,,,I,68240830326703
Raw,68240830,61904711000000,18,0.0,-1404163181710679176,0.9807357788085938,33.3019852405414,-7.488957321021801,12.12046368426688,2,41,0.0,16399,484272346380208,9,44.3,21.94594955444336,0.0398579016327858,16,0.0,0.0,1561097980,,,,0,0.0,5,-58.26,40.0,-451.6376037597656,6.1608967781066895,,,I,68240830348057
Raw,68240830,61904711000000,18,0.0,-1404163181710679176,0.9807357788085938,33.3019852405414,-7.488957321021801,12.12046368426688,2,39,0.0,16399,484272289670622,46,29.5,168.42823791503906,0.8600000143051147,16,0.0,0.0,1561097980,,,,0,0.0,5,-58.26,25.2,-451.6376037597656,6.1608967781066895,,,I,68240830369464
Raw,68240830,61904711000000,18,0.0,-1404163181710679176,0.9807357788085938,33.3019852405414,-7.488957321021801,12.12046368426688,2,33,0.0,16399,484272339166344,21,35.6,323.73095703125,0.6356139779090881,16,0.0,0.0,1561097980,,,,0,0.0,5,-58.26,31.3,-451.6376037597656,6.1608967781066895,,,I,68240830389464
Raw,68240830,61904711000000,18,0.0,-1404163181710679176,0.9807357788085938,33.3019852405414,-7.488957321021801,12.12046368426688,2,32,0.0,16399,484272340468639,14,39.6,-319.5216979980469,0.053082771599292755,16,0.0,0.0,1561097980,,,,0,0.0,5,-58.26,35.300000000000004,-451.6376037597656,6.1608967781066895,,,I,68240830408995
Raw,68240830,61904711000000,18,0.0,-1404163181710679176,0.9807357788085938,33.3019852405414,-7.488957321021801,12.12046368426688,2,30,0.0,16399,484272338528442,21,35.9,-159.28842163085938,0.6371139883995056,16,0.0,0.0,1561097980,,,,0,0.0,5,-58.26,31.599999999999998,-451.6376037597656,6.1608967781066895,,,I,68240830526807
Raw,68240830,61904711000000,18,0.0,-1404163181710679176,0.9807357788085938,33.3019852405414,-7.488957321021801,12.12046368426688,2,28,0.0,16399,484272339010520,46,29.3,590.876708984375,0.8449999690055847,16,0.0,0.0,1561097980,,,,0,0.0,5,-58.26,25.0,-451.6376037597656,6.1608967781066895,,,I,68240830560766
Raw,68240830,61904711000000,18,0.0,-1404163181710679176,0.9807357788085938,33.3019852405414,-7.488957321021801,12.12046368426688,2,27,0.0,16399,484272343844621,24,34.4,310.1156921386719,1.8440560102462769,16,0.0,0.0,1561097980,,,,0,0.0,5,-58.26,30.099999999999998,-451.6376037597656,6.1608967781066895,,,I,68240830581130
Raw,68240830,61904711000000,18,0.0,-1404163181710679176,0.9807357788085938,33.3019852405414,-7.488957321021801,12.12046368426688,2,25,0.0,16399,484272344163743,12,41.8,-204.96546936035156,0.04506635665893555,16,0.0,0.0,1561097980,,,,0,0.0,5,-58.26,37.5,-451.6376037597656,6.1608967781066895,,,I,68240830725297
Raw,68240830,61904711000000,18,0.0,-1404163181710679176,0.9807357788085938,33.3019852405414,-7.488957321021801,12.12046368426688,2,24,0.0,16399,484272337296127,19,37.0,272.7027282714844,0.6200630068778992,16,0.0,0.0,1561097980,,,,0,0.0,5,-58.26,32.7,-451.6376037597656,6.1608967781066895,,,I,68240830751182
Raw,68240830,61904711000000,18,0.0,-1404163181710679176,0.9807357788085938,33.3019852405414,-7.488957321021801,12.12046368426688,2,23,0.0,16399,484272338786328,35,31.6,-558.3356323242188,0.7264999747276306,16,0.0,0.0,1561097980,,,,0,0.0,5,-58.26,27.3,-451.6376037597656,6.1608967781066895,,,I,68240830851859
Raw,68240830,61904711000000,18,0.0,-1404163181710679176,0.9807357788085938,33.3019852405414,-7.488957321021801,12.12046368426688,2,13,0.0,16399,484272288969674,24,34.3,96.50558471679688,1.8365559577941895,16,0.0,0.0,1561097980,,,,0,0.0,5,-58.26,29.999999999999996,-451.6376037597656,6.1608967781066895,,,I,68240830879047
Raw,68240830,61904711000000,18,0.0,-1404163181710679176,0.9807357788085938,33.3019852405414,-7.488957321021801,12.12046368426688,2,9,0.0,16399,484272295816200,31,32.8,47.93305969238281,0.6710000038146973,16,0.0,0.0,1561097980,,,,0,0.0,5,-58.26,28.499999999999996,-451.6376037597656,6.1608967781066895,,,I,68240830899099
Raw,68240830,61904711000000,18,0.0,-1404163181710679176,0.9807357788085938,33.3019852405414,-7.488957321021801,12.12046368426688,2,2,0.0,16399,484272292653925,27,33.4,15.3631591796875,3.975600242614746,16,0.0,0.0,1561097980,,,,0,0.0,5,-58.26,29.099999999999998,-451.6376037597656,6.1608967781066895,,,I,68240830917484
Raw,68240830,61904711000000,18,0.0,-1404163181710679176,0.9807357788085938,33.3019852405414,-7.488957321021801,12.12046368426688,2,4,0.0,23567,484286337134651,10,43.5,345.8814392089844,0.06289910525083542,16,0.0,0.0,1575420030,,,,0,0.0,6,-49.16,39.2,3.095010757446289,6.352590560913086,,,C,68240830936234
Raw,68240830,61904711000000,18,0.0,-1404163181710679176,0.9807357788085938,33.3019852405414,-7.488957321021801,12.12046368426688,2,5,0.0,23567,484286339253301,19,36.3,-322.37152099609375,0.07459552586078644,16,0.0,0.0,1575420030,,,,0,0.0,6,-49.16,31.999999999999996,3.095010757446289,6.352590560913086,,,C,68240830958578
Raw,68240830,61904711000000,18,0.0,-1404163181710679176,0.9807357788085938,33.3019852405414,-7.488957321021801,12.12046368426688,2,9,0.0,23567,484286342582409,46,29.4,26.857118606567383,0.10274328291416168,16,0.0,0.0,1575420030,,,,0,0.0,6,-49.16,25.099999999999998,3.095010757446289,6.352590560913086,,,C,68240830977224
Raw,68240830,61904711000000,18,0.0,-1404163181710679176,0.9807357788085938,33.3019852405414,-7.488957321021801,12.12046368426688,2,11,0.0,23567,484286343661718,46,30.2,376.98809814453125,0.8627274036407471,16,0.0,0.0,1575420030,,,,0,0.0,6,-49.16,25.9,3.095010757446289,6.352590560913086,,,C,68240830995609
Raw,68240831,61904711000000,18,0.0,-1404163181710679176,0.9807357788085938,33.3019852405414,-7.488957321021801,12.12046368426688,2,34,0.0,23567,484286329740292,106,23.7,-525.648193359375,2.177000045776367,16,0.0,0.0,1575420030,,,,0,0.0,6,-49.16,19.4,3.095010757446289,6.352590560913086,,,C,68240831012380
Raw,68240831,61904711000000,18,0.0,-1404163181710679176,0.9807357788085938,33.3019852405414,-7.488957321021801,12.12046368426688,2,36,0.0,23567,484286341744767,16,38.6,-144.81651306152344,0.06780868023633957,16,0.0,0.0,1575420030,,,,0,0.0,6,-49.16,34.300000000000004,3.095010757446289,6.352590560913086,,,C,68240831027901
Raw,68240831,61904711000000,18,0.0,-1404163181710679176,0.9807357788085938,33.3019852405414,-7.488957321021801,12.12046368426688,2,3,0.0,81935,484286353454081,8,32.9,-129.977783203125,0.04115689918398857,16,0.0,0.0,1176450050,,,,0,0.0,1,-38.26,27.9,11.153478622436523,3.003112554550171,,,Q,68240831053161
Raw,68240831,61904711000000,18,0.0,-1404163181710679176,0.9807357788085938,33.3019852405414,-7.488957321021801,12.12046368426688,2,4,0.0,81935,484286352696994,18,25.2,-108.2636947631836,1.8895000219345093,16,0.0,0.0,1176450050,,,,0,0.0,1,-38.26,20.2,11.153478622436523,3.003112554550171,,,Q,68240831076234
Raw,68240831,61904711000000,18,0.0,-1404163181710679176,0.9807357788085938,33.3019852405414,-7.488957321021801,12.12046368426688,2,4,0.0,81935,484286337134629,8,32.4,345.87432861328125,0.04715690016746521,16,0.0,0.0,1176450050,,,,0,0.0,6,-38.26,27.099999999999998,11.739922523498535,70.30329895019531,,,Q,68240831093161
Raw,68240831,61904711000000,18,0.0,-1404163181710679176,0.9807357788085938,33.3019852405414,-7.488957321021801,12.12046368426688,2,9,0.0,81935,484286342582379,12,28.3,26.45115089416504,0.9044999480247498,16,0.0,0.0,1176450050,,,,0,0.0,6,-38.26,23.0,11.739922523498535,70.30329895019531,,,Q,68240831110766
Raw,68240831,61904711000000,18,0.0,-1404163181710679176,0.9807357788085938,33.3019852405414,-7.488957321021801,12.12046368426688,2,11,0.0,81935,484286343661724,27,22.6,376.406494140625,3.326000213623047,16,0.0,0.0,1176450050,,,,0,0.0,6,-38.26,17.3,11.739922523498535,70.30329895019531,,,Q,68240831128370
Raw,68240831,61904711000000,18,0.0,-1404163181710679176,0.9807357788085938,33.3019852405414,-7.488957321021801,12.12046368426688,2,36,0.0,81935,484286341744753,18,26.1,-145.23924255371094,1.062999963760376,16,0.0,0.0,1176450050,,,,0,0.0,6,-38.26,20.8,11.739922523498535,70.30329895019531,,,Q,68240831146234
Raw,68240831,61904711000000,18,0.0,-1404163181710679176,0.9807357788085938,33.3019852405414,-7.488957321021801,12.12046368426688,2,30,0.0,16399,484272338528440,30,21.2,-158.60498046875,3.4685001373291016,16,0.0,0.0,1176450050,,,,0,0.0,5,-38.26,16.7,-464.4666748046875,69.5406494140625,,,Q,68240831162016
Raw,68240831,61904711000000,18,0.0,-1404163181710679176,0.9807357788085938,33.3019852405414,-7.488957321021801,12.12046368426688,2,33,0.0,16399,484272339166277,16,25.8,323.0964660644531,1.2100000381469727,16,0.0,0.0,1176450050,,,,0,0.0,5,-38.26,21.3,-464.4666748046875,69.5406494140625,,,Q,68240831177849
Raw,68240831,61904711000000,18,0.0,-1404163181710679176,0.9807357788085938,33.3019852405414,-7.488957321021801,12.12046368426688,2,41,0.0,16399,484272346380185,9,30.5,21.998973846435547,0.0693720206618309,16,0.0,0.0,1176450050,,,,0,0.0,5,-38.26,26.0,-464.4666748046875,69.5406494140625,,,Q,68240831193422
Raw,68240831,61904711000000,18,0.0,-1404163181710679176,0.9807357788085938,33.3019852405414,-7.488957321021801,12.12046368426688,2,23,0.0,16399,484272338786344,6,37.5,-558.8056030273438,0.08689182251691818,16,0.0,0.0,1575420030,,,,0,0.0,5,-49.16,30.5,-472.3054504394531,68.70043182373047,,,P,68240831257953
Raw,68240831,61904711000000,18,0.0,-1404163181710679176,0.9807357788085938,33.3019852405414,-7.488957321021801,12.12046368426688,2,24,0.0,16399,484272337296144,7,36.2,272.7333068847656,1.2424534559249878,16,0.0,0.0,1575420030,,,,0,0.0,5,-49.16,29.200000000000003,-472.3054504394531,68.70043182373047,,,P,68240831277797
Raw,68240831,61904711000000,18,0.0,-1404163181710679176,0.9807357788085938,33.3019852405414,-7.488957321021801,12.12046368426688,2,25,0.0,16399,484272344163756,3,43.9,-204.94268798828125,0.060891952365636826,16,0.0,0.0,1575420030,,,,0,0.0,5,-49.16,36.9,-472.3054504394531,68.70043182373047,,,P,68240831339464
Raw,68240831,61904711000000,18,0.0,-1404163181710679176,0.9807357788085938,33.3019852405414,-7.488957321021801,12.12046368426688,2,27,0.0,16399,484272343844622,12,30.0,310.0930480957031,1.031000018119812,16,0.0,0.0,1575420030,,,,0,0.0,5,-49.16,23.0,-472.3054504394531,68.70043182373047,,,P,68240831374099
Raw,68240831,61904711000000,18,0.0,-1404163181710679176,0.9807357788085938,33.3019852405414,-7.488957321021801,12.12046368426688,2,28,0.0,16399,484272339010563,11,31.0,591.1325073242188,1.3013427257537842,16,0.0,0.0,1575420030,,,,0,0.0,5,-49.16,24.0,-472.3054504394531,68.70043182373047,,,P,68240831396130
Raw,68240831,61904711000000,18,0.0,-1404163181710679176,0.9807357788085938,33.3019852405414,-7.488957321021801,12.12046368426688,2,30,0.0,16399,484272338528460,4,42.3,-159.2265625,0.06801468878984451,16,0.0,0.0,1575420030,,,,0,0.0,5,-49.16,35.3,-472.3054504394531,68.70043182373047,,,P,68240831413422
Raw,68240831,61904711000000,18,0.0,-1404163181710679176,0.9807357788085938,33.3019852405414,-7.488957321021801,12.12046368426688,2,32,0.0,16399,484272340468663,6,38.7,-319.47576904296875,0.06560548394918442,16,0.0,0.0,1575420030,,,,0,0.0,5,-49.16,31.700000000000003,-472.3054504394531,68.70043182373047,,,P,68240831432589
Raw,68240831,61904711000000,18,0.0,-1404163181710679176,0.9807357788085938,33.3019852405414,-7.488957321021801,12.12046368426688,2,33,0.0,16399,484272339166342,5,39.4,323.77532958984375,0.07459552586078644,16,0.0,0.0,1575420030,,,,0,0.0,5,-49.16,32.4,-472.3054504394531,68.70043182373047,,,P,68240831449620
Raw,68240831,61904711000000,18,0.0,-1404163181710679176,0.9807357788085938,33.3019852405414,-7.488957321021801,12.12046368426688,2,39,0.0,16399,484272289670669,14,29.3,168.82855224609375,1.1049998998641968,16,0.0,0.0,1575420030,,,,0,0.0,5,-49.16,22.3,-472.3054504394531,68.70043182373047,,,P,68240831466599
Raw,68240831,61904711000000,18,0.0,-1404163181710679176,0.9807357788085938,33.3019852405414,-7.488957321021801,12.12046368426688,2,41,0.0,16399,484272346380236,2,46.8,22.003738403320312,0.061399105936288834,16,0.0,0.0,1575420030,,,,0,0.0,5,-49.16,39.8,-472.3054504394531,68.70043182373047,,,P,68240831483578
Raw,68241816,61905711000000,18,0.0,-1404163181710679185,0.5930042266845703,30.58784204768017,-8.883531143425335,10.621509522491767,2,2,0.0,16399,484287349269877,16,39.8,436.9694519042969,0.04440523311495781,16,0.0,0.0,1575420030,,,,0,0.0,1,-45.55,34.8,0.0,0.0,,,C,68241816362953
Raw,68241816,61905711000000,18,0.0,-1404163181710679185,0.5930042266845703,30.58784204768017,-8.883531143425335,10.621509522491767,2,3,0.0,16399,484287353454535,7,47.1,-130.57656860351562,0.028205491602420807,16,0.0,0.0,1575420030,,,,0,0.0,1,-45.55,42.1,0.0,0.0,,,C,68241816483213
Raw,68241816,61905711000000,18,0.0,-1404163181710679185,0.5930042266845703,30.58784204768017,-8.883531143425335,10.621509522491767,2,4,0.0,16399,484287352697372,21,36.5,-108.61903381347656,0.6404720544815063,16,0.0,0.0,1575420030,,,,0,0.0,1,-45.55,31.5,0.0,0.0,,,C,68241816520505
Raw,68241816,61905711000000,18,0.0,-1404163181710679185,0.5930042266845703,30.58784204768017,-8.883531143425335,10.621509522491767,2,7,0.0,16399,484287337252974,46,30.3,-643.5731811523438,0.7879999876022339,16,0.0,0.0,1575420030,,,,0,0.0,1,-45.55,25.3,0.0,0.0,,,C,68241816541078
Raw,68241816,61905711000000,18,0.0,-1404163181710679185,0.5930042266845703,30.58784204768017,-8.883531143425335,10.621509522491767,2,17,0.0,16399,484287340812183,17,38.8,195.85060119628906,0.05929437652230263,16,0.0,0.0,1575420030,,,,0,0.0,1,-45.55,33.8,0.0,0.0,,,C,68241816559411
Raw,68241816,61905711000000,18,0.0,-1404163181710679185,0.5930042266845703,30.58784204768017,-8.883531143425335,10.621509522491767,2,19,0.0,16399,484287340766439,31,33.0,-0.666027843952179,0.643500030040741,16,0.0,0.0,1575420030,,,,0,0.0,1,-45.55,28.0,0.0,0.0,,,C,68241816580713
Raw,68241816,61905711000000,18,0.0,-1404163181710679185,0.5930042266845703,30.58784204768017,-8.883531143425335,10.621509522491767,2,21,0.0,16399,484287345752568,31,33.4,530.1201171875,0.6360000371932983,16,0.0,0.0,1575420030,,,,0,0.0,1,-45.55,28.4,0.0,0.0,,,C,68241816603109
Raw,68241816,61905711000000,18,0.0,-1404163181710679185,0.5930042266845703,30.58784204768017,-8.883531143425335,10.621509522491767,2,26,0.0,16399,484287341265615,17,38.0,-276.3498229980469,0.05779437720775604,16,0.0,0.0,1575420030,,,,0,0.0,1,-45.55,33.0,0.0,0.0,,,C,68241816622588
Raw,68241816,61905711000000,18,0.0,-1404163181710679185,0.5930042266845703,30.58784204768017,-8.883531143425335,10.621509522491767,2,31,0.0,16399,484287348794218,19,37.6,376.1233215332031,0.6280896663665771,16,0.0,0.0,1575420030,,,,0,0.0,1,-45.55,32.6,0.0,0.0,,,C,68241816643161
Raw,68241816,61905711000000,18,0.0,-1404163181710679185,0.5930042266845703,30.58784204768017,-8.883531143425335,10.621509522491767,2,2,0.0,49359,63069353029225,12,41.4,-67.50640106201172,0.03138354420661926,16,0.0,0.0,1599750020,,,,0,0.0,3,-43.53,37.4,4850.93310546875,6.244836330413818,,,C,68241816662901
Raw,68241816,61905711000000,18,0.0,-1404163181710679185,0.5930042266845703,30.58784204768017,-8.883531143425335,10.621509522491767,2,18,0.0,49359,63069345986177,40,30.7,-585.27734375,0.8059999942779541,16,0.0,0.0,1600312450,,,,0,0.0,3,-43.53,26.7,4850.93310546875,6.244836330413818,,,C,68241816708213
Raw,68241816,61905711000000,18,0.0,-1404163181710679185,0.5930042266845703,30.58784204768017,-8.883531143425335,10.621509522491767,2,12,0.0,49359,63069348318645,13,40.8,-596.8322143554688,0.03975561633706093,16,0.0,0.0,1601437440,,,,0,0.0,3,-43.53,36.8,4850.93310546875,6.244836330413818,,,C,68241816727901
Raw,68241816,61905711000000,18,0.0,-1404163181710679185,0.5930042266845703,30.58784204768017,-8.883531143425335,10.621509522491767,2,11,0.0,49359,63069348085103,27,33.7,31.700902938842773,0.6315000057220459,16,0.0,0.0,1602000000,,,,0,0.0,3,-43.53,29.700000000000003,4850.93310546875,6.244836330413818,,,C,68241816746390
Raw,68241816,61905711000000,18,0.0,-1404163181710679185,0.5930042266845703,30.58784204768017,-8.883531143425335,10.621509522491767,2,1,0.0,49359,63069350688888,24,34.1,298.0662536621094,0.1032160297036171,16,0.0,0.0,1602562560,,,,0,0.0,3,-43.53,30.1,4850.93310546875,6.244836330413818,,,C,68241816766026
Raw,68241816,61905711000000,18,0.0,-1404163181710679185,0.5930042266845703,30.58784204768017,-8.883531143425335,10.621509522491767,2,24,0.0,49359,63069350460471,19,36.4,705.4141845703125,0.614779531955719,16,0.0,0.0,1603124990,,,,0,0.0,3,-43.53,32.4,4850.93310546875,6.244836330413818,,,C,68241816783630
Raw,68241816,61905711000000,18,0.0,-1404163181710679185,0.5930042266845703,30.58784204768017,-8.883531143425335,10.621509522491767,2,17,0.0,49359,63069354189524,21,35.3,26.978368759155273,0.6264203786849976,16,0.0,0.0,1604249980,,,,0,0.0,3,-43.53,31.299999999999997,4850.93310546875,6.244836330413818,,,C,68241816800036
Raw,68241816,61905711000000,18,0.0,-1404163181710679185,0.5930042266845703,30.58784204768017,-8.883531143425335,10.621509522491767,2,3,0.0,49359,63069344360883,17,37.6,-384.6324462890625,0.053005099296569824,16,0.0,0.0,1604812540,,,,0,0.0,3,-43.53,33.6,4850.93310546875,6.244836330413818,,,C,68241816825296
Raw,68241816,61905711000000,18,0.0,-1404163181710679185,0.5930042266845703,30.58784204768017,-8.883531143425335,10.621509522491767,2,41,0.0,16399,484273346380145,10,43.9,21.323957443237305,0.0404532253742218,16,0.0,0.0,1561097980,,,,0,0.0,5,-58.31,39.6,-451.6040954589844,6.158996105194092,,,I,68241816846078
Raw,68241816,61905711000000,18,0.0,-1404163181710679185,0.5930042266845703,30.58784204768017,-8.883531143425335,10.621509522491767,2,39,0.0,16399,484273289670060,61,27.5,167.39122009277344,1.0099999904632568,16,0.0,0.0,1561097980,,,,0,0.0,5,-58.31,23.2,-451.6040954589844,6.158996105194092,,,I,68241816864828
Raw,68241816,61905711000000,18,0.0,-1404163181710679185,0.5930042266845703,30.58784204768017,-8.883531143425335,10.621509522491767,2,33,0.0,16399,484273339165259,16,38.8,323.3661804199219,0.029537390917539597,16,0.0,0.0,1561097980,,,,0,0.0,5,-58.31,34.5,-451.6040954589844,6.158996105194092,,,I,68241816948734
Raw,68241816,61905711000000,18,0.0,-1404163181710679185,0.5930042266845703,30.58784204768017,-8.883531143425335,10.621509522491767,2,32,0.0,16399,484273340469700,14,39.9,-320.1025390625,0.053082771599292755,16,0.0,0.0,1561097980,,,,0,0.0,5,-58.31,35.6,-451.6040954589844,6.158996105194092,,,I,68241816982432
Raw,68241817,61905711000000,18,0.0,-1404163181710679185,0.5930042266845703,30.58784204768017,-8.883531143425335,10.621509522491767,2,30,0.0,16399,484273338528976,21,36.1,-159.87493896484375,0.6371139883995056,16,0.0,0.0,1561097980,,,,0,0.0,5,-58.31,31.8,-451.6040954589844,6.158996105194092,,,I,68241817011338
Raw,68241817,61905711000000,18,0.0,-1404163181710679185,0.5930042266845703,30.58784204768017,-8.883531143425335,10.621509522491767,2,28,0.0,16399,484273339008586,35,31.4,591.164794921875,0.7249999642372131,16,0.0,0.0,1561097980,,,,0,0.0,5,-58.31,27.099999999999998,-451.6040954589844,6.158996105194092,,,I,68241817030349
Raw,68241817,61905711000000,18,0.0,-1404163181710679185,0.5930042266845703,30.58784204768017,-8.883531143425335,10.621509522491767,2,27,0.0,16399,484273343843595,31,33.0,310.09576416015625,0.6389999985694885,16,0.0,0.0,1561097980,,,,0,0.0,5,-58.31,28.7,-451.6040954589844,6.158996105194092,,,I,68241817045921
Raw,68241817,61905711000000,18,0.0,-1404163181710679185,0.5930042266845703,30.58784204768017,-8.883531143425335,10.621509522491767,2,25,0.0,16399,484273344164428,12,41.9,-204.94017028808594,0.04506635665893555,16,0.0,0.0,1561097980,,,,0,0.0,5,-58.31,37.6,-451.6040954589844,6.158996105194092,,,I,68241817062119
Raw,68241817,61905711000000,18,0.0,-1404163181710679185,0.5930042266845703,30.58784204768017,-8.883531143425335,10.621509522491767,2,24,0.0,16399,484273337295197,46,29.8,272.7056884765625,0.8479999899864197,16,0.0,0.0,1561097980,,,,0,0.0,5,-58.31,25.5,-451.6040954589844,6.158996105194092,,,I,68241817079984
Raw,68241817,61905711000000,18,0.0,-1404163181710679185,0.5930042266845703,30.58784204768017,-8.883531143425335,10.621509522491767,2,23,0.0,16399,484273338788188,27,33.6,-558.7293090820312,0.6165000200271606,16,0.0,0.0,1561097980,,,,0,0.0,5,-58.31,29.3,-451.6040954589844,6.158996105194092,,,I,68241817095244
